[{"serial_no":"RPPNMLLKMHLGFCA37CC","county_code":"a","district":"中山區","address":"臺北市中山區雙城街３巷２０號７樓","road":"中山區雙城街","building_type":"住宅大樓(11層含以上有電梯)","total_floors":18.0,"transfer_floor_num":7.0,"age_years":6.2,"rooms":2.0,"halls":2.0,"baths":1.0,"building_area_sqm":109.8,"total_price":67850,"unit_price_per_ping":2042.97513,"deal_date":"2026-03-20","is_special_deal":false,"note":"租金總額含管理費；","lat":25.0632521,"lng":121.5253388,"geocode_src":"nominatim"},{"serial_no":"RPXPMLKMLHLGFCA38CC","county_code":"a","district":"內湖區","address":"臺北市內湖區內湖路一段２１７巷５７號４樓","road":"內湖區內湖路一段","building_type":"華廈(10層含以下有電梯)","total_floors":7.0,"transfer_floor_num":4.0,"age_years":42.3,"rooms":3.0,"halls":2.0,"baths":2.0,"building_area_sqm":108.83,"total_price":27000,"unit_price_per_ping":819.83468,"deal_date":"2026-03-20","is_special_deal":false,"note":"管理費：500元，租金不含管理費，由承租人負擔。續租案件；","lat":25.0838234,"lng":121.564375,"geocode_src":"osm:exact"},{"serial_no":"RPRNMLPLLHLGFBA87CC","county_code":"a","district":"萬華區","address":"臺北市萬華區西寧南路６７號２樓","road":"萬華區西寧南路","building_type":"華廈(10層含以下有電梯)","total_floors":10.0,"transfer_floor_num":2.0,"age_years":38.9,"rooms":8.0,"halls":0.0,"baths":8.0,"building_area_sqm":24.0,"total_price":25800,"unit_price_per_ping":3553.718875,"deal_date":"2026-03-20","is_special_deal":false,"note":"飯店式管理，提供24小時現場櫃檯服務、專人客房及垃圾清潔、專人設備修繕、免費零食mini bar，並可接受30日以上之短租最低租期非一年租金總額含水費；電費；瓦斯費；","lat":25.046179272222222,"lng":121.50701149444444,"geocode_src":"nominatim"},{"serial_no":"RPOOMLLJMHLGFCA27CC","county_code":"a","district":"內湖區","address":"臺北市內湖區內湖路一段２１３號３樓","road":"內湖區內湖路一段","building_type":"華廈(10層含以下有電梯)","total_floors":6.0,"transfer_floor_num":3.0,"age_years":37.2,"rooms":2.0,"halls":2.0,"baths":2.0,"building_area_sqm":64.96,"total_price":28000,"unit_price_per_ping":1424.793335,"deal_date":"2026-03-20","is_special_deal":false,"note":"實際租賃格局為1房1廳1衛租金總額含管理費；水費；租賃建物部分範圍，且未計入共有部分面積；","lat":25.0833069,"lng":121.5638772,"geocode_src":"osm:exact"},{"serial_no":"RPSOMLLMLHLGFCA87CC","county_code":"a","district":"內湖區","address":"臺北市內湖區成功路二段４５０號八樓之６","road":"內湖區成功路二段","building_type":"住宅大樓(11層含以上有電梯)","total_floors":11.0,"transfer_floor_num":8.0,"age_years":5.6,"rooms":1.0,"halls":1.0,"baths":1.0,"building_area_sqm":50.75,"total_price":21000,"unit_price_per_ping":1368.59499,"deal_date":"2026-03-20","is_special_deal":false,"note":"續租案件；","lat":25.0719719,"lng":121.5895579,"geocode_src":"osm:exact"},{"serial_no":"RPQOMLNLLHLGFCA77CC","county_code":"a","district":"中山區","address":"臺北市中山區中山北路一段８３巷１６之１號二樓之４","road":"中山區中山北路一段","building_type":"華廈(10層含以下有電梯)","total_floors":5.0,"transfer_floor_num":2.0,"age_years":38.3,"rooms":1.0,"halls":0.0,"baths":1.0,"building_area_sqm":51.52,"total_price":21500,"unit_price_per_ping":1378.512345,"deal_date":"2026-03-20","is_special_deal":false,"note":"國家住宅及都市更新中心社會住宅包租代管計畫之物件。","lat":25.0501205,"lng":121.5233007,"geocode_src":"osm:exact"},{"serial_no":"RPWNMLNLLHLGFBA18CC","county_code":"a","district":"大同區","address":"臺北市大同區延平北路二段２５８號二樓","road":"大同區延平北路二段","building_type":"華廈(10層含以下有電梯)","total_floors":10.0,"transfer_floor_num":2.0,"age_years":47.7,"rooms":59.0,"halls":0.0,"baths":59.0,"building_area_sqm":17.51,"total_price":15000,"unit_price_per_ping":2833.057745,"deal_date":"2026-03-20","is_special_deal":false,"note":"本案為位於二樓之分租套房2202室，租金包含水電費，包租業者另免費附贈網路、第四台供租客使用。租金總額含水費；電費；租賃建物部分範圍，且未計入共有部分面積；","lat":25.0603726,"lng":121.5112653,"geocode_src":"osm:exact"},{"serial_no":"RPVNMLMJMHLGFDA08CC","county_code":"a","district":"南港區","address":"臺北市南港區興華路１０６號三樓","road":"南港區興華路","building_type":"公寓(5樓含以下無電梯)","total_floors":4.0,"transfer_floor_num":3.0,"age_years":46.2,"rooms":1.0,"halls":1.0,"baths":1.0,"building_area_sqm":79.76,"total_price":26500,"unit_price_per_ping":1097.52062,"deal_date":"2026-03-20","is_special_deal":false,"note":"免租期間自民國115年3月20日起至民國115年3月31日止。","lat":25.0564543,"lng":121.6055976,"geocode_src":"osm:exact"},{"serial_no":"RPQNMLTJMHLGFBA08CC","county_code":"a","district":"萬華區","address":"臺北市萬華區武成街８０巷２９號","road":"萬華區武成街","building_type":"透天厝","total_floors":3.0,"transfer_floor_num":null,"age_years":18.8,"rooms":6.0,"halls":1.0,"baths":5.0,"building_area_sqm":13.79,"total_price":12000,"unit_price_per_ping":2876.0329500000003,"deal_date":"2026-03-20","is_special_deal":false,"note":"本案為透天建物一樓之分租套房101室，租金包含水費，包租業者另免費附贈網路、第四台供租客使用。多人共同承租2；租金總額含水費；","lat":25.0195492,"lng":121.4946109,"geocode_src":"osm:lane"},{"serial_no":"RPOOMLKKMHLGFBA17CC","county_code":"a","district":"中正區","address":"臺北市中正區中華路一段８５巷６號","road":"中正區中華路一段","building_type":"透天厝","total_floors":4.0,"transfer_floor_num":null,"age_years":59.7,"rooms":8.0,"halls":1.0,"baths":8.0,"building_area_sqm":25.56,"total_price":16500,"unit_price_per_ping":2135.53711,"deal_date":"2026-03-20","is_special_deal":false,"note":"本案為位於三樓之分租套房302室，租金包含水費，包租業者另免費附贈網路、第四台供租客使用。租金總額含水費；租賃建物部分範圍，且未計入共有部分面積；","lat":25.0382339,"lng":121.5079112,"geocode_src":"osm:exact"},{"serial_no":"RPQNMLPLLHLGFBA77CC","county_code":"a","district":"萬華區","address":"臺北市萬華區西寧南路６７號２樓","road":"萬華區西寧南路","building_type":"華廈(10層含以下有電梯)","total_floors":10.0,"transfer_floor_num":2.0,"age_years":38.9,"rooms":8.0,"halls":0.0,"baths":8.0,"building_area_sqm":24.0,"total_price":24000,"unit_price_per_ping":3305.7850000000003,"deal_date":"2026-03-20","is_special_deal":false,"note":"飯店式管理，提供24小時現場櫃檯服務、專人客房及垃圾清潔、專人設備修繕、免費零食mini bar，並可接受30日以上之短租最低租期非一年租金總額含水費；電費；瓦斯費；","lat":25.046179272222222,"lng":121.50701149444444,"geocode_src":"nominatim"},{"serial_no":"RPSNMLLJMHLGFEA77CC","county_code":"a","district":"北投區","address":"臺北市北投區致遠二路９６巷３弄１號３樓","road":"北投區致遠二路","building_type":"公寓(5樓含以下無電梯)","total_floors":4.0,"transfer_floor_num":3.0,"age_years":47.9,"rooms":4.0,"halls":1.0,"baths":2.0,"building_area_sqm":129.4,"total_price":22800,"unit_price_per_ping":581.81816,"deal_date":"2026-03-20","is_special_deal":false,"note":null,"lat":25.1165715,"lng":121.5129996,"geocode_src":"osm:exact"},{"serial_no":"RPTNMLKMLHLGFDA87CC","county_code":"a","district":"南港區","address":"臺北市南港區昆陽街１７１巷４弄９號３樓之１","road":"南港區昆陽街","building_type":"公寓(5樓含以下無電梯)","total_floors":4.0,"transfer_floor_num":3.0,"age_years":49.7,"rooms":2.0,"halls":1.0,"baths":1.0,"building_area_sqm":51.38,"total_price":12500,"unit_price_per_ping":803.3057550000001,"deal_date":"2026-03-20","is_special_deal":false,"note":null,"lat":25.0470139,"lng":121.5936468,"geocode_src":"osm:exact"},{"serial_no":"RPRNMLRJMHLGFFA38CC","county_code":"a","district":"大安區","address":"臺北市大安區敦化南路二段３７巷２７號４樓","road":"大安區敦化南路二段","building_type":"公寓(5樓含以下無電梯)","total_floors":5.0,"transfer_floor_num":4.0,"age_years":41.8,"rooms":7.0,"halls":1.0,"baths":2.0,"building_area_sqm":14.31,"total_price":14300,"unit_price_per_ping":3302.4792150000003,"deal_date":"2026-03-20","is_special_deal":false,"note":"租金總額含水費；電費；瓦斯費；網路費；租賃建物部分範圍，且未計入共有部分面積；","lat":25.0322339,"lng":121.55053890000002,"geocode_src":"osm:exact"},{"serial_no":"RPSNMLTJMHLGFCA38CC","county_code":"a","district":"中山區","address":"臺北市中山區南京東路三段１２１號","road":"中山區南京東路三段","building_type":"透天厝","total_floors":4.0,"transfer_floor_num":null,"age_years":null,"rooms":11.0,"halls":0.0,"baths":11.0,"building_area_sqm":18.73,"total_price":16500,"unit_price_per_ping":2912.396585,"deal_date":"2026-03-20","is_special_deal":false,"note":"本案為透天建物三樓之分租套房301室，租金包含水費，包租業者另免費附贈網路、第四台供租客使用。租金總額含水費；租賃建物部分範圍，且未計入共有部分面積；","lat":25.0521124,"lng":121.54009355,"geocode_src":"osm:exact"},{"serial_no":"RPRNMLLJMHLGFEA67CC","county_code":"a","district":"北投區","address":"臺北市北投區致遠二路９６巷３弄１號２樓","road":"北投區致遠二路","building_type":"公寓(5樓含以下無電梯)","total_floors":4.0,"transfer_floor_num":2.0,"age_years":47.9,"rooms":4.0,"halls":1.0,"baths":2.0,"building_area_sqm":129.4,"total_price":26000,"unit_price_per_ping":664.462785,"deal_date":"2026-03-20","is_special_deal":false,"note":null,"lat":25.1165715,"lng":121.5129996,"geocode_src":"osm:exact"},{"serial_no":"RPQOMLOLLHLGFFA18CC","county_code":"a","district":"大安區","address":"臺北市大安區忠孝東路四段１８１巷２７號３樓","road":"大安區忠孝東路四段","building_type":"公寓(5樓含以下無電梯)","total_floors":5.0,"transfer_floor_num":3.0,"age_years":39.8,"rooms":3.0,"halls":2.0,"baths":2.0,"building_area_sqm":116.08000000000001,"total_price":32200,"unit_price_per_ping":915.702445,"deal_date":"2026-03-20","is_special_deal":false,"note":"多人共同承租2；","lat":25.0431832,"lng":121.5508961,"geocode_src":"osm:exact"},{"serial_no":"RPTNMLOLLHLGFEA28CC","county_code":"a","district":"士林區","address":"臺北市士林區環河北路三段２１９號２樓","road":"士林區環河北路三段","building_type":"公寓(5樓含以下無電梯)","total_floors":5.0,"transfer_floor_num":2.0,"age_years":43.7,"rooms":3.0,"halls":2.0,"baths":2.0,"building_area_sqm":95.91,"total_price":22000,"unit_price_per_ping":757.024765,"deal_date":"2026-03-20","is_special_deal":false,"note":null,"lat":25.0883847,"lng":121.50385209999999,"geocode_src":"osm:exact"},{"serial_no":"RPQNMLLJMHLGFFA67CC","county_code":"a","district":"大安區","address":"臺北市大安區和平東路三段３１２號２樓之２","road":"大安區和平東路三段","building_type":"住宅大樓(11層含以上有電梯)","total_floors":12.0,"transfer_floor_num":2.0,"age_years":38.8,"rooms":4.0,"halls":1.0,"baths":2.0,"building_area_sqm":14.0,"total_price":13500,"unit_price_per_ping":3186.7767400000002,"deal_date":"2026-03-20","is_special_deal":false,"note":"租金總額含管理費；網路費；其他清潔費；租賃建物部分範圍，且未計入共有部分面積；","lat":25.0242707,"lng":121.55132119999999,"geocode_src":"osm:road"},{"serial_no":"RPOOMLLMLHLGFEA67CC","county_code":"a","district":"士林區","address":"臺北市士林區忠義街１５７號","road":"士林區忠義街","building_type":"店面(店鋪)","total_floors":10.0,"transfer_floor_num":1.0,"age_years":19.7,"rooms":1.0,"halls":1.0,"baths":1.0,"building_area_sqm":57.71,"total_price":33000,"unit_price_per_ping":1890.90902,"deal_date":"2026-03-20","is_special_deal":false,"note":"租金總額含稅；其他二代健保費；","lat":25.1088508,"lng":121.532811,"geocode_src":"osm:exact"},{"serial_no":"RPUNMLKMLHLGFAA67CC","county_code":"a","district":"文山區","address":"臺北市文山區育英街６１號二樓之５","road":"文山區育英街","building_type":"華廈(10層含以下有電梯)","total_floors":8.0,"transfer_floor_num":2.0,"age_years":21.9,"rooms":2.0,"halls":1.0,"baths":1.0,"building_area_sqm":60.59,"total_price":27000,"unit_price_per_ping":1474.38011,"deal_date":"2026-03-20","is_special_deal":false,"note":"管理費每個月1833元不包含在租金內","lat":24.9922222,"lng":121.5384515,"geocode_src":"osm:exact"},{"serial_no":"RPPNMLPKMHLGFFA08CC","county_code":"a","district":"大安區","address":"臺北市大安區忠孝東路四段１０１巷４１號二樓","road":"大安區忠孝東路四段","building_type":"公寓(5樓含以下無電梯)","total_floors":4.0,"transfer_floor_num":2.0,"age_years":60.7,"rooms":2.0,"halls":2.0,"baths":1.0,"building_area_sqm":105.37,"total_price":15000,"unit_price_per_ping":469.42147,"deal_date":"2026-03-20","is_special_deal":true,"note":"親友、員工、共有人或其他特殊關係間之租賃；續租案件；","lat":25.043158,"lng":121.5482932,"geocode_src":"osm:exact"},{"serial_no":"RPTPMLKMLHLGFCA97CC","county_code":"a","district":"內湖區","address":"臺北市內湖區內湖路一段２８５巷６９弄１６號７樓","road":"內湖區內湖路一段","building_type":"華廈(10層含以下有電梯)","total_floors":7.0,"transfer_floor_num":7.0,"age_years":44.2,"rooms":4.0,"halls":2.0,"baths":2.0,"building_area_sqm":110.24000000000001,"total_price":25000,"unit_price_per_ping":750.4131950000001,"deal_date":"2026-03-20","is_special_deal":false,"note":"管理費：150元，租金不含管理費，由承租人負擔。續租案件；","lat":25.0850245,"lng":121.5679435,"geocode_src":"osm:exact"},{"serial_no":"RPPNMLTJMHLGFBA97CC","county_code":"a","district":"萬華區","address":"臺北市萬華區武成街８０巷２９號","road":"萬華區武成街","building_type":"透天厝","total_floors":3.0,"transfer_floor_num":null,"age_years":18.8,"rooms":6.0,"halls":1.0,"baths":5.0,"building_area_sqm":13.79,"total_price":12000,"unit_price_per_ping":2876.0329500000003,"deal_date":"2026-03-20","is_special_deal":false,"note":"本案為透天建物一樓之分租套房101室，租金包含水費，包租業者另免費附贈網路、第四台供租客使用。多人共同承租2；租金總額含水費；","lat":25.0195492,"lng":121.4946109,"geocode_src":"osm:lane"},{"serial_no":"RPQNMLLKMHLGFBA37CC","county_code":"a","district":"大同區","address":"臺北市大同區承德路三段６９號３樓之３","road":"大同區承德路三段","building_type":"住宅大樓(11層含以上有電梯)","total_floors":14.0,"transfer_floor_num":3.0,"age_years":7.7,"rooms":2.0,"halls":1.0,"baths":1.0,"building_area_sqm":70.51,"total_price":45000,"unit_price_per_ping":2109.09083,"deal_date":"2026-03-20","is_special_deal":false,"note":"租金總額含管理費；續租案件；","lat":25.0657066,"lng":121.51860629999999,"geocode_src":"osm:exact"},{"serial_no":"RPRNMLTJMHLGFCA28CC","county_code":"a","district":"中山區","address":"臺北市中山區南京東路三段１２１號","road":"中山區南京東路三段","building_type":"透天厝","total_floors":4.0,"transfer_floor_num":null,"age_years":null,"rooms":11.0,"halls":0.0,"baths":11.0,"building_area_sqm":18.73,"total_price":16500,"unit_price_per_ping":2912.396585,"deal_date":"2026-03-20","is_special_deal":false,"note":"本案為透天建物三樓之分租套房301室，租金包含水費，包租業者另免費附贈網路、第四台供租客使用。租金總額含水費；租賃建物部分範圍，且未計入共有部分面積；","lat":25.0521124,"lng":121.54009355,"geocode_src":"osm:exact"},{"serial_no":"RPPNMLNLLHLGFCA57CC","county_code":"a","district":"中山區","address":"臺北市中山區林森北路８５巷６３號五樓之１","road":"中山區林森北路","building_type":"華廈(10層含以下有電梯)","total_floors":7.0,"transfer_floor_num":5.0,"age_years":18.1,"rooms":1.0,"halls":1.0,"baths":1.0,"building_area_sqm":33.989999999999995,"total_price":20500,"unit_price_per_ping":1993.388355,"deal_date":"2026-03-20","is_special_deal":false,"note":"另有管理費2500元，由承租人負擔。","lat":25.0493511,"lng":121.5271101,"geocode_src":"nominatim"},{"serial_no":"RPPNMLNKMHLGFEA77CC","county_code":"a","district":"北投區","address":"臺北市北投區三合街一段８２巷１０７號３樓","road":"北投區三合街一段","building_type":"華廈(10層含以下有電梯)","total_floors":9.0,"transfer_floor_num":3.0,"age_years":10.7,"rooms":3.0,"halls":2.0,"baths":2.0,"building_area_sqm":174.18,"total_price":43357,"unit_price_per_ping":823.1404650000001,"deal_date":"2026-03-20","is_special_deal":false,"note":null,"lat":25.1289982,"lng":121.5038566,"geocode_src":"osm:exact"},{"serial_no":"RPWNMLKLLHLGFAA77CC","county_code":"a","district":"中正區","address":"臺北市中正區延平南路２１２號２樓之２","road":"中正區延平南路","building_type":"華廈(10層含以下有電梯)","total_floors":7.0,"transfer_floor_num":2.0,"age_years":51.8,"rooms":2.0,"halls":1.0,"baths":1.0,"building_area_sqm":84.88,"total_price":15000,"unit_price_per_ping":585.123945,"deal_date":"2026-03-20","is_special_deal":false,"note":"管理費：1284元，租金不含管理費，承租人負擔。續租案件；","lat":25.0346636,"lng":121.5074467,"geocode_src":"nominatim"},{"serial_no":"RPOPMLNLLHLGFDA77CC","county_code":"a","district":"松山區","address":"臺北市松山區新東街９巷１３號２樓","road":"松山區新東街","building_type":"公寓(5樓含以下無電梯)","total_floors":4.0,"transfer_floor_num":2.0,"age_years":52.6,"rooms":2.0,"halls":1.0,"baths":1.0,"building_area_sqm":75.14,"total_price":32500,"unit_price_per_ping":1431.404905,"deal_date":"2026-03-20","is_special_deal":false,"note":null,"lat":25.0579294,"lng":121.5655169,"geocode_src":"nominatim"},{"serial_no":"RPUNMLQLLHLGFEA58CC","county_code":"a","district":"士林區","address":"臺北市士林區中正路３５３號四樓","road":"士林區中正路","building_type":"公寓(5樓含以下無電梯)","total_floors":4.0,"transfer_floor_num":4.0,"age_years":54.5,"rooms":2.0,"halls":1.0,"baths":1.0,"building_area_sqm":125.52,"total_price":26000,"unit_price_per_ping":684.297495,"deal_date":"2026-03-20","is_special_deal":false,"note":null,"lat":25.094339339999998,"lng":121.52228175999998,"geocode_src":"nominatim"},{"serial_no":"RPVPMLRLLHLGFBA68CC","county_code":"a","district":"大同區","address":"臺北市大同區環河北路二段２３７巷８號３樓","road":"大同區環河北路二段","building_type":"公寓(5樓含以下無電梯)","total_floors":4.0,"transfer_floor_num":3.0,"age_years":51.5,"rooms":4.0,"halls":2.0,"baths":1.0,"building_area_sqm":100.39,"total_price":30000,"unit_price_per_ping":988.4297150000001,"deal_date":"2026-03-20","is_special_deal":false,"note":"多人共同承租2；","lat":25.0706304,"lng":121.5101137,"geocode_src":"osm:exact"},{"serial_no":"RPRPMLOKMHLGFBA97CC","county_code":"a","district":"大同區","address":"臺北市大同區重慶北路三段１３７巷２１之２號","road":"大同區重慶北路三段","building_type":"公寓(5樓含以下無電梯)","total_floors":3.0,"transfer_floor_num":1.0,"age_years":null,"rooms":2.0,"halls":1.0,"baths":1.0,"building_area_sqm":69.29,"total_price":28000,"unit_price_per_ping":1335.5371400000001,"deal_date":"2026-03-20","is_special_deal":false,"note":null,"lat":25.068046,"lng":121.5146072,"geocode_src":"osm:exact"},{"serial_no":"RPPNMLPLLHLGFDA87CC","county_code":"a","district":"松山區","address":"臺北市松山區光復南路５７巷７號２樓","road":"松山區光復南路","building_type":"公寓(5樓含以下無電梯)","total_floors":4.0,"transfer_floor_num":2.0,"age_years":52.6,"rooms":5.0,"halls":0.0,"baths":5.0,"building_area_sqm":14.06,"total_price":13000,"unit_price_per_ping":3057.851125,"deal_date":"2026-03-20","is_special_deal":false,"note":"租金總額含水費；網路費；其他第四台；續租案件；","lat":25.045847,"lng":121.5583651,"geocode_src":"nominatim"},{"serial_no":"RPSNMLKLLHLGFFA87CC","county_code":"a","district":"大安區","address":"臺北市大安區和平東路二段３１１巷５５號３樓","road":"大安區和平東路二段","building_type":"住宅大樓(11層含以上有電梯)","total_floors":19.0,"transfer_floor_num":3.0,"age_years":40.8,"rooms":3.0,"halls":2.0,"baths":2.0,"building_area_sqm":105.35,"total_price":43000,"unit_price_per_ping":1348.7602800000002,"deal_date":"2026-03-20","is_special_deal":false,"note":null,"lat":25.0260714,"lng":121.5454,"geocode_src":"osm:exact"},{"serial_no":"RPOOMLLKMHLGFBA27CC","county_code":"a","district":"大同區","address":"臺北市大同區民生西路１３８號３樓","road":"大同區民生西路","building_type":"住宅大樓(11層含以上有電梯)","total_floors":12.0,"transfer_floor_num":3.0,"age_years":48.0,"rooms":3.0,"halls":0.0,"baths":3.0,"building_area_sqm":22.09,"total_price":16500,"unit_price_per_ping":2469.4213950000003,"deal_date":"2026-03-20","is_special_deal":false,"note":"承租3室租金總額含管理費；水費；瓦斯費；網路費；其他MOD；租賃建物部分範圍，且未計入共有部分面積；","lat":25.0572684,"lng":121.5188878,"geocode_src":"nominatim"},{"serial_no":"RPPNMLTJMHLGFDA18CC","county_code":"a","district":"松山區","address":"臺北市松山區南京東路五段１４３號三樓","road":"松山區南京東路五段","building_type":"公寓(5樓含以下無電梯)","total_floors":4.0,"transfer_floor_num":3.0,"age_years":53.5,"rooms":4.0,"halls":1.0,"baths":3.0,"building_area_sqm":27.82,"total_price":18500,"unit_price_per_ping":2198.347025,"deal_date":"2026-03-20","is_special_deal":false,"note":"本案為位於三樓之分租套房302室，租金包含水費，包租業者另免費附贈網路、第四台供租客使用；原租期到期日為116年3月19日，房東方贈送四天租期至116年3月22日。租金總額含水費；租賃建物部分範圍，且未計入共有部分面積；","lat":25.0516623,"lng":121.5617747,"geocode_src":"osm:exact"},{"serial_no":"RPQOMLQLLHLGFDA18CC","county_code":"a","district":"松山區","address":"臺北市松山區敦化北路１００號","road":"松山區敦化北路","building_type":"住宅大樓(11層含以上有電梯)","total_floors":15.0,"transfer_floor_num":9.0,"age_years":42.5,"rooms":300.0,"halls":10.0,"baths":300.0,"building_area_sqm":28.99,"total_price":21500,"unit_price_per_ping":2452.8924700000002,"deal_date":"2026-03-20","is_special_deal":false,"note":"租金總額含電費；租賃建物部分範圍，且未計入共有部分面積；續租案件；","lat":25.05277564117647,"lng":121.54856104117647,"geocode_src":"nominatim"},{"serial_no":"RPVNMLLJMHLGFCA87CC","county_code":"a","district":"中山區","address":"臺北市中山區林森北路３７７號","road":"中山區林森北路","building_type":"店面(店鋪)","total_floors":12.0,"transfer_floor_num":1.0,"age_years":40.8,"rooms":0.0,"halls":1.0,"baths":1.0,"building_area_sqm":102.62,"total_price":130000,"unit_price_per_ping":4188.4295950000005,"deal_date":"2026-03-20","is_special_deal":false,"note":"租金未稅115/3/20-115/4/6為免租裝潢期","lat":25.0583607,"lng":121.5256501,"geocode_src":"nominatim"},{"serial_no":"RPPNMLKMLHLGFAA17CC","county_code":"a","district":"文山區","address":"臺北市文山區仙岩路１６巷４６號四樓之２","road":"文山區仙岩路","building_type":"華廈(10層含以下有電梯)","total_floors":8.0,"transfer_floor_num":4.0,"age_years":32.2,"rooms":1.0,"halls":1.0,"baths":1.0,"building_area_sqm":31.89,"total_price":14000,"unit_price_per_ping":1451.2396150000002,"deal_date":"2026-03-20","is_special_deal":false,"note":"續租案件；","lat":24.9967276,"lng":121.5502336,"geocode_src":"nominatim"},{"serial_no":"RPQNMLRJMHLGFBA87CC","county_code":"a","district":"大同區","address":"臺北市大同區五原路１９號五樓之３","road":"大同區五原路","building_type":"住宅大樓(11層含以上有電梯)","total_floors":14.0,"transfer_floor_num":5.0,"age_years":16.3,"rooms":1.0,"halls":1.0,"baths":1.0,"building_area_sqm":39.43,"total_price":26000,"unit_price_per_ping":2178.512315,"deal_date":"2026-03-20","is_special_deal":false,"note":"租金總額含管理費；含增建或未登記建物；","lat":25.0566817,"lng":121.51738979999999,"geocode_src":"osm:exact"},{"serial_no":"RPTNMLLJMHLGFEA87CC","county_code":"a","district":"北投區","address":"臺北市北投區致遠二路９６巷３弄１號４樓","road":"北投區致遠二路","building_type":"公寓(5樓含以下無電梯)","total_floors":4.0,"transfer_floor_num":4.0,"age_years":47.9,"rooms":4.0,"halls":1.0,"baths":2.0,"building_area_sqm":129.4,"total_price":22800,"unit_price_per_ping":581.81816,"deal_date":"2026-03-20","is_special_deal":false,"note":null,"lat":25.1165715,"lng":121.5129996,"geocode_src":"osm:exact"},{"serial_no":"RPVOMLNLLHLGFBA18CC","county_code":"a","district":"萬華區","address":"臺北市萬華區西昌街５３號６樓之１","road":"萬華區西昌街","building_type":"華廈(10層含以下有電梯)","total_floors":7.0,"transfer_floor_num":6.0,"age_years":6.0,"rooms":1.0,"halls":1.0,"baths":1.0,"building_area_sqm":61.8,"total_price":24000,"unit_price_per_ping":1282.6445800000001,"deal_date":"2026-03-20","is_special_deal":false,"note":null,"lat":25.0422016,"lng":121.5007362,"geocode_src":"nominatim"},{"serial_no":"RPVOMLNLLHLGFDA38CC","county_code":"a","district":"松山區","address":"臺北市松山區南京東路４段７５巷６號２樓","road":"松山區南京東路","building_type":"華廈(10層含以下有電梯)","total_floors":8.0,"transfer_floor_num":2.0,"age_years":36.5,"rooms":1.0,"halls":0.0,"baths":1.0,"building_area_sqm":34.94,"total_price":18900,"unit_price_per_ping":1788.429685,"deal_date":"2026-03-20","is_special_deal":false,"note":"續租案件；","lat":25.0520233,"lng":121.55361490000001,"geocode_src":"osm:exact"},{"serial_no":"RPQPMLKMLHLGFCA67CC","county_code":"a","district":"中山區","address":"臺北市中山區林森北路１０７巷８１號７樓之１","road":"中山區林森北路","building_type":"華廈(10層含以下有電梯)","total_floors":7.0,"transfer_floor_num":7.0,"age_years":39.4,"rooms":1.0,"halls":1.0,"baths":1.0,"building_area_sqm":40.6,"total_price":19900,"unit_price_per_ping":1619.83465,"deal_date":"2026-03-20","is_special_deal":false,"note":"續租案件；","lat":25.0497536,"lng":121.5277582,"geocode_src":"nominatim"},{"serial_no":"RPUNMLTJMHLGFEA78CC","county_code":"a","district":"士林區","address":"臺北市士林區忠誠路二段１１８巷６號","road":"士林區忠誠路二段","building_type":"華廈(10層含以下有電梯)","total_floors":7.0,"transfer_floor_num":1.0,"age_years":40.0,"rooms":0.0,"halls":1.0,"baths":2.0,"building_area_sqm":114.14999999999999,"total_price":75000,"unit_price_per_ping":2171.900745,"deal_date":"2026-03-20","is_special_deal":false,"note":null,"lat":25.113797,"lng":121.5313523,"geocode_src":"osm:exact"},{"serial_no":"RPUOMLOLLHLGFCA28CC","county_code":"a","district":"中山區","address":"臺北市中山區林森北路２８２號６樓之７","road":"中山區林森北路","building_type":"住宅大樓(11層含以上有電梯)","total_floors":11.0,"transfer_floor_num":6.0,"age_years":51.3,"rooms":1.0,"halls":0.0,"baths":1.0,"building_area_sqm":31.59,"total_price":14000,"unit_price_per_ping":1464.462755,"deal_date":"2026-03-20","is_special_deal":false,"note":"續租案件；","lat":25.055526,"lng":121.52534649999998,"geocode_src":"nominatim"},{"serial_no":"RPUOMLLKMHLGFBA87CC","county_code":"a","district":"中正區","address":"臺北市中正區漢口街一段３１號六樓","road":"中正區漢口街一段","building_type":"華廈(10層含以下有電梯)","total_floors":7.0,"transfer_floor_num":6.0,"age_years":45.8,"rooms":2.0,"halls":1.0,"baths":1.0,"building_area_sqm":72.44,"total_price":20000,"unit_price_per_ping":912.39666,"deal_date":"2026-03-20","is_special_deal":false,"note":null,"lat":25.045237099999998,"lng":121.51367831111111,"geocode_src":"osm:exact"},{"serial_no":"RPPNMLNLLHLGFFA87CC","county_code":"a","district":"大安區","address":"臺北市大安區忠孝東路４段２８９號５樓之２、５樓之３、５樓之４","road":"大安區忠孝東路","building_type":"辦公商業大樓","total_floors":12.0,"transfer_floor_num":5.0,"age_years":42.9,"rooms":0.0,"halls":0.0,"baths":0.0,"building_area_sqm":417.15,"total_price":210000,"unit_price_per_ping":1662.8098550000002,"deal_date":"2026-03-20","is_special_deal":false,"note":"租金總額含稅；含有多個門牌且未個別計算租金5樓之2、5樓之3、5樓之4；","lat":25.041584491111113,"lng":121.55475094888888,"geocode_src":"osm:exact"},{"serial_no":"RPQNMLTJMHLGFDA28CC","county_code":"a","district":"松山區","address":"臺北市松山區南京東路五段１４３號三樓","road":"松山區南京東路五段","building_type":"公寓(5樓含以下無電梯)","total_floors":4.0,"transfer_floor_num":3.0,"age_years":53.5,"rooms":4.0,"halls":1.0,"baths":3.0,"building_area_sqm":27.82,"total_price":18500,"unit_price_per_ping":2198.347025,"deal_date":"2026-03-20","is_special_deal":false,"note":"本案為位於三樓之分租套房302室，租金包含水費，包租業者另免費附贈網路、第四台供租客使用；原租期到期日為116年3月19日，房東方贈送四天租期至116年3月22日。租金總額含水費；租賃建物部分範圍，且未計入共有部分面積；","lat":25.0516623,"lng":121.5617747,"geocode_src":"osm:exact"},{"serial_no":"RPSNMLSLLHLGFDA48CC","county_code":"a","district":"信義區","address":"臺北市信義區永吉路３０巷９９號","road":"信義區永吉路","building_type":"店面(店鋪)","total_floors":2.0,"transfer_floor_num":null,"age_years":null,"rooms":0.0,"halls":0.0,"baths":0.0,"building_area_sqm":71.06,"total_price":147912,"unit_price_per_ping":6882.64437,"deal_date":"2026-03-20","is_special_deal":false,"note":"租金總額含稅；","lat":25.0436699,"lng":121.5688434,"geocode_src":"nominatim"},{"serial_no":"RPRNMLQLLHLGFEA28CC","county_code":"a","district":"士林區","address":"臺北市士林區芝玉路一段１９７巷２５弄１０號三樓","road":"士林區芝玉路一段","building_type":"公寓(5樓含以下無電梯)","total_floors":5.0,"transfer_floor_num":3.0,"age_years":41.3,"rooms":3.0,"halls":1.0,"baths":1.0,"building_area_sqm":68.16,"total_price":25000,"unit_price_per_ping":1213.223095,"deal_date":"2026-03-20","is_special_deal":false,"note":null,"lat":25.1067439,"lng":121.53367499999999,"geocode_src":"osm:exact"},{"serial_no":"RPTNMLPLLHLGFEA38CC","county_code":"a","district":"士林區","address":"臺北市士林區台北市士林區中山北路七段１９１巷１８號２樓","road":"士林區台北市士林區中山北路七段","building_type":"華廈(10層含以下有電梯)","total_floors":5.0,"transfer_floor_num":2.0,"age_years":29.4,"rooms":4.0,"halls":2.0,"baths":2.0,"building_area_sqm":299.12,"total_price":120000,"unit_price_per_ping":1325.619785,"deal_date":"2026-03-20","is_special_deal":false,"note":"租金總額含管理費；","lat":25.1255348,"lng":121.5317267,"geocode_src":"osm:exact"},{"serial_no":"RPSNMLNKMHLGFBA77CC","county_code":"a","district":"萬華區","address":"臺北市萬華區和平西路三段１０２-１號","road":"萬華區和平西路三段","building_type":"透天厝","total_floors":3.0,"transfer_floor_num":null,"age_years":null,"rooms":7.0,"halls":3.0,"baths":6.0,"building_area_sqm":39.8,"total_price":28000,"unit_price_per_ping":2327.27264,"deal_date":"2026-03-20","is_special_deal":false,"note":"301室多人共同承租2；租金總額含水費；網路費；","lat":25.0350707,"lng":121.5007491,"geocode_src":"osm:exact"},{"serial_no":"RPTNMLNLLHLGFBA87CC","county_code":"a","district":"大同區","address":"臺北市大同區延平北路二段２５８號二樓","road":"大同區延平北路二段","building_type":"華廈(10層含以下有電梯)","total_floors":10.0,"transfer_floor_num":2.0,"age_years":47.7,"rooms":59.0,"halls":0.0,"baths":59.0,"building_area_sqm":17.51,"total_price":15000,"unit_price_per_ping":2833.057745,"deal_date":"2026-03-20","is_special_deal":false,"note":"本案為位於二樓之分租套房2202室，租金包含水電費，包租業者另免費附贈網路、第四台供租客使用。租金總額含水費；電費；租賃建物部分範圍，且未計入共有部分面積；","lat":25.0603726,"lng":121.5112653,"geocode_src":"osm:exact"},{"serial_no":"RPRNMLLJMHLGFFA77CC","county_code":"a","district":"大安區","address":"臺北市大安區和平東路三段３１２號２樓之２","road":"大安區和平東路三段","building_type":"住宅大樓(11層含以上有電梯)","total_floors":12.0,"transfer_floor_num":2.0,"age_years":38.8,"rooms":4.0,"halls":1.0,"baths":2.0,"building_area_sqm":17.0,"total_price":14900,"unit_price_per_ping":2895.8676600000003,"deal_date":"2026-03-20","is_special_deal":false,"note":"租金總額含網路費；其他清潔費；租賃建物部分範圍，且未計入共有部分面積；","lat":25.0242707,"lng":121.55132119999999,"geocode_src":"osm:road"},{"serial_no":"RPPPMLNLLHLGFBA67CC","county_code":"a","district":"萬華區","address":"臺北市萬華區青年路１６８巷３９號５樓","road":"萬華區青年路","building_type":"公寓(5樓含以下無電梯)","total_floors":5.0,"transfer_floor_num":5.0,"age_years":50.8,"rooms":2.0,"halls":1.0,"baths":1.0,"building_area_sqm":38.309999999999995,"total_price":8000,"unit_price_per_ping":690.909065,"deal_date":"2026-03-20","is_special_deal":false,"note":"續租案件；","lat":25.0198455,"lng":121.5017906,"geocode_src":"nominatim"},{"serial_no":"RPQNMLLJMHLGFAA17CC","county_code":"a","district":"中正區","address":"臺北市中正區博愛路２３０巷２３號３樓","road":"中正區博愛路","building_type":"公寓(5樓含以下無電梯)","total_floors":4.0,"transfer_floor_num":3.0,"age_years":54.2,"rooms":4.0,"halls":1.0,"baths":2.0,"building_area_sqm":11.0,"total_price":11800,"unit_price_per_ping":3547.107305,"deal_date":"2026-03-20","is_special_deal":false,"note":"租金總額含管理費；網路費；其他清潔費；租賃建物部分範圍，且未計入共有部分面積；","lat":25.0333308,"lng":121.5096889,"geocode_src":"osm:exact"},{"serial_no":"RPUNMLLJMHLGFFA08CC","county_code":"a","district":"大安區","address":"臺北市大安區信義路四段６０之２８號六樓","road":"大安區信義路四段","building_type":"公寓(5樓含以下無電梯)","total_floors":6.0,"transfer_floor_num":6.0,"age_years":55.1,"rooms":1.0,"halls":0.0,"baths":1.0,"building_area_sqm":31.29,"total_price":12000,"unit_price_per_ping":1269.42144,"deal_date":"2026-03-20","is_special_deal":false,"note":"含增建或未登記建物；","lat":25.033117200000003,"lng":121.54580400000002,"geocode_src":"osm:exact"},{"serial_no":"RPXNMLLKMHLGFDA28CC","county_code":"a","district":"信義區","address":"臺北市信義區和平東路三段４３５巷３２之１號四樓","road":"信義區和平東路三段","building_type":"公寓(5樓含以下無電梯)","total_floors":5.0,"transfer_floor_num":4.0,"age_years":43.7,"rooms":3.0,"halls":2.0,"baths":2.0,"building_area_sqm":98.09,"total_price":28000,"unit_price_per_ping":942.148725,"deal_date":"2026-03-20","is_special_deal":false,"note":"多人共同承租2；","lat":25.0199545,"lng":121.55948600000002,"geocode_src":"osm:exact"},{"serial_no":"RPRNMLOLLHLGFAA67CC","county_code":"a","district":"文山區","address":"臺北市文山區景興路２３５號１４樓之１","road":"文山區景興路","building_type":"住宅大樓(11層含以上有電梯)","total_floors":16.0,"transfer_floor_num":14.0,"age_years":30.6,"rooms":2.0,"halls":1.0,"baths":2.0,"building_area_sqm":88.42999999999999,"total_price":23300,"unit_price_per_ping":869.421455,"deal_date":"2026-03-20","is_special_deal":false,"note":"管理費2200元由出租人負擔。續租案件；","lat":24.9912361,"lng":121.5437563,"geocode_src":"nominatim"},{"serial_no":"RPXNMLOLLHLGFEA68CC","county_code":"a","district":"北投區","address":"臺北市北投區大業路２８０巷９弄１２號４樓","road":"北投區大業路","building_type":"公寓(5樓含以下無電梯)","total_floors":4.0,"transfer_floor_num":4.0,"age_years":47.2,"rooms":2.0,"halls":1.0,"baths":1.0,"building_area_sqm":75.36,"total_price":15000,"unit_price_per_ping":657.851215,"deal_date":"2026-03-20","is_special_deal":false,"note":null,"lat":25.127897,"lng":121.498707,"geocode_src":"nominatim"},{"serial_no":"RPTNMLNLLHLGFCA97CC","county_code":"a","district":"中山區","address":"臺北市中山區長春路１７２號８樓之７","road":"中山區長春路","building_type":"辦公商業大樓","total_floors":12.0,"transfer_floor_num":8.0,"age_years":42.4,"rooms":3.0,"halls":1.0,"baths":0.0,"building_area_sqm":147.97,"total_price":84000,"unit_price_per_ping":1877.6858800000002,"deal_date":"2026-03-20","is_special_deal":false,"note":"租金總額含稅；租賃期間有約定不同租金115.03.20-115.04.19為免租裝潢期。；","lat":25.05465356,"lng":121.53384848352941,"geocode_src":"nominatim"},{"serial_no":"RPUOMLQLLHLGFDA58CC","county_code":"a","district":"松山區","address":"臺北市松山區八德路四段１７７號","road":"松山區八德路四段","building_type":"透天厝","total_floors":4.0,"transfer_floor_num":null,"age_years":59.7,"rooms":8.0,"halls":0.0,"baths":8.0,"building_area_sqm":22.75,"total_price":15000,"unit_price_per_ping":2178.512315,"deal_date":"2026-03-20","is_special_deal":false,"note":null,"lat":25.0488176,"lng":121.5631326,"geocode_src":"osm:exact"},{"serial_no":"RPRNMLQJMHLGFAA77CC","county_code":"a","district":"文山區","address":"臺北市文山區福興路４巷６弄２５號三樓","road":"文山區福興路","building_type":"公寓(5樓含以下無電梯)","total_floors":5.0,"transfer_floor_num":3.0,"age_years":42.5,"rooms":3.0,"halls":2.0,"baths":2.0,"building_area_sqm":104.59,"total_price":25000,"unit_price_per_ping":790.082615,"deal_date":"2026-03-20","is_special_deal":false,"note":"續租案件；","lat":25.0041937,"lng":121.5526126,"geocode_src":"nominatim"},{"serial_no":"RPOOMLPLLHLGFAA57CC","county_code":"a","district":"文山區","address":"臺北市文山區興隆路四段１０５巷４６號６樓","road":"文山區興隆路四段","building_type":"華廈(10層含以下有電梯)","total_floors":7.0,"transfer_floor_num":6.0,"age_years":29.4,"rooms":1.0,"halls":0.0,"baths":1.0,"building_area_sqm":44.24,"total_price":18000,"unit_price_per_ping":1345.4544950000002,"deal_date":"2026-03-20","is_special_deal":false,"note":"多人共同承租2；","lat":24.9874707,"lng":121.5621791,"geocode_src":"osm:exact"},{"serial_no":"RPRNMLLMLHLGFCA67CC","county_code":"a","district":"中山區","address":"臺北市中山區民權東路一段４８號九樓之３","road":"中山區民權東路一段","building_type":"住宅大樓(11層含以上有電梯)","total_floors":12.0,"transfer_floor_num":9.0,"age_years":18.5,"rooms":1.0,"halls":0.0,"baths":1.0,"building_area_sqm":37.55,"total_price":25500,"unit_price_per_ping":2244.6280150000002,"deal_date":"2026-03-20","is_special_deal":false,"note":"此案件租金總額為27000元，包含管理費1500元由出租人負擔續租案件；","lat":25.0625126,"lng":121.5240989,"geocode_src":"osm:exact"},{"serial_no":"RPSNMLOLLHLGFFA28CC","county_code":"a","district":"大安區","address":"臺北市大安區瑞安街１５５巷２號４樓","road":"大安區瑞安街","building_type":"公寓(5樓含以下無電梯)","total_floors":4.0,"transfer_floor_num":4.0,"age_years":49.3,"rooms":6.0,"halls":3.0,"baths":3.0,"building_area_sqm":32.0,"total_price":26000,"unit_price_per_ping":2687.6032050000003,"deal_date":"2026-03-20","is_special_deal":false,"note":null,"lat":25.0259796,"lng":121.5393199,"geocode_src":"nominatim"},{"serial_no":"RPUNMLLJMHLGFBA67CC","county_code":"a","district":"中正區","address":"臺北市中正區臨沂街６１巷２號１樓","road":"中正區臨沂街","building_type":"華廈(10層含以下有電梯)","total_floors":6.0,"transfer_floor_num":1.0,"age_years":13.7,"rooms":2.0,"halls":2.0,"baths":2.0,"building_area_sqm":184.22,"total_price":168653,"unit_price_per_ping":3024.793275,"deal_date":"2026-03-20","is_special_deal":false,"note":"其他稅；","lat":25.0368683,"lng":121.529071,"geocode_src":"nominatim"},{"serial_no":"RPPPMLTJMHLGFCA28CC","county_code":"a","district":"內湖區","address":"臺北市內湖區內湖路一段７３７巷３３弄１號３樓","road":"內湖區內湖路一段","building_type":"公寓(5樓含以下無電梯)","total_floors":5.0,"transfer_floor_num":3.0,"age_years":45.2,"rooms":3.0,"halls":2.0,"baths":2.0,"building_area_sqm":103.9,"total_price":30000,"unit_price_per_ping":955.3718650000001,"deal_date":"2026-03-20","is_special_deal":false,"note":null,"lat":25.0796142,"lng":121.5789252,"geocode_src":"osm:exact"},{"serial_no":"RPPOMLLJMHLGFCA37CC","county_code":"a","district":"中山區","address":"臺北市中山區林森北路３４６號","road":"中山區林森北路","building_type":"公寓(5樓含以下無電梯)","total_floors":4.0,"transfer_floor_num":2.0,"age_years":null,"rooms":1.0,"halls":0.0,"baths":1.0,"building_area_sqm":126.78,"total_price":50000,"unit_price_per_ping":1302.47929,"deal_date":"2026-03-20","is_special_deal":false,"note":"租金總額含稅；","lat":25.056924,"lng":121.5253613,"geocode_src":"nominatim"},{"serial_no":"RPSNMLRLLHLGFEA48CC","county_code":"a","district":"北投區","address":"臺北市北投區公?路２０９巷３８弄６號二樓","road":null,"building_type":"公寓(5樓含以下無電梯)","total_floors":4.0,"transfer_floor_num":2.0,"age_years":57.4,"rooms":3.0,"halls":2.0,"baths":2.0,"building_area_sqm":93.43,"total_price":20000,"unit_price_per_ping":707.43799,"deal_date":"2026-03-20","is_special_deal":false,"note":"續租案件；"},{"serial_no":"RPQNMLLKMHLGFFA77CC","county_code":"a","district":"大安區","address":"臺北市大安區安居街９８巷６號五樓","road":"大安區安居街","building_type":"公寓(5樓含以下無電梯)","total_floors":5.0,"transfer_floor_num":5.0,"age_years":48.2,"rooms":3.0,"halls":2.0,"baths":2.0,"building_area_sqm":98.68,"total_price":29000,"unit_price_per_ping":971.90079,"deal_date":"2026-03-20","is_special_deal":false,"note":null,"lat":25.0191768,"lng":121.55256570000002,"geocode_src":"osm:exact"},{"serial_no":"RPXPMLKLLHLGFDA38CC","county_code":"a","district":"信義區","address":"臺北市信義區松山路６２１號三樓","road":"信義區松山路","building_type":"公寓(5樓含以下無電梯)","total_floors":4.0,"transfer_floor_num":3.0,"age_years":52.0,"rooms":3.0,"halls":1.0,"baths":1.0,"building_area_sqm":53.8,"total_price":19000,"unit_price_per_ping":1166.942105,"deal_date":"2026-03-20","is_special_deal":false,"note":null,"lat":25.0364971,"lng":121.5784848,"geocode_src":"nominatim"},{"serial_no":"RPQNMLQJMHLGFAA67CC","county_code":"a","district":"中正區","address":"臺北市中正區泉州街９巷１０號四樓","road":"中正區泉州街","building_type":"公寓(5樓含以下無電梯)","total_floors":4.0,"transfer_floor_num":4.0,"age_years":49.7,"rooms":2.0,"halls":2.0,"baths":1.0,"building_area_sqm":79.12,"total_price":20000,"unit_price_per_ping":836.363605,"deal_date":"2026-03-20","is_special_deal":false,"note":"續租案件；","lat":25.030506,"lng":121.5142772,"geocode_src":"osm:exact"},{"serial_no":"RPVPMLKMLHLGFCA18CC","county_code":"a","district":"內湖區","address":"臺北市內湖區金龍路２２３號九樓","road":"內湖區金龍路","building_type":"住宅大樓(11層含以上有電梯)","total_floors":12.0,"transfer_floor_num":9.0,"age_years":6.2,"rooms":2.0,"halls":2.0,"baths":1.0,"building_area_sqm":97.39,"total_price":44612,"unit_price_per_ping":1514.04953,"deal_date":"2026-03-20","is_special_deal":false,"note":"租金已扣除管理費3388元","lat":25.088498,"lng":121.58692649999999,"geocode_src":"nominatim"},{"serial_no":"RPTOMLQLLHLGFDA48CC","county_code":"a","district":"松山區","address":"臺北市松山區八德路四段１７７號","road":"松山區八德路四段","building_type":"透天厝","total_floors":4.0,"transfer_floor_num":null,"age_years":59.7,"rooms":8.0,"halls":0.0,"baths":8.0,"building_area_sqm":22.75,"total_price":15000,"unit_price_per_ping":2178.512315,"deal_date":"2026-03-20","is_special_deal":false,"note":null,"lat":25.0488176,"lng":121.5631326,"geocode_src":"osm:exact"},{"serial_no":"RPUOMLKMLHLGFCA97CC","county_code":"a","district":"中山區","address":"臺北市中山區南京東路二段７-１號８樓","road":"中山區南京東路二段","building_type":"華廈(10層含以下有電梯)","total_floors":8.0,"transfer_floor_num":8.0,"age_years":56.8,"rooms":5.0,"halls":0.0,"baths":5.0,"building_area_sqm":24.78,"total_price":19000,"unit_price_per_ping":2535.537095,"deal_date":"2026-03-20","is_special_deal":false,"note":"租金總額含瓦斯費；","lat":25.0522528,"lng":121.5282684,"geocode_src":"osm:exact"},{"serial_no":"RPXOMLPLLHLGFDA78CC","county_code":"a","district":"南港區","address":"臺北市南港區舊莊街１段３巷１弄７號３樓","road":"南港區舊莊街","building_type":"公寓(5樓含以下無電梯)","total_floors":4.0,"transfer_floor_num":3.0,"age_years":50.2,"rooms":2.0,"halls":1.0,"baths":1.0,"building_area_sqm":98.18,"total_price":17000,"unit_price_per_ping":571.900805,"deal_date":"2026-03-20","is_special_deal":false,"note":null,"lat":25.0431068,"lng":121.6186758,"geocode_src":"osm:exact"},{"serial_no":"RPWOMLPLLHLGFCA58CC","county_code":"a","district":"中山區","address":"臺北市中山區林森北路８５巷３３號３樓之６","road":"中山區林森北路","building_type":"華廈(10層含以下有電梯)","total_floors":7.0,"transfer_floor_num":3.0,"age_years":18.2,"rooms":1.0,"halls":1.0,"baths":1.0,"building_area_sqm":33.82,"total_price":19900,"unit_price_per_ping":1943.80158,"deal_date":"2026-03-20","is_special_deal":false,"note":"多人共同承租2；","lat":25.049594000000003,"lng":121.52614460000001,"geocode_src":"nominatim"},{"serial_no":"RPSNMLMJMHLGFEA87CC","county_code":"a","district":"北投區","address":"臺北市北投區大度路三段２７０巷６９號８樓之８","road":"北投區大度路三段","building_type":"住宅大樓(11層含以上有電梯)","total_floors":19.0,"transfer_floor_num":8.0,"age_years":14.1,"rooms":2.0,"halls":1.0,"baths":1.0,"building_area_sqm":98.94,"total_price":34000,"unit_price_per_ping":1137.19004,"deal_date":"2026-03-20","is_special_deal":false,"note":null,"lat":25.1250073,"lng":121.4671789,"geocode_src":"osm:exact"},{"serial_no":"RPOOMLOKMHLGFAA47CC","county_code":"a","district":"文山區","address":"臺北市文山區興隆路三段３０４巷９１之１號４樓","road":"文山區興隆路三段","building_type":"華廈(10層含以下有電梯)","total_floors":7.0,"transfer_floor_num":4.0,"age_years":6.4,"rooms":2.0,"halls":2.0,"baths":1.0,"building_area_sqm":114.85,"total_price":27000,"unit_price_per_ping":776.8594750000001,"deal_date":"2026-03-20","is_special_deal":false,"note":"未租賃車位，建物登記含有車位面積；續租案件；","lat":24.9953857,"lng":121.5560368,"geocode_src":"osm:exact"},{"serial_no":"RPVNMLKKMHLGFBA77CC","county_code":"a","district":"中正區","address":"臺北市中正區中華路一段８５巷６號","road":"中正區中華路一段","building_type":"透天厝","total_floors":4.0,"transfer_floor_num":null,"age_years":59.7,"rooms":8.0,"halls":1.0,"baths":8.0,"building_area_sqm":25.56,"total_price":16500,"unit_price_per_ping":2135.53711,"deal_date":"2026-03-20","is_special_deal":false,"note":"本案為位於三樓之分租套房302室，租金包含水費，包租業者另免費附贈網路、第四台供租客使用。租金總額含水費；租賃建物部分範圍，且未計入共有部分面積；","lat":25.0382339,"lng":121.5079112,"geocode_src":"osm:exact"},{"serial_no":"RPXNMLTJMHLGFDA98CC","county_code":"a","district":"南港區","address":"臺北市南港區成福路１６８號地下一層之１","road":"南港區成福路","building_type":"華廈(10層含以下有電梯)","total_floors":6.0,"transfer_floor_num":-1.0,"age_years":30.7,"rooms":1.0,"halls":1.0,"baths":1.0,"building_area_sqm":54.79,"total_price":12000,"unit_price_per_ping":723.9669150000001,"deal_date":"2026-03-20","is_special_deal":false,"note":"續租案件；","lat":25.0415275,"lng":121.5876201,"geocode_src":"nominatim"},{"serial_no":"RPTNMLQLLHLGFAA08CC","county_code":"a","district":"文山區","address":"臺北市文山區辛亥路七段５巷１３號四樓","road":"文山區辛亥路七段","building_type":"公寓(5樓含以下無電梯)","total_floors":4.0,"transfer_floor_num":4.0,"age_years":null,"rooms":2.0,"halls":1.0,"baths":1.0,"building_area_sqm":64.96,"total_price":25000,"unit_price_per_ping":1272.727225,"deal_date":"2026-03-20","is_special_deal":false,"note":null,"lat":24.9874518,"lng":121.5533754,"geocode_src":"osm:exact"},{"serial_no":"RPPQMLKLLHLGFCA57CC","county_code":"a","district":"內湖區","address":"臺北市內湖區安泰街７９巷７號２樓","road":"內湖區安泰街","building_type":"華廈(10層含以下有電梯)","total_floors":8.0,"transfer_floor_num":2.0,"age_years":31.2,"rooms":2.0,"halls":1.0,"baths":2.0,"building_area_sqm":111.27000000000001,"total_price":25000,"unit_price_per_ping":743.8016250000001,"deal_date":"2026-03-20","is_special_deal":false,"note":"續租案件；","lat":25.0760262,"lng":121.6172774,"geocode_src":"nominatim"},{"serial_no":"RPVNMLQJMHLGFBA28CC","county_code":"a","district":"萬華區","address":"臺北市萬華區成都路８１號八樓之２","road":"萬華區成都路","building_type":"住宅大樓(11層含以上有電梯)","total_floors":13.0,"transfer_floor_num":8.0,"age_years":23.2,"rooms":1.0,"halls":0.0,"baths":1.0,"building_area_sqm":93.84,"total_price":18200,"unit_price_per_ping":641.3222900000001,"deal_date":"2026-03-20","is_special_deal":false,"note":"未租賃車位，建物登記含有車位面積；","lat":25.042993008433736,"lng":121.50525854457831,"geocode_src":"nominatim"},{"serial_no":"RPXPMLRKMHLGFCA98CC","county_code":"a","district":"中山區","address":"臺北市中山區中山北路二段１８３號１０樓之２","road":"中山區中山北路二段","building_type":"住宅大樓(11層含以上有電梯)","total_floors":18.0,"transfer_floor_num":10.0,"age_years":6.8,"rooms":2.0,"halls":1.0,"baths":1.0,"building_area_sqm":91.03,"total_price":88000,"unit_price_per_ping":3196.6940950000003,"deal_date":"2026-03-20","is_special_deal":false,"note":null,"lat":25.0633991,"lng":121.522725,"geocode_src":"osm:exact"},{"serial_no":"RPQNMLOLLHLGFDA87CC","county_code":"a","district":"信義區","address":"臺北市信義區基隆路一段３５巷７弄１之２號","road":"信義區基隆路一段","building_type":"透天厝","total_floors":4.0,"transfer_floor_num":null,"age_years":50.4,"rooms":42.0,"halls":0.0,"baths":3.0,"building_area_sqm":15.71,"total_price":6000,"unit_price_per_ping":1262.80987,"deal_date":"2026-03-20","is_special_deal":false,"note":null,"lat":25.0483354,"lng":121.5707131,"geocode_src":"osm:exact"},{"serial_no":"RPOPMLLJMHLGFCA37CC","county_code":"a","district":"內湖區","address":"臺北市內湖區內湖路一段４９號３樓","road":"內湖區內湖路一段","building_type":"華廈(10層含以下有電梯)","total_floors":5.0,"transfer_floor_num":3.0,"age_years":36.5,"rooms":22.0,"halls":0.0,"baths":19.0,"building_area_sqm":47.27,"total_price":31500,"unit_price_per_ping":2201.65281,"deal_date":"2026-03-20","is_special_deal":false,"note":"租賃建物部分範圍，且未計入共有部分面積；","lat":25.0851593,"lng":121.55959730000001,"geocode_src":"osm:exact"},{"serial_no":"RPPNMLRLLHLGFCA97CC","county_code":"a","district":"中山區","address":"臺北市中山區華陰街２４巷２弄３號三樓","road":"中山區華陰街","building_type":"公寓(5樓含以下無電梯)","total_floors":4.0,"transfer_floor_num":3.0,"age_years":49.4,"rooms":2.0,"halls":1.0,"baths":2.0,"building_area_sqm":54.76,"total_price":24500,"unit_price_per_ping":1477.685895,"deal_date":"2026-03-20","is_special_deal":false,"note":"多人共同承租2；","lat":25.0489418,"lng":121.5197017,"geocode_src":"osm:exact"},{"serial_no":"RPVNMLMJMHLGFCA97CC","county_code":"a","district":"內湖區","address":"臺北市內湖區成功路二段１７９號四樓","road":"內湖區成功路二段","building_type":"公寓(5樓含以下無電梯)","total_floors":5.0,"transfer_floor_num":4.0,"age_years":45.3,"rooms":2.0,"halls":1.0,"baths":1.0,"building_area_sqm":86.41,"total_price":26000,"unit_price_per_ping":995.041285,"deal_date":"2026-03-20","is_special_deal":false,"note":null,"lat":25.0663365,"lng":121.59072710000001,"geocode_src":"osm:exact"},{"serial_no":"RPQNMLOLLHLGFAA57CC","county_code":"a","district":"中正區","address":"臺北市中正區中華路二段７５巷１７號６樓之１０","road":"中正區中華路二段","building_type":"華廈(10層含以下有電梯)","total_floors":7.0,"transfer_floor_num":6.0,"age_years":49.7,"rooms":2.0,"halls":1.0,"baths":1.0,"building_area_sqm":77.57,"total_price":31000,"unit_price_per_ping":1322.314,"deal_date":"2026-03-20","is_special_deal":false,"note":"續租案件；","lat":25.0337156,"lng":121.506934,"geocode_src":"osm:exact"},{"serial_no":"RPUNMLNLLHLGFFA38CC","county_code":"a","district":"大安區","address":"臺北市大安區安和路二段２０３號８樓","road":"大安區安和路二段","building_type":"住宅大樓(11層含以上有電梯)","total_floors":17.0,"transfer_floor_num":8.0,"age_years":35.2,"rooms":3.0,"halls":2.0,"baths":2.0,"building_area_sqm":152.63,"total_price":87600,"unit_price_per_ping":1897.52059,"deal_date":"2026-03-20","is_special_deal":false,"note":null,"lat":25.0264146,"lng":121.5501202,"geocode_src":"osm:exact"},{"serial_no":"RPRPMLNLLHLGFEA18CC","county_code":"a","district":"北投區","address":"臺北市北投區光明路２００號八樓之１","road":"北投區光明路","building_type":"住宅大樓(11層含以上有電梯)","total_floors":14.0,"transfer_floor_num":8.0,"age_years":21.0,"rooms":1.0,"halls":1.0,"baths":1.0,"building_area_sqm":37.7,"total_price":15000,"unit_price_per_ping":1315.70243,"deal_date":"2026-03-20","is_special_deal":false,"note":"國家住宅及都市更新中心社會住宅包租代管計畫之物件。","lat":25.1357548,"lng":121.5034836,"geocode_src":"nominatim"},{"serial_no":"RPROMLOLLHLGFDA08CC","county_code":"a","district":"信義區","address":"臺北市信義區基隆路一段３５巷５弄４８號","road":"信義區基隆路一段","building_type":"公寓(5樓含以下無電梯)","total_floors":4.0,"transfer_floor_num":1.0,"age_years":54.3,"rooms":1.0,"halls":2.0,"baths":2.0,"building_area_sqm":76.85,"total_price":32000,"unit_price_per_ping":1375.20656,"deal_date":"2026-03-20","is_special_deal":false,"note":"續租案件；","lat":25.0485246,"lng":121.5698532,"geocode_src":"osm:exact"},{"serial_no":"RPPNMLKKMHLGFCA27CC","county_code":"a","district":"中山區","address":"臺北市中山區民生東路一段２９號十二樓","road":"中山區民生東路一段","building_type":"住宅大樓(11層含以上有電梯)","total_floors":12.0,"transfer_floor_num":12.0,"age_years":43.1,"rooms":6.0,"halls":0.0,"baths":6.0,"building_area_sqm":19.83,"total_price":18500,"unit_price_per_ping":3084.2974050000003,"deal_date":"2026-03-20","is_special_deal":false,"note":"本案為位於12樓之分租套房1201室，租金包含管理費、水費，包租業者另免費附贈網路、第四台供租客使用。租金總額含管理費；水費；租賃建物部分範圍，且未計入共有部分面積；續租案件；","lat":25.058188,"lng":121.52512169999999,"geocode_src":"osm:exact"},{"serial_no":"RPUPMLRLLHLGFCA68CC","county_code":"a","district":"內湖區","address":"臺北市內湖區成功路二段１１５巷４７弄３６號三樓","road":"內湖區成功路二段","building_type":"公寓(5樓含以下無電梯)","total_floors":4.0,"transfer_floor_num":3.0,"age_years":49.8,"rooms":3.0,"halls":1.0,"baths":1.0,"building_area_sqm":61.76,"total_price":24000,"unit_price_per_ping":1285.9503650000001,"deal_date":"2026-03-20","is_special_deal":false,"note":null,"lat":25.0646861,"lng":121.5934132,"geocode_src":"osm:exact"},{"serial_no":"RPWNMLLKMHLGFDA18CC","county_code":"a","district":"信義區","address":"臺北市信義區仁愛路四段５１２巷１６之１號","road":"信義區仁愛路四段","building_type":"華廈(10層含以下有電梯)","total_floors":8.0,"transfer_floor_num":1.0,"age_years":19.2,"rooms":2.0,"halls":1.0,"baths":1.0,"building_area_sqm":127.45,"total_price":39000,"unit_price_per_ping":1011.5702100000001,"deal_date":"2026-03-19","is_special_deal":false,"note":null,"lat":25.0365214,"lng":121.5607545,"geocode_src":"osm:exact"},{"serial_no":"RPRNMLLMLHLGFAA47CC","county_code":"a","district":"中正區","address":"臺北市中正區水源路１２７號９樓之１","road":"中正區水源路","building_type":"華廈(10層含以下有電梯)","total_floors":10.0,"transfer_floor_num":9.0,"age_years":47.0,"rooms":1.0,"halls":0.0,"baths":1.0,"building_area_sqm":27.0,"total_price":22800,"unit_price_per_ping":2790.0825400000003,"deal_date":"2026-03-19","is_special_deal":false,"note":"多人共同承租2；租金總額含管理費；網路費；其他清潔費；租賃建物部分範圍，且未計入共有部分面積；","lat":25.021614100000004,"lng":121.51745909999998,"geocode_src":"nominatim"},{"serial_no":"RPTNMLQLLHLGFDA38CC","county_code":"a","district":"松山區","address":"臺北市松山區民生東路五段９２號三樓","road":"松山區民生東路五段","building_type":"公寓(5樓含以下無電梯)","total_floors":4.0,"transfer_floor_num":3.0,"age_years":56.1,"rooms":5.0,"halls":1.0,"baths":2.0,"building_area_sqm":31.54,"total_price":16800,"unit_price_per_ping":1761.9834050000002,"deal_date":"2026-03-19","is_special_deal":false,"note":null,"lat":25.0584219,"lng":121.56001,"geocode_src":"osm:exact"},{"serial_no":"RPPNMLKMLHLGFCA37CC","county_code":"a","district":"中山區","address":"臺北市中山區新生北路三段３５號２樓","road":"中山區新生北路三段","building_type":"公寓(5樓含以下無電梯)","total_floors":4.0,"transfer_floor_num":2.0,"age_years":51.6,"rooms":5.0,"halls":0.0,"baths":5.0,"building_area_sqm":21.48,"total_price":12000,"unit_price_per_ping":1847.933815,"deal_date":"2026-03-19","is_special_deal":false,"note":"租金總額含瓦斯費；","lat":25.0650296,"lng":121.5280739,"geocode_src":"osm:exact"},{"serial_no":"RPWNMLRLLHLGFAA48CC","county_code":"a","district":"中正區","address":"臺北市中正區廈門街８１巷４２號４樓","road":"中正區廈門街","building_type":"公寓(5樓含以下無電梯)","total_floors":5.0,"transfer_floor_num":5.0,"age_years":null,"rooms":7.0,"halls":1.0,"baths":2.0,"building_area_sqm":9.92,"total_price":12800,"unit_price_per_ping":4264.46265,"deal_date":"2026-03-19","is_special_deal":false,"note":"租金總額含管理費；網路費；租賃建物部分範圍，且未計入共有部分面積；","lat":25.0241999,"lng":121.5210752,"geocode_src":"nominatim"},{"serial_no":"RPPNMLTJMHLGFEA28CC","county_code":"a","district":"士林區","address":"臺北市士林區忠誠路二段１４０巷１５弄１７號","road":"士林區忠誠路二段","building_type":"透天厝","total_floors":2.0,"transfer_floor_num":null,"age_years":52.3,"rooms":5.0,"halls":1.0,"baths":3.0,"building_area_sqm":39.67,"total_price":29500,"unit_price_per_ping":2459.5040400000003,"deal_date":"2026-03-19","is_special_deal":false,"note":"本案為透天建物一樓之分租套房101室，格局3房1廳1衛，租金包含水費，包租業者另免費附贈網路、第四台供租客使用。租金總額含水費；租賃建物部分範圍，且未計入共有部分面積；","lat":25.1143906,"lng":121.5320102,"geocode_src":"osm:exact"},{"serial_no":"RPTOMLLKMHLGFBA77CC","county_code":"a","district":"中正區","address":"臺北市中正區漢口街一段８５號八樓之４","road":"中正區漢口街一段","building_type":"住宅大樓(11層含以上有電梯)","total_floors":13.0,"transfer_floor_num":8.0,"age_years":26.5,"rooms":1.0,"halls":1.0,"baths":1.0,"building_area_sqm":62.769999999999996,"total_price":18000,"unit_price_per_ping":948.760295,"deal_date":"2026-03-19","is_special_deal":false,"note":"未租賃車位，建物登記含有車位面積；","lat":25.04526292727273,"lng":121.51115925227273,"geocode_src":"osm:exact"},{"serial_no":"RPRNMLTJMHLGFAA08CC","county_code":"a","district":"文山區","address":"臺北市文山區興隆路二段１３３號四樓","road":"文山區興隆路二段","building_type":"公寓(5樓含以下無電梯)","total_floors":4.0,"transfer_floor_num":4.0,"age_years":null,"rooms":2.0,"halls":1.0,"baths":1.0,"building_area_sqm":64.57,"total_price":18000,"unit_price_per_ping":922.314015,"deal_date":"2026-03-19","is_special_deal":false,"note":"續租案件；","lat":25.00012254,"lng":121.54803482,"geocode_src":"osm:exact"},{"serial_no":"RPWNMLKKMHLGFEA18CC","county_code":"a","district":"士林區","address":"臺北市士林區忠誠路二段９４號四樓","road":"士林區忠誠路二段","building_type":"住宅大樓(11層含以上有電梯)","total_floors":14.0,"transfer_floor_num":4.0,"age_years":40.3,"rooms":1.0,"halls":1.0,"baths":2.0,"building_area_sqm":187.49,"total_price":60600,"unit_price_per_ping":1067.768555,"deal_date":"2026-03-19","is_special_deal":false,"note":"租金已扣除管理費4400元雙方合意自民國115年3月19日起至民國115年4月2日止為免租金裝潢期租賃期間有約定不同租金租期第三年第一期117年4月3日起，每月租金調整為68250元；","lat":25.112798,"lng":121.53101089999998,"geocode_src":"osm:exact"},{"serial_no":"RPRNMLQKMHLGFBA97CC","county_code":"a","district":"萬華區","address":"臺北市萬華區和平西路三段１５１號十樓","road":"萬華區和平西路三段","building_type":"華廈(10層含以下有電梯)","total_floors":10.0,"transfer_floor_num":10.0,"age_years":42.5,"rooms":2.0,"halls":1.0,"baths":1.0,"building_area_sqm":68.92,"total_price":23000,"unit_price_per_ping":1104.13219,"deal_date":"2026-03-19","is_special_deal":false,"note":null,"lat":25.0354055,"lng":121.4986926,"geocode_src":"osm:exact"},{"serial_no":"RPXOMLKLLHLGFBA08CC","county_code":"a","district":"萬華區","address":"臺北市萬華區環河南路一段７１號十一樓之１４","road":"萬華區環河南路一段","building_type":"住宅大樓(11層含以上有電梯)","total_floors":12.0,"transfer_floor_num":11.0,"age_years":48.6,"rooms":1.0,"halls":1.0,"baths":1.0,"building_area_sqm":24.200000000000003,"total_price":12000,"unit_price_per_ping":1639.66936,"deal_date":"2026-03-19","is_special_deal":false,"note":"續租案件；","lat":25.0449971,"lng":121.5019021,"geocode_src":"osm:exact"},{"serial_no":"RPWNMLQLLHLGFAA38CC","county_code":"a","district":"中正區","address":"臺北市中正區羅斯福路三段２４４巷１０弄１９號３樓","road":"中正區羅斯福路三段","building_type":"公寓(5樓含以下無電梯)","total_floors":4.0,"transfer_floor_num":3.0,"age_years":56.6,"rooms":2.0,"halls":2.0,"baths":2.0,"building_area_sqm":27.67,"total_price":19000,"unit_price_per_ping":2271.0742950000003,"deal_date":"2026-03-19","is_special_deal":false,"note":null,"lat":25.016103,"lng":121.5315008,"geocode_src":"osm:exact"},{"serial_no":"RPROMLKLLHLGFBA47CC","county_code":"a","district":"中正區","address":"臺北市中正區懷寧街１７號６樓之１","road":"中正區懷寧街","building_type":"華廈(10層含以下有電梯)","total_floors":9.0,"transfer_floor_num":6.0,"age_years":30.6,"rooms":0.0,"halls":0.0,"baths":0.0,"building_area_sqm":57.459999999999994,"total_price":20000,"unit_price_per_ping":1150.41318,"deal_date":"2026-03-19","is_special_deal":false,"note":"多人共同承租2；","lat":25.04562083333333,"lng":121.5142594138889,"geocode_src":"osm:exact"},{"serial_no":"RPTNMLLMLHLGFFA18CC","county_code":"a","district":"大安區","address":"臺北市大安區羅斯福路二段１０１巷５號４樓","road":"大安區羅斯福路二段","building_type":"華廈(10層含以下有電梯)","total_floors":7.0,"transfer_floor_num":4.0,"age_years":10.6,"rooms":2.0,"halls":2.0,"baths":2.0,"building_area_sqm":162.74,"total_price":115000,"unit_price_per_ping":2337.189995,"deal_date":"2026-03-19","is_special_deal":false,"note":"租金總額含管理費；其他稅；","lat":25.0248699,"lng":121.52486600000002,"geocode_src":"osm:exact"},{"serial_no":"RPVOMLKKMHLGFBA87CC","county_code":"a","district":"中正區","address":"臺北市中正區中華路一段８５巷１４號四樓","road":"中正區中華路一段","building_type":"公寓(5樓含以下無電梯)","total_floors":4.0,"transfer_floor_num":4.0,"age_years":59.7,"rooms":3.0,"halls":0.0,"baths":3.0,"building_area_sqm":21.37,"total_price":17000,"unit_price_per_ping":2631.40486,"deal_date":"2026-03-19","is_special_deal":false,"note":"本案為位於四樓之分租套房402室，租金包含水費，包租業者另免費附贈網路、第四台供租客使用。租金總額含水費；租賃建物部分範圍，且未計入共有部分面積；","lat":25.0381931,"lng":121.5080868,"geocode_src":"osm:exact"},{"serial_no":"RPQNMLNLLHLGFAA47CC","county_code":"a","district":"文山區","address":"臺北市文山區羅斯福路五段１０１號１０樓之１","road":"文山區羅斯福路五段","building_type":"住宅大樓(11層含以上有電梯)","total_floors":12.0,"transfer_floor_num":10.0,"age_years":17.7,"rooms":1.0,"halls":2.0,"baths":1.0,"building_area_sqm":73.48,"total_price":26000,"unit_price_per_ping":1170.24789,"deal_date":"2026-03-19","is_special_deal":false,"note":"多人共同承租2；","lat":25.005262593939396,"lng":121.53919070909092,"geocode_src":"osm:exact"},{"serial_no":"RPVNMLKLLHLGFBA77CC","county_code":"a","district":"萬華區","address":"臺北市萬華區萬大路１８７巷３弄１８號３樓","road":"萬華區萬大路","building_type":"公寓(5樓含以下無電梯)","total_floors":5.0,"transfer_floor_num":3.0,"age_years":50.9,"rooms":2.0,"halls":1.0,"baths":1.0,"building_area_sqm":36.77,"total_price":13000,"unit_price_per_ping":1170.24789,"deal_date":"2026-03-19","is_special_deal":false,"note":null,"lat":25.0286237,"lng":121.50134129999999,"geocode_src":"nominatim"},{"serial_no":"RPOPMLNLLHLGFBA57CC","county_code":"a","district":"萬華區","address":"臺北市萬華區西園路１段６６之１號３樓","road":"萬華區西園路","building_type":"公寓(5樓含以下無電梯)","total_floors":5.0,"transfer_floor_num":3.0,"age_years":47.8,"rooms":3.0,"halls":1.0,"baths":3.0,"building_area_sqm":82.58,"total_price":23000,"unit_price_per_ping":922.314015,"deal_date":"2026-03-19","is_special_deal":false,"note":null,"lat":25.0395382,"lng":121.4997276,"geocode_src":"osm:exact"},{"serial_no":"RPVNMLQLLHLGFDA58CC","county_code":"a","district":"南港區","address":"臺北市南港區南港區同德路５３號二樓","road":"南港區南港區同德路","building_type":"公寓(5樓含以下無電梯)","total_floors":null,"transfer_floor_num":2.0,"age_years":null,"rooms":4.0,"halls":1.0,"baths":2.0,"building_area_sqm":24.2,"total_price":12800,"unit_price_per_ping":1748.7602650000001,"deal_date":"2026-03-19","is_special_deal":false,"note":"續租案件；"},{"serial_no":"RPQPMLSJMHLGFCA28CC","county_code":"a","district":"內湖區","address":"臺北市內湖區瑞光路７６巷６９號６樓","road":"內湖區瑞光路","building_type":"廠辦","total_floors":6.0,"transfer_floor_num":6.0,"age_years":17.4,"rooms":0.0,"halls":0.0,"baths":0.0,"building_area_sqm":313.11,"total_price":90000,"unit_price_per_ping":948.760295,"deal_date":"2026-03-19","is_special_deal":false,"note":"115年04月01日起至115年05月14日止為免收租金裝潢期租金總額含稅；","lat":25.0699625,"lng":121.5799568,"geocode_src":"nominatim"},{"serial_no":"RPSNMLPLLHLGFEA28CC","county_code":"a","district":"士林區","address":"臺北市士林區承德路四段３３４號３樓","road":"士林區承德路四段","building_type":"公寓(5樓含以下無電梯)","total_floors":5.0,"transfer_floor_num":3.0,"age_years":44.6,"rooms":5.0,"halls":0.0,"baths":4.0,"building_area_sqm":15.530000000000001,"total_price":14000,"unit_price_per_ping":2978.5122850000002,"deal_date":"2026-03-19","is_special_deal":false,"note":"續租案件；","lat":25.0899962,"lng":121.5176337,"geocode_src":"osm:exact"},{"serial_no":"RPPNMLPLLHLGFFA08CC","county_code":"a","district":"大安區","address":"臺北市大安區基隆路二段１８８號七樓之９、七樓之１０","road":"大安區基隆路二段","building_type":"住宅大樓(11層含以上有電梯)","total_floors":14.0,"transfer_floor_num":7.0,"age_years":17.2,"rooms":2.0,"halls":2.0,"baths":2.0,"building_area_sqm":79.83,"total_price":38000,"unit_price_per_ping":1573.55366,"deal_date":"2026-03-19","is_special_deal":false,"note":null,"lat":25.024947706015038,"lng":121.5529196368421,"geocode_src":"osm:exact"},{"serial_no":"RPUNMLNLLHLGFDA18CC","county_code":"a","district":"南港區","address":"臺北市南港區南深路３３之４號","road":"南港區南深路","building_type":"華廈(10層含以下有電梯)","total_floors":10.0,"transfer_floor_num":1.0,"age_years":27.0,"rooms":1.0,"halls":1.0,"baths":1.0,"building_area_sqm":32.41,"total_price":16000,"unit_price_per_ping":1633.05779,"deal_date":"2026-03-19","is_special_deal":false,"note":null,"lat":25.036637,"lng":121.6206631,"geocode_src":"osm:exact"},{"serial_no":"RPSNMLLMLHLGFDA87CC","county_code":"a","district":"松山區","address":"臺北市松山區八德路三段１２巷５弄６號６樓","road":"松山區八德路三段","building_type":"華廈(10層含以下有電梯)","total_floors":7.0,"transfer_floor_num":6.0,"age_years":44.1,"rooms":5.0,"halls":1.0,"baths":2.0,"building_area_sqm":18.0,"total_price":19000,"unit_price_per_ping":3490.90896,"deal_date":"2026-03-19","is_special_deal":false,"note":"租金總額含管理費；網路費；其他清潔費；租賃建物部分範圍，且未計入共有部分面積；","lat":25.0475378,"lng":121.55087020000002,"geocode_src":"osm:exact"},{"serial_no":"RPSPMLOLLHLGFCA18CC","county_code":"a","district":"內湖區","address":"臺北市內湖區康寧路一段２９２號８樓之５","road":"內湖區康寧路一段","building_type":"住宅大樓(11層含以上有電梯)","total_floors":12.0,"transfer_floor_num":8.0,"age_years":34.4,"rooms":1.0,"halls":1.0,"baths":1.0,"building_area_sqm":46.150000000000006,"total_price":23000,"unit_price_per_ping":1646.2809300000001,"deal_date":"2026-03-19","is_special_deal":false,"note":null,"lat":25.0782382,"lng":121.5978805,"geocode_src":"osm:exact"},{"serial_no":"RPPNMLSKMHLGFBA97CC","county_code":"a","district":"大同區","address":"臺北市大同區寧夏路２３號","road":"大同區寧夏路","building_type":"透天厝","total_floors":5.0,"transfer_floor_num":null,"age_years":63.6,"rooms":15.0,"halls":0.0,"baths":15.0,"building_area_sqm":22.65,"total_price":15500,"unit_price_per_ping":2261.1569400000003,"deal_date":"2026-03-19","is_special_deal":false,"note":"本案為臺北市大同區寧夏路23號之分租套房502室，契約租賃範圍面積22.65平方公尺，租金包含水費。租金總額含水費；租賃建物部分範圍，且未計入共有部分面積；","lat":25.05514175,"lng":121.515168,"geocode_src":"nominatim"},{"serial_no":"RPQNMLSKMHLGFBA08CC","county_code":"a","district":"大同區","address":"臺北市大同區寧夏路２３號","road":"大同區寧夏路","building_type":"透天厝","total_floors":5.0,"transfer_floor_num":null,"age_years":63.6,"rooms":15.0,"halls":0.0,"baths":15.0,"building_area_sqm":22.65,"total_price":15500,"unit_price_per_ping":2261.1569400000003,"deal_date":"2026-03-19","is_special_deal":false,"note":"本案為臺北市大同區寧夏路23號之分租套房502室，契約租賃範圍面積22.65平方公尺，租金包含水費。租金總額含水費；租賃建物部分範圍，且未計入共有部分面積；","lat":25.05514175,"lng":121.515168,"geocode_src":"nominatim"},{"serial_no":"RPQNMLTJMHLGFEA38CC","county_code":"a","district":"士林區","address":"臺北市士林區忠誠路二段１４０巷１５弄１７號","road":"士林區忠誠路二段","building_type":"透天厝","total_floors":2.0,"transfer_floor_num":null,"age_years":52.3,"rooms":5.0,"halls":1.0,"baths":3.0,"building_area_sqm":39.67,"total_price":29500,"unit_price_per_ping":2459.5040400000003,"deal_date":"2026-03-19","is_special_deal":false,"note":"本案為透天建物一樓之分租套房101室，格局3房1廳1衛，租金包含水費，包租業者另免費附贈網路、第四台供租客使用。租金總額含水費；租賃建物部分範圍，且未計入共有部分面積；","lat":25.1143906,"lng":121.5320102,"geocode_src":"osm:exact"},{"serial_no":"RPPPMLTKLHLGFDA38CC","county_code":"a","district":"松山區","address":"臺北市松山區南京東路五段１２３巷６弄１２號","road":"松山區南京東路五段","building_type":"公寓(5樓含以下無電梯)","total_floors":4.0,"transfer_floor_num":1.0,"age_years":58.7,"rooms":6.0,"halls":0.0,"baths":6.0,"building_area_sqm":20.0,"total_price":17916,"unit_price_per_ping":2961.98336,"deal_date":"2026-03-19","is_special_deal":false,"note":null,"lat":25.0529098,"lng":121.5614368,"geocode_src":"osm:exact"},{"serial_no":"RPXNMLNLLHLGFCA38CC","county_code":"a","district":"內湖區","address":"臺北市內湖區康樂街１８６巷３５號２樓","road":"內湖區康樂街","building_type":"華廈(10層含以下有電梯)","total_floors":7.0,"transfer_floor_num":2.0,"age_years":29.8,"rooms":5.0,"halls":2.0,"baths":2.0,"building_area_sqm":112.69,"total_price":26500,"unit_price_per_ping":776.8594750000001,"deal_date":"2026-03-19","is_special_deal":false,"note":"續租案件；","lat":25.0769857,"lng":121.6205602,"geocode_src":"nominatim"},{"serial_no":"RPUNMLLMLHLGFDA08CC","county_code":"a","district":"信義區","address":"臺北市信義區松隆路３３３號４樓","road":"信義區松隆路","building_type":"公寓(5樓含以下無電梯)","total_floors":5.0,"transfer_floor_num":4.0,"age_years":41.4,"rooms":4.0,"halls":2.0,"baths":2.0,"building_area_sqm":16.53,"total_price":18300,"unit_price_per_ping":3659.503995,"deal_date":"2026-03-19","is_special_deal":false,"note":"租金總額含管理費；網路費；其他清潔費；租賃建物部分範圍，且未計入共有部分面積；","lat":25.0484637,"lng":121.5795551,"geocode_src":"nominatim"},{"serial_no":"RPUNMLPLLHLGFAA08CC","county_code":"a","district":"文山區","address":"臺北市文山區辛亥路四段２２２巷６弄２號３樓","road":"文山區辛亥路四段","building_type":"公寓(5樓含以下無電梯)","total_floors":5.0,"transfer_floor_num":3.0,"age_years":45.7,"rooms":3.0,"halls":2.0,"baths":1.0,"building_area_sqm":93.17,"total_price":30000,"unit_price_per_ping":1064.46277,"deal_date":"2026-03-19","is_special_deal":false,"note":"多人共同承租2；","lat":25.0024774,"lng":121.55500939999999,"geocode_src":"osm:exact"},{"serial_no":"RPWNMLOLLHLGFFA68CC","county_code":"a","district":"大安區","address":"臺北市大安區延吉街２３３之１號","road":"大安區延吉街","building_type":"華廈(10層含以下有電梯)","total_floors":7.0,"transfer_floor_num":1.0,"age_years":43.2,"rooms":1.0,"halls":3.0,"baths":1.0,"building_area_sqm":143.26,"total_price":120000,"unit_price_per_ping":2770.2478300000002,"deal_date":"2026-03-19","is_special_deal":false,"note":"租金總額含稅；含增建或未登記建物；租賃期間有約定不同租金115年3月25日至115年5月24日為裝潢期免租金.115年5月25日至118年5月24日，月租金為壹拾貳萬元.118年5月25日至121年5月24日月租金為壹拾?萬元.；","lat":25.0369067,"lng":121.5556409,"geocode_src":"nominatim"},{"serial_no":"RPQPMLNKMHLGFCA87CC","county_code":"a","district":"內湖區","address":"臺北市內湖區週美里新明路２７３巷６號５樓","road":"內湖區週美里新明路","building_type":"華廈(10層含以下有電梯)","total_floors":5.0,"transfer_floor_num":5.0,"age_years":36.7,"rooms":18.0,"halls":1.0,"baths":18.0,"building_area_sqm":23.0,"total_price":14800,"unit_price_per_ping":2125.619755,"deal_date":"2026-03-19","is_special_deal":false,"note":"飯店式管理，提供24小時現場櫃檯服務、專人客房及垃圾清潔、專人設備修繕、免費零食mini bar，並可接受30日以上之短租最低租期非一年租金總額含水費；瓦斯費；","lat":25.0570215,"lng":121.58633749999998,"geocode_src":"osm:exact"},{"serial_no":"RPSNMLOLLHLGFAA77CC","county_code":"a","district":"文山區","address":"臺北市文山區仙岩路１６巷４１弄１２號３樓","road":"文山區仙岩路","building_type":"公寓(5樓含以下無電梯)","total_floors":4.0,"transfer_floor_num":3.0,"age_years":50.7,"rooms":2.0,"halls":2.0,"baths":1.0,"building_area_sqm":68.75,"total_price":19900,"unit_price_per_ping":955.3718650000001,"deal_date":"2026-03-19","is_special_deal":false,"note":null,"lat":24.9977367,"lng":121.5504472,"geocode_src":"nominatim"},{"serial_no":"RPSOMLKKMHLGFBA57CC","county_code":"a","district":"中正區","address":"臺北市中正區中華路一段８５巷１４號四樓","road":"中正區中華路一段","building_type":"公寓(5樓含以下無電梯)","total_floors":4.0,"transfer_floor_num":4.0,"age_years":59.7,"rooms":3.0,"halls":0.0,"baths":3.0,"building_area_sqm":21.37,"total_price":17000,"unit_price_per_ping":2631.40486,"deal_date":"2026-03-19","is_special_deal":false,"note":"本案為位於四樓之分租套房402室，租金包含水費，包租業者另免費附贈網路、第四台供租客使用。租金總額含水費；租賃建物部分範圍，且未計入共有部分面積；","lat":25.0381931,"lng":121.5080868,"geocode_src":"osm:exact"},{"serial_no":"RPSOMLMJMHLGFCA77CC","county_code":"a","district":"中山區","address":"臺北市中山區林森北路２６３號１２樓之３","road":"中山區林森北路","building_type":"住宅大樓(11層含以上有電梯)","total_floors":12.0,"transfer_floor_num":12.0,"age_years":43.7,"rooms":1.0,"halls":0.0,"baths":1.0,"building_area_sqm":47.24,"total_price":22422,"unit_price_per_ping":1570.247875,"deal_date":"2026-03-19","is_special_deal":false,"note":null,"lat":25.0545752,"lng":121.5255498,"geocode_src":"nominatim"},{"serial_no":"RPWNMLOKMHLGFFA68CC","county_code":"a","district":"大安區","address":"臺北市大安區信義路四段２６５巷１７之１號九樓之７","road":"大安區信義路四段","building_type":"住宅大樓(11層含以上有電梯)","total_floors":13.0,"transfer_floor_num":9.0,"age_years":17.1,"rooms":1.0,"halls":1.0,"baths":1.0,"building_area_sqm":25.58,"total_price":19500,"unit_price_per_ping":2519.00817,"deal_date":"2026-03-19","is_special_deal":false,"note":"多人共同承租2；","lat":25.034175018181816,"lng":121.5545321080808,"geocode_src":"osm:exact"},{"serial_no":"RPXNMLKMLHLGFAA97CC","county_code":"a","district":"中正區","address":"臺北市中正區和平西路二段８號","road":"中正區和平西路二段","building_type":"店面(店鋪)","total_floors":7.0,"transfer_floor_num":1.0,"age_years":45.6,"rooms":2.0,"halls":1.0,"baths":1.0,"building_area_sqm":156.25,"total_price":55000,"unit_price_per_ping":1163.63632,"deal_date":"2026-03-19","is_special_deal":false,"note":"租金總額含稅；管理費；其他健保補充保費；","lat":25.0278501,"lng":121.513933,"geocode_src":"osm:exact"},{"serial_no":"RPPNMLLMLHLGFCA47CC","county_code":"a","district":"中山區","address":"臺北市中山區伊通街８７巷５之１號","road":"中山區伊通街","building_type":"店面(店鋪)","total_floors":4.0,"transfer_floor_num":1.0,"age_years":53.7,"rooms":0.0,"halls":3.0,"baths":2.0,"building_area_sqm":101.46,"total_price":75000,"unit_price_per_ping":2442.975115,"deal_date":"2026-03-19","is_special_deal":false,"note":"租金總額含稅；","lat":25.0529265,"lng":121.5354314,"geocode_src":"osm:exact"},{"serial_no":"RPTOMLKKMHLGFDA87CC","county_code":"a","district":"松山區","address":"臺北市松山區八德路四段７５５號六樓之１","road":"松山區八德路四段","building_type":"華廈(10層含以下有電梯)","total_floors":10.0,"transfer_floor_num":6.0,"age_years":24.9,"rooms":1.0,"halls":1.0,"baths":1.0,"building_area_sqm":45.54,"total_price":24000,"unit_price_per_ping":1742.148695,"deal_date":"2026-03-19","is_special_deal":false,"note":"管理費每個月1378元不包含在租金內多人共同承租2；","lat":25.0506068,"lng":121.5775351,"geocode_src":"osm:exact"},{"serial_no":"RPPNMLOLLHLGFEA87CC","county_code":"a","district":"士林區","address":"臺北市士林區延平北路五段２１７號三樓","road":"士林區延平北路五段","building_type":"公寓(5樓含以下無電梯)","total_floors":3.0,"transfer_floor_num":3.0,"age_years":65.9,"rooms":3.0,"halls":2.0,"baths":1.0,"building_area_sqm":95.38,"total_price":14500,"unit_price_per_ping":502.47932000000003,"deal_date":"2026-03-19","is_special_deal":false,"note":"續租案件；","lat":25.0839534,"lng":121.5098492,"geocode_src":"osm:exact"},{"serial_no":"RPUNMLKMLHLGFBA77CC","county_code":"a","district":"萬華區","address":"臺北市萬華區昆明街２４８之１號四樓","road":"萬華區昆明街","building_type":"公寓(5樓含以下無電梯)","total_floors":5.0,"transfer_floor_num":4.0,"age_years":46.6,"rooms":2.0,"halls":1.0,"baths":1.0,"building_area_sqm":57.46,"total_price":26000,"unit_price_per_ping":1494.2148200000001,"deal_date":"2026-03-19","is_special_deal":false,"note":null,"lat":25.0395247,"lng":121.5040531,"geocode_src":"nominatim"},{"serial_no":"RPQOMLMJMHLGFCA57CC","county_code":"a","district":"中山區","address":"臺北市中山區新生北路三段５６巷１９號１０樓之２","road":"中山區新生北路三段","building_type":"住宅大樓(11層含以上有電梯)","total_floors":13.0,"transfer_floor_num":10.0,"age_years":16.4,"rooms":3.0,"halls":2.0,"baths":2.0,"building_area_sqm":138.75,"total_price":80000,"unit_price_per_ping":1907.4379450000001,"deal_date":"2026-03-19","is_special_deal":false,"note":"租金總額含管理費；","lat":25.0654264,"lng":121.52678119999999,"geocode_src":"osm:exact"},{"serial_no":"RPQNMLRLLHLGFCA08CC","county_code":"a","district":"內湖區","address":"臺北市內湖區內湖路一段３７９號三樓","road":"內湖區內湖路一段","building_type":"公寓(5樓含以下無電梯)","total_floors":4.0,"transfer_floor_num":3.0,"age_years":48.5,"rooms":3.0,"halls":2.0,"baths":1.0,"building_area_sqm":91.46,"total_price":33000,"unit_price_per_ping":1193.388385,"deal_date":"2026-03-19","is_special_deal":false,"note":null,"lat":25.0820058,"lng":121.5698762,"geocode_src":"osm:exact"},{"serial_no":"RPOPMLPLLHLGFCA87CC","county_code":"a","district":"中山區","address":"臺北市中山區松江路８號十二樓之十五","road":"中山區松江路","building_type":"住宅大樓(11層含以上有電梯)","total_floors":12.0,"transfer_floor_num":12.0,"age_years":48.4,"rooms":1.0,"halls":1.0,"baths":1.0,"building_area_sqm":21.09,"total_price":16000,"unit_price_per_ping":2509.090815,"deal_date":"2026-03-19","is_special_deal":false,"note":"續租案件；","lat":25.046495904910717,"lng":121.5327047075893,"geocode_src":"nominatim"},{"serial_no":"RPOOMLLKMHLGFCA37CC","county_code":"a","district":"中山區","address":"臺北市中山區中山北路二段７７巷１７號九樓","road":"中山區中山北路二段","building_type":"住宅大樓(11層含以上有電梯)","total_floors":12.0,"transfer_floor_num":9.0,"age_years":16.4,"rooms":2.0,"halls":2.0,"baths":1.0,"building_area_sqm":89.0,"total_price":68000,"unit_price_per_ping":2525.61974,"deal_date":"2026-03-19","is_special_deal":false,"note":"租金總額含管理費；網路費；其他有線電視月費；續租案件；","lat":25.0575437,"lng":121.5235785,"geocode_src":"osm:exact"},{"serial_no":"RPTOMLNLLHLGFDA18CC","county_code":"a","district":"松山區","address":"臺北市松山區敦化北路１００號","road":"松山區敦化北路","building_type":"住宅大樓(11層含以上有電梯)","total_floors":15.0,"transfer_floor_num":6.0,"age_years":42.5,"rooms":300.0,"halls":10.0,"baths":300.0,"building_area_sqm":30.73,"total_price":21450,"unit_price_per_ping":2307.43793,"deal_date":"2026-03-19","is_special_deal":false,"note":"租金總額含電費；租賃建物部分範圍，且未計入共有部分面積；","lat":25.05277564117647,"lng":121.54856104117647,"geocode_src":"nominatim"},{"serial_no":"RPSNMLOLLHLGFEA18CC","county_code":"a","district":"北投區","address":"臺北市北投區公?路２７６巷３號３樓","road":null,"building_type":"華廈(10層含以下有電梯)","total_floors":5.0,"transfer_floor_num":3.0,"age_years":32.0,"rooms":3.0,"halls":1.0,"baths":1.0,"building_area_sqm":84.32000000000001,"total_price":29000,"unit_price_per_ping":1137.19004,"deal_date":"2026-03-19","is_special_deal":false,"note":"續租案件；"},{"serial_no":"RPUNMLPLLHLGFFA58CC","county_code":"a","district":"大安區","address":"臺北市大安區泰順街１７號二樓","road":"大安區泰順街","building_type":"公寓(5樓含以下無電梯)","total_floors":5.0,"transfer_floor_num":2.0,"age_years":40.3,"rooms":3.0,"halls":2.0,"baths":2.0,"building_area_sqm":104.25,"total_price":28000,"unit_price_per_ping":889.256165,"deal_date":"2026-03-19","is_special_deal":false,"note":null,"lat":25.0249949,"lng":121.5315275,"geocode_src":"nominatim"},{"serial_no":"RPPOMLOLLHLGFCA77CC","county_code":"a","district":"中山區","address":"臺北市中山區民生東路二段１４７巷６弄１６號二樓","road":"中山區民生東路二段","building_type":"公寓(5樓含以下無電梯)","total_floors":3.0,"transfer_floor_num":2.0,"age_years":64.5,"rooms":3.0,"halls":1.0,"baths":1.0,"building_area_sqm":69.11,"total_price":18000,"unit_price_per_ping":859.5041,"deal_date":"2026-03-19","is_special_deal":false,"note":"續租案件；","lat":25.059154700000004,"lng":121.5342878,"geocode_src":"osm:exact"},{"serial_no":"RPSOMLNLLHLGFDA08CC","county_code":"a","district":"松山區","address":"臺北市松山區敦化北路１００號","road":"松山區敦化北路","building_type":"住宅大樓(11層含以上有電梯)","total_floors":15.0,"transfer_floor_num":6.0,"age_years":42.5,"rooms":300.0,"halls":10.0,"baths":300.0,"building_area_sqm":30.73,"total_price":21450,"unit_price_per_ping":2307.43793,"deal_date":"2026-03-19","is_special_deal":false,"note":"租金總額含電費；租賃建物部分範圍，且未計入共有部分面積；","lat":25.05277564117647,"lng":121.54856104117647,"geocode_src":"nominatim"},{"serial_no":"RPQOMLLMLHLGFEA87CC","county_code":"a","district":"士林區","address":"臺北市士林區福華路１２８巷１弄８號４樓","road":"士林區福華路","building_type":"公寓(5樓含以下無電梯)","total_floors":4.0,"transfer_floor_num":4.0,"age_years":54.2,"rooms":4.0,"halls":1.0,"baths":1.0,"building_area_sqm":11.0,"total_price":12700,"unit_price_per_ping":3818.1816750000003,"deal_date":"2026-03-19","is_special_deal":false,"note":"租金總額含管理費；網路費；其他清潔費；租賃建物部分範圍，且未計入共有部分面積；","lat":25.1031488,"lng":121.523022,"geocode_src":"osm:exact"},{"serial_no":"RPWNMLTJMHLGFCA78CC","county_code":"a","district":"中山區","address":"臺北市中山區南京東路三段１２１號","road":"中山區南京東路三段","building_type":"透天厝","total_floors":4.0,"transfer_floor_num":null,"age_years":null,"rooms":11.0,"halls":0.0,"baths":11.0,"building_area_sqm":18.73,"total_price":18000,"unit_price_per_ping":3176.859385,"deal_date":"2026-03-19","is_special_deal":false,"note":"本案為透天建物三樓之分租套房303室，租金包含水費，包租業者另免費附贈網路、第四台供租客使用。租金總額含水費；租賃建物部分範圍，且未計入共有部分面積；","lat":25.0521124,"lng":121.54009355,"geocode_src":"osm:exact"},{"serial_no":"RPPNMLLMLHLGFFA77CC","county_code":"a","district":"大安區","address":"臺北市大安區光復南路４３８號十一樓","road":"大安區光復南路","building_type":"辦公商業大樓","total_floors":13.0,"transfer_floor_num":11.0,"age_years":30.5,"rooms":3.0,"halls":0.0,"baths":0.0,"building_area_sqm":339.69,"total_price":185000,"unit_price_per_ping":1801.6528250000001,"deal_date":"2026-03-19","is_special_deal":false,"note":"民國115年4月1日起至民國115年4月15日為免租金裝潢期期間電費、管理費由承租人負責。租金總額含稅；","lat":25.035998,"lng":121.5573592,"geocode_src":"nominatim"},{"serial_no":"RPRNMLOLLHLGFEA08CC","county_code":"a","district":"士林區","address":"臺北市士林區環河北路三段１９５號４樓","road":"士林區環河北路三段","building_type":"公寓(5樓含以下無電梯)","total_floors":5.0,"transfer_floor_num":4.0,"age_years":45.4,"rooms":3.0,"halls":2.0,"baths":1.0,"building_area_sqm":97.55,"total_price":22000,"unit_price_per_ping":747.1074100000001,"deal_date":"2026-03-19","is_special_deal":false,"note":"續租案件；","lat":25.087619,"lng":121.50454199999999,"geocode_src":"osm:exact"},{"serial_no":"RPQNMLNLLHLGFFA97CC","county_code":"a","district":"大安區","address":"臺北市大安區大安路一段３１巷４８號４樓","road":"大安區大安路一段","building_type":"公寓(5樓含以下無電梯)","total_floors":4.0,"transfer_floor_num":4.0,"age_years":null,"rooms":3.0,"halls":2.0,"baths":1.0,"building_area_sqm":98.71,"total_price":36000,"unit_price_per_ping":1206.611525,"deal_date":"2026-03-19","is_special_deal":false,"note":null,"lat":25.0438796,"lng":121.5477843,"geocode_src":"osm:exact"},{"serial_no":"RPUNMLPLLHLGFBA18CC","county_code":"a","district":"大同區","address":"臺北市大同區長安西路２８７號７樓之２","road":"大同區長安西路","building_type":"住宅大樓(11層含以上有電梯)","total_floors":11.0,"transfer_floor_num":7.0,"age_years":48.8,"rooms":1.0,"halls":1.0,"baths":1.0,"building_area_sqm":38.08,"total_price":17000,"unit_price_per_ping":1474.38011,"deal_date":"2026-03-19","is_special_deal":false,"note":"多人共同承租2；租金總額含網路費；","lat":25.05211786525424,"lng":121.50950350508475,"geocode_src":"nominatim"},{"serial_no":"RPQNMLRJMHLGFDA18DC","county_code":"a","district":"信義區","address":"臺北市信義區忠孝東路五段５０８號九樓","road":"信義區忠孝東路五段","building_type":"辦公商業大樓","total_floors":28.0,"transfer_floor_num":9.0,"age_years":32.6,"rooms":2.0,"halls":0.0,"baths":2.0,"building_area_sqm":206.0,"total_price":100000,"unit_price_per_ping":1603.3057250000002,"deal_date":"2026-03-19","is_special_deal":false,"note":"租金總額含稅；","lat":25.04110643257576,"lng":121.57875226969698,"geocode_src":"osm:exact"},{"serial_no":"RPVNMLKLLHLGFAA67CC","county_code":"a","district":"文山區","address":"臺北市文山區木柵路四段３３巷４號４樓","road":"文山區木柵路四段","building_type":"華廈(10層含以下有電梯)","total_floors":5.0,"transfer_floor_num":4.0,"age_years":33.8,"rooms":2.0,"halls":2.0,"baths":1.0,"building_area_sqm":84.64999999999999,"total_price":19800,"unit_price_per_ping":773.5536900000001,"deal_date":"2026-03-19","is_special_deal":false,"note":null,"lat":24.9943589,"lng":121.5711987,"geocode_src":"osm:exact"},{"serial_no":"RPQNMLNLLHLGFBA57CC","county_code":"a","district":"萬華區","address":"臺北市萬華區和平西路三段３８４號２樓之２１","road":"萬華區和平西路三段","building_type":"華廈(10層含以下有電梯)","total_floors":8.0,"transfer_floor_num":2.0,"age_years":44.7,"rooms":1.0,"halls":1.0,"baths":1.0,"building_area_sqm":35.3,"total_price":11500,"unit_price_per_ping":1077.6859100000001,"deal_date":"2026-03-19","is_special_deal":false,"note":null,"lat":25.0353151,"lng":121.4912646,"geocode_src":"osm:exact"},{"serial_no":"RPVPMLKLLHLGFCA08CC","county_code":"a","district":"內湖區","address":"臺北市內湖區內湖路１段２１７巷４５號","road":"內湖區內湖路","building_type":"華廈(10層含以下有電梯)","total_floors":7.0,"transfer_floor_num":1.0,"age_years":42.3,"rooms":2.0,"halls":1.0,"baths":1.0,"building_area_sqm":78.55,"total_price":34000,"unit_price_per_ping":1431.404905,"deal_date":"2026-03-19","is_special_deal":false,"note":"續租案件；","lat":25.0839817,"lng":121.56503239999999,"geocode_src":"osm:exact"},{"serial_no":"RPVNMLTJMHLGFCA68CC","county_code":"a","district":"中山區","address":"臺北市中山區南京東路三段１２１號","road":"中山區南京東路三段","building_type":"透天厝","total_floors":4.0,"transfer_floor_num":null,"age_years":null,"rooms":11.0,"halls":0.0,"baths":11.0,"building_area_sqm":18.73,"total_price":18000,"unit_price_per_ping":3176.859385,"deal_date":"2026-03-19","is_special_deal":false,"note":"本案為透天建物三樓之分租套房303室，租金包含水費，包租業者另免費附贈網路、第四台供租客使用。租金總額含水費；租賃建物部分範圍，且未計入共有部分面積；","lat":25.0521124,"lng":121.54009355,"geocode_src":"osm:exact"},{"serial_no":"RPWNMLSJMHLGFCA68CC","county_code":"a","district":"中山區","address":"臺北市中山區雙城街４０巷２-１號２樓B室","road":"中山區雙城街","building_type":"公寓(5樓含以下無電梯)","total_floors":3.0,"transfer_floor_num":2.0,"age_years":null,"rooms":1.0,"halls":1.0,"baths":1.0,"building_area_sqm":72.36,"total_price":25000,"unit_price_per_ping":1140.495825,"deal_date":"2026-03-19","is_special_deal":false,"note":null,"lat":25.067081399999996,"lng":121.5239907,"geocode_src":"nominatim"},{"serial_no":"RPOOMLLJMHLGFEA47CC","county_code":"a","district":"北投區","address":"臺北市北投區大興街２５號４樓","road":"北投區大興街","building_type":"公寓(5樓含以下無電梯)","total_floors":5.0,"transfer_floor_num":4.0,"age_years":35.9,"rooms":3.0,"halls":2.0,"baths":2.0,"building_area_sqm":139.04,"total_price":32000,"unit_price_per_ping":760.33055,"deal_date":"2026-03-19","is_special_deal":false,"note":null,"lat":25.130076,"lng":121.49855219999999,"geocode_src":"nominatim"},{"serial_no":"RPTNMLTJMHLGFCA48CC","county_code":"a","district":"中山區","address":"臺北市中山區南京東路三段１２１號","road":"中山區南京東路三段","building_type":"透天厝","total_floors":4.0,"transfer_floor_num":null,"age_years":null,"rooms":11.0,"halls":0.0,"baths":11.0,"building_area_sqm":18.73,"total_price":16000,"unit_price_per_ping":2823.14039,"deal_date":"2026-03-19","is_special_deal":false,"note":"本案為透天建物三樓之分租套房302室，租金包含水費，包租業者另免費附贈網路、第四台供租客使用。租金總額含水費；租賃建物部分範圍，且未計入共有部分面積；","lat":25.0521124,"lng":121.54009355,"geocode_src":"osm:exact"},{"serial_no":"RPRQMLPLLHLGFBA18CC","county_code":"a","district":"大同區","address":"臺北市大同區昌吉街６１巷３５弄９號３樓之１","road":"大同區昌吉街","building_type":"公寓(5樓含以下無電梯)","total_floors":5.0,"transfer_floor_num":3.0,"age_years":50.7,"rooms":1.0,"halls":0.0,"baths":1.0,"building_area_sqm":36.67,"total_price":15000,"unit_price_per_ping":1352.066065,"deal_date":"2026-03-19","is_special_deal":false,"note":null,"lat":25.0668044,"lng":121.51520799999999,"geocode_src":"osm:exact"},{"serial_no":"RPPNMLQJMHLGFEA97CC","county_code":"a","district":"士林區","address":"臺北市士林區通河街３２５巷６號","road":"士林區通河街","building_type":"公寓(5樓含以下無電梯)","total_floors":5.0,"transfer_floor_num":null,"age_years":55.3,"rooms":1.0,"halls":0.0,"baths":1.0,"building_area_sqm":27.63,"total_price":8400,"unit_price_per_ping":1004.9586400000001,"deal_date":"2026-03-19","is_special_deal":false,"note":"續租案件；","lat":25.0816201,"lng":121.5177698,"geocode_src":"osm:exact"},{"serial_no":"RPUNMLTJMHLGFCA58CC","county_code":"a","district":"中山區","address":"臺北市中山區南京東路三段１２１號","road":"中山區南京東路三段","building_type":"透天厝","total_floors":4.0,"transfer_floor_num":null,"age_years":null,"rooms":11.0,"halls":0.0,"baths":11.0,"building_area_sqm":18.73,"total_price":16000,"unit_price_per_ping":2823.14039,"deal_date":"2026-03-19","is_special_deal":false,"note":"本案為透天建物三樓之分租套房302室，租金包含水費，包租業者另免費附贈網路、第四台供租客使用。租金總額含水費；租賃建物部分範圍，且未計入共有部分面積；","lat":25.0521124,"lng":121.54009355,"geocode_src":"osm:exact"},{"serial_no":"RPTOMLRLLHLGFBA38CC","county_code":"a","district":"萬華區","address":"臺北市萬華區峨眉街１３９、１４１、１４３號；環河南路一段７５號","road":"萬華區峨眉街","building_type":"透天厝","total_floors":5.0,"transfer_floor_num":null,"age_years":59.4,"rooms":20.0,"halls":0.0,"baths":20.0,"building_area_sqm":35.07,"total_price":17500,"unit_price_per_ping":1649.5867150000001,"deal_date":"2026-03-19","is_special_deal":false,"note":"續租案件；","lat":25.0442438,"lng":121.50339410000001,"geocode_src":"osm:road"},{"serial_no":"RPSNMLNLLHLGFAA67CC","county_code":"a","district":"中正區","address":"臺北市中正區廈門街１１３巷１９號四樓","road":"中正區廈門街","building_type":"公寓(5樓含以下無電梯)","total_floors":4.0,"transfer_floor_num":4.0,"age_years":54.8,"rooms":3.0,"halls":2.0,"baths":2.0,"building_area_sqm":110.28,"total_price":25000,"unit_price_per_ping":750.4131950000001,"deal_date":"2026-03-19","is_special_deal":false,"note":null,"lat":25.0234388,"lng":121.5197188,"geocode_src":"nominatim"},{"serial_no":"RPTPMLLMLHLGFCA08CC","county_code":"a","district":"中山區","address":"臺北市中山區民權西路１１號６樓之１","road":"中山區民權西路","building_type":"辦公商業大樓","total_floors":14.0,"transfer_floor_num":6.0,"age_years":34.3,"rooms":2.0,"halls":1.0,"baths":0.0,"building_area_sqm":174.24,"total_price":75000,"unit_price_per_ping":1421.48755,"deal_date":"2026-03-19","is_special_deal":false,"note":null,"lat":25.0629432,"lng":121.5219004,"geocode_src":"osm:exact"},{"serial_no":"RPQNMLOLLHLGFFA08CC","county_code":"a","district":"大安區","address":"臺北市大安區金山南路二段１６９號３樓","road":"大安區金山南路二段","building_type":"華廈(10層含以下有電梯)","total_floors":6.0,"transfer_floor_num":3.0,"age_years":26.0,"rooms":2.0,"halls":1.0,"baths":1.0,"building_area_sqm":77.94,"total_price":26000,"unit_price_per_ping":1104.13219,"deal_date":"2026-03-19","is_special_deal":false,"note":"續租案件；","lat":25.028799000000003,"lng":121.5264881,"geocode_src":"osm:exact"},{"serial_no":"RPPNMLLLLHLGFAA17CC","county_code":"a","district":"文山區","address":"臺北市文山區福興路９５巷３３號九樓","road":"文山區福興路","building_type":"華廈(10層含以下有電梯)","total_floors":10.0,"transfer_floor_num":9.0,"age_years":25.7,"rooms":3.0,"halls":2.0,"baths":2.0,"building_area_sqm":87.9,"total_price":25000,"unit_price_per_ping":938.8429400000001,"deal_date":"2026-03-19","is_special_deal":false,"note":null,"lat":25.0053783,"lng":121.54779429999999,"geocode_src":"nominatim"},{"serial_no":"RPPNMLPLLHLGFCA77CC","county_code":"a","district":"中山區","address":"臺北市中山區長安東路一段５１-５號","road":"中山區長安東路一段","building_type":"透天厝","total_floors":4.0,"transfer_floor_num":null,"age_years":null,"rooms":5.0,"halls":2.0,"baths":3.0,"building_area_sqm":23.4,"total_price":20000,"unit_price_per_ping":2826.446175,"deal_date":"2026-03-19","is_special_deal":false,"note":"租金總額含水費；網路費；其他第四台；","lat":25.0488339,"lng":121.5263242,"geocode_src":"osm:exact"},{"serial_no":"RPUOMLLJMHLGFDA97CC","county_code":"a","district":"南港區","address":"臺北市南港區三重路４１巷３７號５樓","road":"南港區三重路","building_type":"住宅大樓(11層含以上有電梯)","total_floors":13.0,"transfer_floor_num":5.0,"age_years":14.2,"rooms":4.0,"halls":2.0,"baths":2.0,"building_area_sqm":301.43,"total_price":78000,"unit_price_per_ping":856.1983150000001,"deal_date":"2026-03-19","is_special_deal":false,"note":null,"lat":25.0607209,"lng":121.61283840000002,"geocode_src":"osm:exact"},{"serial_no":"RPTOMLPLLHLGFEA48CC","county_code":"a","district":"士林區","address":"臺北市士林區葫蘆街１３５巷１５弄３號４樓","road":"士林區葫蘆街","building_type":"公寓(5樓含以下無電梯)","total_floors":5.0,"transfer_floor_num":4.0,"age_years":46.2,"rooms":3.0,"halls":1.0,"baths":1.0,"building_area_sqm":99.48,"total_price":25000,"unit_price_per_ping":829.7520350000001,"deal_date":"2026-03-19","is_special_deal":false,"note":null,"lat":25.0848402,"lng":121.5077442,"geocode_src":"osm:exact"},{"serial_no":"RPTOMLPLLHLGFFA58CC","county_code":"a","district":"大安區","address":"臺北市大安區嘉興街３３９號３樓","road":"大安區嘉興街","building_type":"公寓(5樓含以下無電梯)","total_floors":5.0,"transfer_floor_num":3.0,"age_years":40.0,"rooms":2.0,"halls":2.0,"baths":2.0,"building_area_sqm":103.69999999999999,"total_price":32000,"unit_price_per_ping":1021.487565,"deal_date":"2026-03-19","is_special_deal":false,"note":null,"lat":25.0222794,"lng":121.5527239,"geocode_src":"osm:exact"},{"serial_no":"RPROMLLJMHLGFDA67CC","county_code":"a","district":"信義區","address":"臺北市信義區永吉路３０巷１０１弄２９號６樓","road":"信義區永吉路","building_type":"住宅大樓(11層含以上有電梯)","total_floors":11.0,"transfer_floor_num":6.0,"age_years":12.9,"rooms":3.0,"halls":2.0,"baths":2.0,"building_area_sqm":186.44,"total_price":150000,"unit_price_per_ping":2661.1569250000002,"deal_date":"2026-03-19","is_special_deal":false,"note":null,"lat":25.0436943,"lng":121.569912,"geocode_src":"nominatim"},{"serial_no":"RPWOMLOKMHLGFDA58CC","county_code":"a","district":"信義區","address":"臺北市信義區基隆路二段３９巷３-２號４樓","road":"信義區基隆路二段","building_type":"公寓(5樓含以下無電梯)","total_floors":5.0,"transfer_floor_num":4.0,"age_years":39.3,"rooms":4.0,"halls":1.0,"baths":2.0,"building_area_sqm":13.22,"total_price":13800,"unit_price_per_ping":3451.23954,"deal_date":"2026-03-19","is_special_deal":false,"note":"租金總額含網路費；續租案件；","lat":25.0311521,"lng":121.5591715,"geocode_src":"osm:exact"},{"serial_no":"RPQOMLOLLHLGFDA97CC","county_code":"a","district":"松山區","address":"臺北市松山區南京東路五段２９１巷２０弄３之２號４樓","road":"松山區南京東路五段","building_type":"公寓(5樓含以下無電梯)","total_floors":4.0,"transfer_floor_num":4.0,"age_years":52.8,"rooms":3.0,"halls":2.0,"baths":1.0,"building_area_sqm":86.48,"total_price":26000,"unit_price_per_ping":995.041285,"deal_date":"2026-03-19","is_special_deal":false,"note":null,"lat":25.0524787,"lng":121.5658685,"geocode_src":"osm:exact"},{"serial_no":"RPRNMLKLLHLGFDA57CC","county_code":"a","district":"松山區","address":"臺北市松山區敦化北路１００號","road":"松山區敦化北路","building_type":"住宅大樓(11層含以上有電梯)","total_floors":15.0,"transfer_floor_num":12.0,"age_years":42.5,"rooms":300.0,"halls":10.0,"baths":300.0,"building_area_sqm":30.57,"total_price":20500,"unit_price_per_ping":2218.181735,"deal_date":"2026-03-18","is_special_deal":false,"note":"租金總額含電費；租賃建物部分範圍，且未計入共有部分面積；續租案件；","lat":25.05277564117647,"lng":121.54856104117647,"geocode_src":"nominatim"},{"serial_no":"RPPNMLKLLHLGFAA07CC","county_code":"a","district":"中正區","address":"臺北市中正區南昌路一段５３號四樓之２","road":"中正區南昌路一段","building_type":"住宅大樓(11層含以上有電梯)","total_floors":12.0,"transfer_floor_num":4.0,"age_years":24.0,"rooms":2.0,"halls":2.0,"baths":1.0,"building_area_sqm":66.65,"total_price":33000,"unit_price_per_ping":1636.363575,"deal_date":"2026-03-18","is_special_deal":false,"note":"國家住宅及都市更新中心社會住宅包租代管計畫之物件。","lat":25.0312841,"lng":121.51728,"geocode_src":"osm:exact"},{"serial_no":"RPSNMLLMLHLGFFA08CC","county_code":"a","district":"大安區","address":"臺北市大安區光復南路６３２號１１樓","road":"大安區光復南路","building_type":"住宅大樓(11層含以上有電梯)","total_floors":14.0,"transfer_floor_num":11.0,"age_years":17.7,"rooms":2.0,"halls":1.0,"baths":1.0,"building_area_sqm":80.43,"total_price":45000,"unit_price_per_ping":1847.933815,"deal_date":"2026-03-18","is_special_deal":false,"note":"租金總額含管理費；續租案件；","lat":25.031549199999997,"lng":121.5572456,"geocode_src":"nominatim"},{"serial_no":"RPOPMLKLLHLGFCA37CC","county_code":"a","district":"中山區","address":"臺北市中山區民生西路４５巷５弄２０號４樓","road":"中山區民生西路","building_type":"公寓(5樓含以下無電梯)","total_floors":4.0,"transfer_floor_num":4.0,"age_years":55.5,"rooms":2.0,"halls":1.0,"baths":1.0,"building_area_sqm":64.98,"total_price":26000,"unit_price_per_ping":1322.314,"deal_date":"2026-03-18","is_special_deal":false,"note":"續租案件；","lat":25.0582859,"lng":121.521469,"geocode_src":"osm:exact"},{"serial_no":"RPXNMLNLLHLGFDA48CC","county_code":"a","district":"信義區","address":"臺北市信義區基隆路一段３５０號３樓之３４","road":"信義區基隆路一段","building_type":"公寓(5樓含以下無電梯)","total_floors":6.0,"transfer_floor_num":3.0,"age_years":52.3,"rooms":2.0,"halls":2.0,"baths":1.0,"building_area_sqm":57.2,"total_price":18000,"unit_price_per_ping":1041.322275,"deal_date":"2026-03-18","is_special_deal":false,"note":"續租案件；","lat":25.037023800000004,"lng":121.56171620000002,"geocode_src":"osm:exact"},{"serial_no":"RPQQMLPLLHLGFBA08CC","county_code":"a","district":"萬華區","address":"臺北市萬華區開封街二段１２號５樓","road":"萬華區開封街二段","building_type":"住宅大樓(11層含以上有電梯)","total_floors":14.0,"transfer_floor_num":5.0,"age_years":18.1,"rooms":2.0,"halls":1.0,"baths":1.0,"building_area_sqm":70.52,"total_price":30000,"unit_price_per_ping":1404.958625,"deal_date":"2026-03-18","is_special_deal":false,"note":null,"lat":25.04603389791667,"lng":121.50868001250001,"geocode_src":"osm:exact"},{"serial_no":"RPQQMLKLLHLGFDA77CC","county_code":"a","district":"信義區","address":"臺北市信義區富陽街２４號５樓","road":"信義區富陽街","building_type":"華廈(10層含以下有電梯)","total_floors":7.0,"transfer_floor_num":5.0,"age_years":42.9,"rooms":3.0,"halls":2.0,"baths":2.0,"building_area_sqm":104.74000000000001,"total_price":35000,"unit_price_per_ping":1104.13219,"deal_date":"2026-03-18","is_special_deal":false,"note":"續租案件；","lat":25.023130799999997,"lng":121.5561702,"geocode_src":"osm:exact"},{"serial_no":"RPSPMLPLLHLGFBA18CC","county_code":"a","district":"萬華區","address":"臺北市萬華區漢中街３５號６樓之９","road":"萬華區漢中街","building_type":"華廈(10層含以下有電梯)","total_floors":9.0,"transfer_floor_num":6.0,"age_years":44.7,"rooms":1.0,"halls":1.0,"baths":1.0,"building_area_sqm":39.34,"total_price":16500,"unit_price_per_ping":1385.1239150000001,"deal_date":"2026-03-18","is_special_deal":false,"note":"續租案件；","lat":25.0449938,"lng":121.50773,"geocode_src":"osm:exact"},{"serial_no":"RPQNMLKMLHLGFBA37CC","county_code":"a","district":"大同區","address":"臺北市大同區保安街７８巷４號２樓","road":"大同區保安街","building_type":"透天厝","total_floors":2.0,"transfer_floor_num":null,"age_years":null,"rooms":5.0,"halls":0.0,"baths":5.0,"building_area_sqm":11.19,"total_price":13000,"unit_price_per_ping":3841.3221700000004,"deal_date":"2026-03-18","is_special_deal":false,"note":"租金總額含瓦斯費；","lat":25.0587513,"lng":121.511977,"geocode_src":"osm:exact"},{"serial_no":"RPXNMLOKMHLGFAA28CC","county_code":"a","district":"文山區","address":"臺北市文山區興隆路四段６２巷８號１樓","road":"文山區興隆路四段","building_type":"公寓(5樓含以下無電梯)","total_floors":5.0,"transfer_floor_num":1.0,"age_years":45.9,"rooms":3.0,"halls":2.0,"baths":2.0,"building_area_sqm":80.57,"total_price":15000,"unit_price_per_ping":614.8760100000001,"deal_date":"2026-03-18","is_special_deal":false,"note":null,"lat":24.9852117,"lng":121.56104339999999,"geocode_src":"osm:exact"},{"serial_no":"RPWNMLSKLHLGFCA68CC","county_code":"a","district":"中山區","address":"臺北市中山區雙城街１３巷９號３樓之５","road":"中山區雙城街","building_type":"住宅大樓(11層含以上有電梯)","total_floors":15.0,"transfer_floor_num":3.0,"age_years":14.0,"rooms":2.0,"halls":2.0,"baths":2.0,"building_area_sqm":175.23000000000002,"total_price":75000,"unit_price_per_ping":1414.87598,"deal_date":"2026-03-18","is_special_deal":false,"note":null,"lat":25.064172,"lng":121.524856,"geocode_src":"nominatim"},{"serial_no":"RPQOMLNKMHLGFBA67CC","county_code":"a","district":"萬華區","address":"臺北市萬華區西園路一段４１之２號","road":"萬華區西園路一段","building_type":"透天厝","total_floors":3.0,"transfer_floor_num":null,"age_years":null,"rooms":6.0,"halls":3.0,"baths":4.0,"building_area_sqm":55.2,"total_price":30000,"unit_price_per_ping":1795.041255,"deal_date":"2026-03-18","is_special_deal":false,"note":null,"lat":25.0405276,"lng":121.4999914,"geocode_src":"osm:exact"},{"serial_no":"RPWNMLKMLHLGFFA38CC","county_code":"a","district":"大安區","address":"臺北市大安區忠孝東路四段１６９號七樓之１","road":"大安區忠孝東路四段","building_type":"辦公商業大樓","total_floors":12.0,"transfer_floor_num":7.0,"age_years":42.3,"rooms":4.0,"halls":3.0,"baths":0.0,"building_area_sqm":323.09000000000003,"total_price":200000,"unit_price_per_ping":2046.280915,"deal_date":"2026-03-18","is_special_deal":false,"note":"民國115年4月1日起至民國115年4月30日止為免租金裝潢期租金總額含稅；含有多個門牌且未個別計算租金忠孝東路四段１６９號七樓之１  忠孝東路四段１６９號七樓之３；含增建或未登記建物；","lat":25.041678534042553,"lng":121.55043249574469,"geocode_src":"osm:exact"},{"serial_no":"RPOOMLPLLHLGFDA87CC","county_code":"a","district":"松山區","address":"臺北市松山區八德路四段７９７號四樓之３","road":"松山區八德路四段","building_type":"華廈(10層含以下有電梯)","total_floors":10.0,"transfer_floor_num":4.0,"age_years":26.3,"rooms":1.0,"halls":1.0,"baths":1.0,"building_area_sqm":44.01,"total_price":28000,"unit_price_per_ping":2102.47926,"deal_date":"2026-03-18","is_special_deal":false,"note":null,"lat":25.051294000000002,"lng":121.5786351,"geocode_src":"osm:exact"},{"serial_no":"RPWNMLPLLHLGFDA58CC","county_code":"a","district":"松山區","address":"臺北市松山區民權東路三段１８９號５樓","road":"松山區民權東路三段","building_type":"華廈(10層含以下有電梯)","total_floors":10.0,"transfer_floor_num":5.0,"age_years":30.1,"rooms":1.0,"halls":1.0,"baths":1.0,"building_area_sqm":76.17,"total_price":27000,"unit_price_per_ping":1170.24789,"deal_date":"2026-03-18","is_special_deal":false,"note":null,"lat":25.0621355,"lng":121.5486259,"geocode_src":"osm:exact"},{"serial_no":"RPPNMLLMLHLGFDA57CC","county_code":"a","district":"信義區","address":"臺北市信義區松山路４６５巷２弄１６號５樓","road":"信義區松山路","building_type":"公寓(5樓含以下無電梯)","total_floors":5.0,"transfer_floor_num":5.0,"age_years":38.6,"rooms":6.0,"halls":2.0,"baths":3.0,"building_area_sqm":11.0,"total_price":12700,"unit_price_per_ping":3818.1816750000003,"deal_date":"2026-03-18","is_special_deal":false,"note":"租金總額含管理費；網路費；其他清潔費；租賃建物部分範圍，且未計入共有部分面積；","lat":25.0390287,"lng":121.5782964,"geocode_src":"nominatim"},{"serial_no":"RPVQMLKLLHLGFCA18CC","county_code":"a","district":"中山區","address":"臺北市中山區德惠街１６號七樓之３","road":"中山區德惠街","building_type":"華廈(10層含以下有電梯)","total_floors":10.0,"transfer_floor_num":7.0,"age_years":43.9,"rooms":1.0,"halls":0.0,"baths":1.0,"building_area_sqm":38.24,"total_price":20000,"unit_price_per_ping":1728.925555,"deal_date":"2026-03-18","is_special_deal":false,"note":null,"lat":25.06661924912281,"lng":121.5240487114035,"geocode_src":"nominatim"},{"serial_no":"RPQNMLQLLHLGFDA08CC","county_code":"a","district":"南港區","address":"臺北市南港區興華路７７號地下一樓之１","road":"南港區興華路","building_type":"辦公商業大樓","total_floors":14.0,"transfer_floor_num":-1.0,"age_years":20.2,"rooms":0.0,"halls":0.0,"baths":0.0,"building_area_sqm":254.09,"total_price":160000,"unit_price_per_ping":2082.64455,"deal_date":"2026-03-18","is_special_deal":false,"note":"租金總額含稅；管理費；其他電梯保養；租賃期間有約定不同租金1150515-1200514 月租160000元整1200515-1250228 月租168000元整；外牆作為廣告使用；","lat":25.0552263,"lng":121.6061338,"geocode_src":"osm:exact"},{"serial_no":"RPRNMLSJMHLGFCA18CC","county_code":"a","district":"中山區","address":"臺北市中山區松江路３０５號４樓","road":"中山區松江路","building_type":"公寓(5樓含以下無電梯)","total_floors":4.0,"transfer_floor_num":4.0,"age_years":52.0,"rooms":4.0,"halls":0.0,"baths":4.0,"building_area_sqm":23.94,"total_price":13000,"unit_price_per_ping":1795.041255,"deal_date":"2026-03-18","is_special_deal":false,"note":"承租 D房租金總額含水費；網路費；其他MOD；","lat":25.0613428,"lng":121.5334132,"geocode_src":"nominatim"},{"serial_no":"RPRNMLLKMHLGFAA37CC","county_code":"a","district":"文山區","address":"臺北市文山區木柵路三段８５巷１４弄１４之１號七樓","road":"文山區木柵路三段","building_type":"華廈(10層含以下有電梯)","total_floors":7.0,"transfer_floor_num":7.0,"age_years":48.3,"rooms":3.0,"halls":2.0,"baths":2.0,"building_area_sqm":111.15,"total_price":20000,"unit_price_per_ping":595.0413,"deal_date":"2026-03-18","is_special_deal":false,"note":"續租案件；","lat":24.9897535,"lng":121.5670564,"geocode_src":"osm:exact"},{"serial_no":"RPTNMLKLLHLGFBA57CC","county_code":"a","district":"萬華區","address":"臺北市萬華區東園街７３巷７６弄１２號","road":"萬華區東園街","building_type":"公寓(5樓含以下無電梯)","total_floors":2.0,"transfer_floor_num":1.0,"age_years":null,"rooms":2.0,"halls":1.0,"baths":1.0,"building_area_sqm":52.55,"total_price":16500,"unit_price_per_ping":1038.01649,"deal_date":"2026-03-18","is_special_deal":false,"note":null,"lat":25.0260474,"lng":121.4985306,"geocode_src":"nominatim"},{"serial_no":"RPUNMLLKMHLGFDA97CC","county_code":"a","district":"信義區","address":"臺北市信義區松山路１２３號三樓","road":"信義區松山路","building_type":"公寓(5樓含以下無電梯)","total_floors":4.0,"transfer_floor_num":3.0,"age_years":51.0,"rooms":3.0,"halls":2.0,"baths":2.0,"building_area_sqm":106.02,"total_price":28000,"unit_price_per_ping":872.72724,"deal_date":"2026-03-18","is_special_deal":false,"note":null,"lat":25.0473056,"lng":121.5779528,"geocode_src":"nominatim"},{"serial_no":"RPQOMLKLLHLGFBA37CC","county_code":"a","district":"萬華區","address":"臺北市萬華區環河南路２段７５號４樓","road":"萬華區環河南路","building_type":"公寓(5樓含以下無電梯)","total_floors":5.0,"transfer_floor_num":4.0,"age_years":44.9,"rooms":2.0,"halls":1.0,"baths":1.0,"building_area_sqm":60.81,"total_price":22000,"unit_price_per_ping":1196.69417,"deal_date":"2026-03-18","is_special_deal":false,"note":null,"lat":25.0374803,"lng":121.4964164,"geocode_src":"osm:exact"},{"serial_no":"RPXNMLLMLHLGFDA38CC","county_code":"a","district":"信義區","address":"臺北市信義區松勤街９號１２樓","road":"信義區松勤街","building_type":"住宅大樓(11層含以上有電梯)","total_floors":19.0,"transfer_floor_num":12.0,"age_years":18.2,"rooms":2.0,"halls":1.0,"baths":1.0,"building_area_sqm":64.5,"total_price":48000,"unit_price_per_ping":2459.5040400000003,"deal_date":"2026-03-18","is_special_deal":false,"note":"租金總額含管理費；續租案件；","lat":25.0321817,"lng":121.5610356,"geocode_src":"osm:exact"},{"serial_no":"RPVOMLKLLHLGFCA97CC","county_code":"a","district":"內湖區","address":"臺北市內湖區民權東路６段１５０之５號２樓之５","road":"內湖區民權東路","building_type":"住宅大樓(11層含以上有電梯)","total_floors":14.0,"transfer_floor_num":2.0,"age_years":17.2,"rooms":2.0,"halls":2.0,"baths":1.0,"building_area_sqm":81.97,"total_price":33000,"unit_price_per_ping":1332.2313550000001,"deal_date":"2026-03-18","is_special_deal":false,"note":"租金總額含網路費；","lat":25.0684359,"lng":121.590602,"geocode_src":"osm:exact"},{"serial_no":"RPROMLPLLHLGFEA28CC","county_code":"a","district":"北投區","address":"臺北市北投區中山北路七段２１９巷３弄２５１號４樓","road":"北投區中山北路七段","building_type":"華廈(10層含以下有電梯)","total_floors":5.0,"transfer_floor_num":null,"age_years":13.8,"rooms":5.0,"halls":2.0,"baths":6.0,"building_area_sqm":386.37,"total_price":224119,"unit_price_per_ping":1917.3553000000002,"deal_date":"2026-03-18","is_special_deal":false,"note":"此租金已扣除稅25500元、健保5381元續租案件；","lat":25.1313244,"lng":121.530454,"geocode_src":"osm:exact"},{"serial_no":"RPWNMLKMLHLGFAA87CC","county_code":"a","district":"文山區","address":"臺北市文山區下崙路１１巷５號五樓","road":"文山區下崙路","building_type":"公寓(5樓含以下無電梯)","total_floors":5.0,"transfer_floor_num":5.0,"age_years":43.4,"rooms":3.0,"halls":2.0,"baths":1.0,"building_area_sqm":87.7,"total_price":22000,"unit_price_per_ping":829.7520350000001,"deal_date":"2026-03-18","is_special_deal":false,"note":"續租案件；","lat":24.9862592,"lng":121.56037190000002,"geocode_src":"osm:exact"},{"serial_no":"RPPPMLKKMHLGFBA37CC","county_code":"a","district":"大同區","address":"臺北市大同區民族西路３３８號五樓之７","road":"大同區民族西路","building_type":"住宅大樓(11層含以上有電梯)","total_floors":15.0,"transfer_floor_num":5.0,"age_years":3.6,"rooms":3.0,"halls":1.0,"baths":1.0,"building_area_sqm":93.59,"total_price":47000,"unit_price_per_ping":1659.5040700000002,"deal_date":"2026-03-18","is_special_deal":false,"note":null,"lat":25.068574699999996,"lng":121.5093413,"geocode_src":"nominatim"},{"serial_no":"RPWNMLKLLHLGFDA08CC","county_code":"a","district":"松山區","address":"臺北市松山區敦化北路１００號","road":"松山區敦化北路","building_type":"住宅大樓(11層含以上有電梯)","total_floors":15.0,"transfer_floor_num":5.0,"age_years":42.5,"rooms":300.0,"halls":10.0,"baths":300.0,"building_area_sqm":30.73,"total_price":20500,"unit_price_per_ping":2204.958595,"deal_date":"2026-03-18","is_special_deal":false,"note":"租金總額含電費；租賃建物部分範圍，且未計入共有部分面積；續租案件；","lat":25.05277564117647,"lng":121.54856104117647,"geocode_src":"nominatim"},{"serial_no":"RPQNMLKKMHLGFBA27CC","county_code":"a","district":"大同區","address":"臺北市大同區重慶北路二段７號","road":"大同區重慶北路二段","building_type":"公寓(5樓含以下無電梯)","total_floors":4.0,"transfer_floor_num":4.0,"age_years":67.2,"rooms":8.0,"halls":1.0,"baths":7.0,"building_area_sqm":20.12,"total_price":14000,"unit_price_per_ping":2300.82636,"deal_date":"2026-03-18","is_special_deal":false,"note":"本案為位於四樓之分租套房405室，租金包含水費，包租業者另免費附贈網路、第四台供租客使用。租金總額含水費；租賃建物部分範圍，且未計入共有部分面積；續租案件；","lat":25.0544347,"lng":121.5145252,"geocode_src":"osm:exact"},{"serial_no":"RPOPMLKKMHLGFBA27CC","county_code":"a","district":"大同區","address":"臺北市大同區民族西路３３８號五樓之７","road":"大同區民族西路","building_type":"住宅大樓(11層含以上有電梯)","total_floors":15.0,"transfer_floor_num":5.0,"age_years":3.6,"rooms":3.0,"halls":1.0,"baths":1.0,"building_area_sqm":93.59,"total_price":47000,"unit_price_per_ping":1659.5040700000002,"deal_date":"2026-03-18","is_special_deal":false,"note":null,"lat":25.068574699999996,"lng":121.5093413,"geocode_src":"nominatim"},{"serial_no":"RPXOMLNKMHLGFBA38CC","county_code":"a","district":"萬華區","address":"臺北市萬華區和平西路三段３３４號４樓","road":"萬華區和平西路三段","building_type":"公寓(5樓含以下無電梯)","total_floors":5.0,"transfer_floor_num":4.0,"age_years":46.5,"rooms":3.0,"halls":2.0,"baths":1.0,"building_area_sqm":104.32,"total_price":15000,"unit_price_per_ping":476.03304,"deal_date":"2026-03-18","is_special_deal":false,"note":"續租案件；","lat":25.0352877,"lng":121.49236290000002,"geocode_src":"osm:exact"},