[{"serial_no":"RPROMLSJMHLGFEF88DA","county_code":"f","district":"淡水區","address":"新北市淡水區北新路１８２巷５弄２號二樓","road":"淡水區北新路","building_type":"公寓(5樓含以下無電梯)","total_floors":5.0,"transfer_floor_num":2.0,"age_years":37.1,"rooms":1.0,"halls":0.0,"baths":1.0,"building_area_sqm":33.2,"total_price":2880000,"unit_price_per_ping":286766.931395,"deal_date":"2026-04-08","is_special_deal":false,"note":"陽台外推；","lat":25.1775812,"lng":121.44989280000001,"geocode_src":"osm:exact"},{"serial_no":"RPPOMLKKMHLGFHF38EA","county_code":"f","district":"永和區","address":"新北市永和區永平路１６３號五樓","road":"永和區永平路","building_type":"公寓(5樓含以下無電梯)","total_floors":5.0,"transfer_floor_num":5.0,"age_years":44.3,"rooms":3.0,"halls":2.0,"baths":1.0,"building_area_sqm":45.82,"total_price":4000000,"unit_price_per_ping":288588.41893000004,"deal_date":"2026-04-07","is_special_deal":true,"note":"親友、員工、共有人或其他特殊關係間之交易；","lat":25.0087912,"lng":121.510752,"geocode_src":"osm:exact"},{"serial_no":"RPVNMLKKMHLGFEF58EA","county_code":"f","district":"淡水區","address":"新北市淡水區學府路１０２巷５１弄５號十樓","road":"淡水區學府路","building_type":"住宅大樓(11層含以上有電梯)","total_floors":17.0,"transfer_floor_num":10.0,"age_years":30.7,"rooms":2.0,"halls":1.0,"baths":1.0,"building_area_sqm":65.83,"total_price":5500000,"unit_price_per_ping":276195.03096500004,"deal_date":"2026-04-07","is_special_deal":false,"note":null,"lat":25.172161,"lng":121.4530728,"geocode_src":"osm:exact"},{"serial_no":"RPRNMLQKMHLGFEF68DA","county_code":"f","district":"淡水區","address":"新北市淡水區民權路２２１號十八樓","road":"淡水區民權路","building_type":"住宅大樓(11層含以上有電梯)","total_floors":29.0,"transfer_floor_num":18.0,"age_years":18.5,"rooms":2.0,"halls":2.0,"baths":1.0,"building_area_sqm":104.37,"total_price":16500000,"unit_price_per_ping":545246.2605450001,"deal_date":"2026-04-03","is_special_deal":false,"note":"陽台外推；","lat":25.132293404268296,"lng":121.45973792073171,"geocode_src":"osm:exact"},{"serial_no":"RPTNMLNKMHLGFDF48DA","county_code":"f","district":"萬里區","address":"新北市萬里區翡翠路１８號","road":"萬里區翡翠路","building_type":"住宅大樓(11層含以上有電梯)","total_floors":18.0,"transfer_floor_num":10.0,"age_years":29.1,"rooms":1.0,"halls":1.0,"baths":1.0,"building_area_sqm":43.379999999999995,"total_price":1600000,"unit_price_per_ping":121927.26815500001,"deal_date":"2026-04-02","is_special_deal":false,"note":null,"lat":25.1885015,"lng":121.6839302,"geocode_src":"osm:exact"},{"serial_no":"RPVNMLQKMHLGFAF68DA","county_code":"f","district":"板橋區","address":"新北市板橋區大觀路二段３巷９０號四樓","road":"板橋區大觀路二段","building_type":"公寓(5樓含以下無電梯)","total_floors":4.0,"transfer_floor_num":4.0,"age_years":48.9,"rooms":2.0,"halls":1.0,"baths":0.0,"building_area_sqm":56.39,"total_price":5500000,"unit_price_per_ping":322429.73997500003,"deal_date":"2026-04-02","is_special_deal":false,"note":null,"lat":25.0032075,"lng":121.450135375,"geocode_src":"osm:exact"},{"serial_no":"RPUNMLMJMHLGFGF68DA","county_code":"f","district":"蘆洲區","address":"新北市蘆洲區永安南路二段３２８巷１２號十二樓","road":"蘆洲區永安南路二段","building_type":"住宅大樓(11層含以上有電梯)","total_floors":12.0,"transfer_floor_num":12.0,"age_years":0.8,"rooms":3.0,"halls":1.0,"baths":2.0,"building_area_sqm":157.86,"total_price":33800000,"unit_price_per_ping":792247.904175,"deal_date":"2026-04-01","is_special_deal":false,"note":"本案社區名稱：「河悅花園」","lat":25.0837408,"lng":121.45625079999999,"geocode_src":"osm:lane"},{"serial_no":"RPPNMLLJMHLGFCF77EA","county_code":"f","district":"新店區","address":"新北市新店區松林路６號六樓之二十","road":"新店區松林路","building_type":"華廈(10層含以下有電梯)","total_floors":9.0,"transfer_floor_num":null,"age_years":38.5,"rooms":1.0,"halls":1.0,"baths":1.0,"building_area_sqm":71.47,"total_price":3500000,"unit_price_per_ping":161890.90302,"deal_date":"2026-04-01","is_special_deal":true,"note":"親友、員工、共有人或其他特殊關係間之交易；","lat":24.9114801,"lng":121.5462909,"geocode_src":"osm:exact"},{"serial_no":"RPVNMLNKMHLGFHF56EA","county_code":"f","district":"永和區","address":"新北市永和區環河西路一段１１１號四樓","road":"永和區環河西路一段","building_type":"公寓(5樓含以下無電梯)","total_floors":5.0,"transfer_floor_num":4.0,"age_years":54.6,"rooms":3.0,"halls":2.0,"baths":1.0,"building_area_sqm":97.65,"total_price":12000000,"unit_price_per_ping":406241.30708,"deal_date":"2026-03-31","is_special_deal":false,"note":null,"lat":25.0173073,"lng":121.51101659999999,"geocode_src":"osm:exact"},{"serial_no":"RPVPMLOKMHLGFGF66DA","county_code":"f","district":"三重區","address":"新北市三重區重新路三段８１號七樓之一","road":"三重區重新路三段","building_type":"住宅大樓(11層含以上有電梯)","total_floors":12.0,"transfer_floor_num":7.0,"age_years":30.8,"rooms":2.0,"halls":2.0,"baths":1.0,"building_area_sqm":28.07,"total_price":2500000,"unit_price_per_ping":294423.12945500005,"deal_date":"2026-03-31","is_special_deal":true,"note":"親友、員工、共有人或其他特殊關係間之交易；","lat":25.0602883,"lng":121.49183729999999,"geocode_src":"osm:exact"},{"serial_no":"RPUNMLQKMHLGFEF09EA","county_code":"f","district":"淡水區","address":"新北市淡水區新市二路二段４２號七樓","road":"淡水區新市二路二段","building_type":"住宅大樓(11層含以上有電梯)","total_floors":15.0,"transfer_floor_num":7.0,"age_years":8.1,"rooms":2.0,"halls":2.0,"baths":2.0,"building_area_sqm":88.85,"total_price":5274056,"unit_price_per_ping":196251.23231000002,"deal_date":"2026-03-31","is_special_deal":true,"note":"親友、員工、共有人或其他特殊關係間之交易；","lat":25.1949979,"lng":121.4267578,"geocode_src":"osm:exact"},{"serial_no":"RPQOMLTJMHLGFHF66EA","county_code":"f","district":"中和區","address":"新北市中和區信義街１００號","road":"中和區信義街","building_type":"公寓(5樓含以下無電梯)","total_floors":5.0,"transfer_floor_num":null,"age_years":45.6,"rooms":0.0,"halls":0.0,"baths":0.0,"building_area_sqm":22.35,"total_price":4460000,"unit_price_per_ping":659679.314105,"deal_date":"2026-03-30","is_special_deal":true,"note":"親友、員工、共有人或其他特殊關係間之交易；","lat":24.987271,"lng":121.5118318,"geocode_src":"osm:exact"},{"serial_no":"RPUQMLQKMHLGFEF76EA","county_code":"f","district":"八里區","address":"新北市八里區中華路二段４６６之１號三樓","road":"八里區中華路二段","building_type":"住宅大樓(11層含以上有電梯)","total_floors":14.0,"transfer_floor_num":3.0,"age_years":27.5,"rooms":3.0,"halls":2.0,"baths":2.0,"building_area_sqm":92.18,"total_price":7500000,"unit_price_per_ping":268968.584955,"deal_date":"2026-03-30","is_special_deal":false,"note":null,"lat":25.1463553,"lng":121.40106699999998,"geocode_src":"osm:exact"},{"serial_no":"RPUNMLLJMHLGFCF18DA","county_code":"f","district":"坪林區","address":"新北市坪林區上坑子口１１號","road":null,"building_type":"透天厝","total_floors":1.0,"transfer_floor_num":null,"age_years":null,"rooms":0.0,"halls":0.0,"baths":0.0,"building_area_sqm":22.71,"total_price":250000,"unit_price_per_ping":36390.08128,"deal_date":"2026-03-30","is_special_deal":true,"note":"土地增值稅由買方負擔不包含於總價內土地增值稅為0元親友、員工、共有人或其他特殊關係間之交易；","lat":24.964306,"lng":121.7019052,"geocode_src":"osm:exact"},{"serial_no":"RPPPMLOKMHLGFGF68DA","county_code":"f","district":"三重區","address":"新北市三重區水漾路一段７１號六樓","road":"三重區水漾路一段","building_type":"住宅大樓(11層含以上有電梯)","total_floors":15.0,"transfer_floor_num":6.0,"age_years":1.1,"rooms":3.0,"halls":2.0,"baths":1.0,"building_area_sqm":102.43,"total_price":19700000,"unit_price_per_ping":745209.8894100001,"deal_date":"2026-03-29","is_special_deal":false,"note":"車位編號為26號","lat":25.0523859,"lng":121.4844145,"geocode_src":"osm:road"},{"serial_no":"RPXNMLKKMHLGFDF58DA","county_code":"f","district":"汐止區","address":"新北市汐止區福德二路６９號十四樓","road":"汐止區福德二路","building_type":"住宅大樓(11層含以上有電梯)","total_floors":15.0,"transfer_floor_num":14.0,"age_years":17.2,"rooms":2.0,"halls":2.0,"baths":2.0,"building_area_sqm":141.52,"total_price":22500000,"unit_price_per_ping":616092.53888,"deal_date":"2026-03-29","is_special_deal":false,"note":"陽台外推；","lat":25.066314446666663,"lng":121.63420910666667,"geocode_src":"osm:exact"},{"serial_no":"RPUNMLQKMHLGFAF68EA","county_code":"f","district":"土城區","address":"新北市土城區中央路四段５４巷７號七樓","road":"土城區中央路四段","building_type":"住宅大樓(11層含以上有電梯)","total_floors":18.0,"transfer_floor_num":7.0,"age_years":26.8,"rooms":3.0,"halls":2.0,"baths":2.0,"building_area_sqm":195.07,"total_price":26500000,"unit_price_per_ping":537223.12035,"deal_date":"2026-03-29","is_special_deal":false,"note":"其他增建；","lat":24.9605284,"lng":121.41969690000002,"geocode_src":"osm:exact"},{"serial_no":"RPPNMLKKMHLGFAF57EA","county_code":"f","district":"板橋區","address":"新北市板橋區華江一路５７２號八樓","road":"板橋區華江一路","building_type":"住宅大樓(11層含以上有電梯)","total_floors":19.0,"transfer_floor_num":8.0,"age_years":4.9,"rooms":1.0,"halls":1.0,"baths":1.0,"building_area_sqm":83.24,"total_price":15000000,"unit_price_per_ping":786647.904385,"deal_date":"2026-03-29","is_special_deal":false,"note":null,"lat":25.0331703,"lng":121.4660371,"geocode_src":"osm:exact"},{"serial_no":"RPWOMLPKMHLGFHF86DA","county_code":"f","district":"中和區","address":"新北市中和區員山路１４８巷４５號","road":"中和區員山路","building_type":"華廈(10層含以下有電梯)","total_floors":8.0,"transfer_floor_num":null,"age_years":29.0,"rooms":0.0,"halls":1.0,"baths":1.0,"building_area_sqm":156.72,"total_price":30010000,"unit_price_per_ping":633018.1580800001,"deal_date":"2026-03-29","is_special_deal":false,"note":"其他增建；","lat":24.9972359,"lng":121.4826619,"geocode_src":"osm:exact"},{"serial_no":"RPUNMLNKMHLGFEF68DA","county_code":"f","district":"淡水區","address":"新北市淡水區新市三路二段３４１號十八樓","road":"淡水區新市三路二段","building_type":"住宅大樓(11層含以上有電梯)","total_floors":29.0,"transfer_floor_num":18.0,"age_years":6.6,"rooms":1.0,"halls":1.0,"baths":1.0,"building_area_sqm":70.36,"total_price":6780000,"unit_price_per_ping":318552.05417,"deal_date":"2026-03-29","is_special_deal":false,"note":null,"lat":25.1961188,"lng":121.4386332,"geocode_src":"osm:exact"},{"serial_no":"RPPOMLTJMHLGFHF09DA","county_code":"f","district":"中和區","address":"新北市中和區枋寮街３號","road":"中和區枋寮街","building_type":"透天厝","total_floors":3.0,"transfer_floor_num":null,"age_years":79.5,"rooms":4.0,"halls":3.0,"baths":3.0,"building_area_sqm":67.2,"total_price":6500000,"unit_price_per_ping":319755.35991,"deal_date":"2026-03-28","is_special_deal":true,"note":"親友、員工、共有人或其他特殊關係間之交易；頂樓加蓋；","lat":25.0000686,"lng":121.5021205,"geocode_src":"osm:exact"},{"serial_no":"RPPPMLRJMHLGFEF78EA","county_code":"f","district":"淡水區","address":"新北市淡水區濱海路一段５７號十五樓","road":"淡水區濱海路一段","building_type":"住宅大樓(11層含以上有電梯)","total_floors":15.0,"transfer_floor_num":15.0,"age_years":13.8,"rooms":2.0,"halls":1.0,"baths":1.0,"building_area_sqm":117.44,"total_price":12880000,"unit_price_per_ping":362555.358305,"deal_date":"2026-03-28","is_special_deal":false,"note":"另附機車位一個B1- 70號","lat":25.1886538,"lng":121.4429353,"geocode_src":"osm:exact"},{"serial_no":"RPRNMLQKMHLGFBF38DA","county_code":"f","district":"新莊區","address":"新北市新莊區中港二街１２７號二樓","road":"新莊區中港二街","building_type":"公寓(5樓含以下無電梯)","total_floors":4.0,"transfer_floor_num":2.0,"age_years":51.4,"rooms":2.0,"halls":1.0,"baths":1.0,"building_area_sqm":57.32,"total_price":7700000,"unit_price_per_ping":444079.32219000004,"deal_date":"2026-03-28","is_special_deal":false,"note":null,"lat":25.0455898,"lng":121.4485892,"geocode_src":"osm:exact"},{"serial_no":"RPRNMLPKMHLGFHF98EA","county_code":"f","district":"中和區","address":"新北市中和區永和路９巷１０號三樓","road":"中和區永和路","building_type":"公寓(5樓含以下無電梯)","total_floors":5.0,"transfer_floor_num":3.0,"age_years":42.2,"rooms":3.0,"halls":2.0,"baths":2.0,"building_area_sqm":91.0,"total_price":10850000,"unit_price_per_ping":394152.051335,"deal_date":"2026-03-27","is_special_deal":true,"note":"受債權債務影響或債務抵償之交易。親友、員工或其他特殊關係間之交易。","lat":25.0039702,"lng":121.498695,"geocode_src":"osm:exact"},{"serial_no":"RPROMLLJMHLGFHF48DA","county_code":"f","district":"永和區","address":"新北市永和區永和路二段１６６號十七樓之七","road":"永和區永和路二段","building_type":"住宅大樓(11層含以上有電梯)","total_floors":19.0,"transfer_floor_num":17.0,"age_years":14.9,"rooms":0.0,"halls":0.0,"baths":0.0,"building_area_sqm":38.42,"total_price":10500000,"unit_price_per_ping":903454.511575,"deal_date":"2026-03-27","is_special_deal":false,"note":null,"lat":25.0128218,"lng":121.5154301,"geocode_src":"osm:exact"},{"serial_no":"RPRPMLQKMHLGFHF66EA","county_code":"f","district":"中和區","address":"新北市中和區莒光路９９號五樓","road":"中和區莒光路","building_type":"公寓(5樓含以下無電梯)","total_floors":5.0,"transfer_floor_num":5.0,"age_years":41.6,"rooms":4.0,"halls":1.0,"baths":2.0,"building_area_sqm":83.41,"total_price":9000000,"unit_price_per_ping":356697.507285,"deal_date":"2026-03-27","is_special_deal":false,"note":"頂樓加蓋；","lat":25.0029881,"lng":121.47245660000002,"geocode_src":"osm:exact"},{"serial_no":"RPPNMLKMLHLGFBF67DA","county_code":"f","district":"林口區","address":"新北市林口區文化二路一段５５７號九樓之一","road":"林口區文化二路一段","building_type":"住宅大樓(11層含以上有電梯)","total_floors":19.0,"transfer_floor_num":9.0,"age_years":18.4,"rooms":2.0,"halls":1.0,"baths":3.0,"building_area_sqm":47.2,"total_price":4880000,"unit_price_per_ping":341857.83842000004,"deal_date":"2026-03-27","is_special_deal":true,"note":"親友、員工、共有人或其他特殊關係間之交易；","lat":25.077549579411766,"lng":121.37430075882354,"geocode_src":"osm:exact"},{"serial_no":"RPTNMLKKMHLGFEF38EA","county_code":"f","district":"淡水區","address":"新北市淡水區新民街一段８９號十三樓","road":"淡水區新民街一段","building_type":"住宅大樓(11層含以上有電梯)","total_floors":17.0,"transfer_floor_num":13.0,"age_years":16.3,"rooms":4.0,"halls":2.0,"baths":2.0,"building_area_sqm":206.81,"total_price":18000000,"unit_price_per_ping":287722.30326,"deal_date":"2026-03-27","is_special_deal":false,"note":null,"lat":25.1847583,"lng":121.4310832,"geocode_src":"osm:exact"},{"serial_no":"RPXNMLQLLHLGFCF09DA","county_code":"f","district":"深坑區","address":"新北市深坑區北深路一段１１０巷５號","road":"深坑區北深路一段","building_type":"公寓(5樓含以下無電梯)","total_floors":4.0,"transfer_floor_num":1.0,"age_years":45.1,"rooms":0.0,"halls":0.0,"baths":0.0,"building_area_sqm":88.54,"total_price":8450000,"unit_price_per_ping":315494.20304500003,"deal_date":"2026-03-26","is_special_deal":false,"note":"其他增建；","lat":25.011654,"lng":121.6355055,"geocode_src":"osm:exact"},{"serial_no":"RPTNMLTJMHLGFHF86EA","county_code":"f","district":"中和區","address":"新北市中和區員山路９２巷５號","road":"中和區員山路","building_type":"公寓(5樓含以下無電梯)","total_floors":5.0,"transfer_floor_num":1.0,"age_years":42.8,"rooms":3.0,"halls":2.0,"baths":2.0,"building_area_sqm":87.85,"total_price":5000000,"unit_price_per_ping":188148.75327500002,"deal_date":"2026-03-26","is_special_deal":true,"note":"親友、員工、共有人或其他特殊關係間之交易；","lat":24.9945012,"lng":121.4812617,"geocode_src":"osm:exact"},{"serial_no":"RPPNMLKKMHLGFFF08EA","county_code":"f","district":"貢寮區","address":"新北市貢寮區保健街３１號五樓","road":"貢寮區保健街","building_type":"華廈(10層含以下有電梯)","total_floors":6.0,"transfer_floor_num":5.0,"age_years":29.2,"rooms":3.0,"halls":2.0,"baths":2.0,"building_area_sqm":113.77,"total_price":4000000,"unit_price_per_ping":116228.094815,"deal_date":"2026-03-25","is_special_deal":false,"note":null,"lat":25.0503705,"lng":121.9233766,"geocode_src":"osm:exact"},{"serial_no":"RPPNMLOKMHLGFAF97EA","county_code":"f","district":"板橋區","address":"新北市板橋區國泰街３９巷７弄１號三樓","road":"板橋區國泰街","building_type":"公寓(5樓含以下無電梯)","total_floors":5.0,"transfer_floor_num":3.0,"age_years":40.3,"rooms":3.0,"halls":2.0,"baths":2.0,"building_area_sqm":22.58,"total_price":2200000,"unit_price_per_ping":322085.938335,"deal_date":"2026-03-25","is_special_deal":true,"note":"親友、員工、共有人或其他特殊關係間之交易；","lat":25.0057474,"lng":121.4686643,"geocode_src":"osm:exact"},{"serial_no":"RPRNMLOKMHLGFAF18EA","county_code":"f","district":"板橋區","address":"新北市板橋區國泰街３９巷７弄１號三樓","road":"板橋區國泰街","building_type":"公寓(5樓含以下無電梯)","total_floors":5.0,"transfer_floor_num":3.0,"age_years":40.3,"rooms":3.0,"halls":2.0,"baths":2.0,"building_area_sqm":22.58,"total_price":2200000,"unit_price_per_ping":322085.938335,"deal_date":"2026-03-25","is_special_deal":true,"note":"親友、員工、共有人或其他特殊關係間之交易；","lat":25.0057474,"lng":121.4686643,"geocode_src":"osm:exact"},{"serial_no":"RPQNMLOKMHLGFAF08EA","county_code":"f","district":"板橋區","address":"新北市板橋區國泰街３９巷７弄１號三樓","road":"板橋區國泰街","building_type":"公寓(5樓含以下無電梯)","total_floors":5.0,"transfer_floor_num":3.0,"age_years":40.3,"rooms":3.0,"halls":2.0,"baths":2.0,"building_area_sqm":22.58,"total_price":2200000,"unit_price_per_ping":322085.938335,"deal_date":"2026-03-25","is_special_deal":true,"note":"親友、員工、共有人或其他特殊關係間之交易；","lat":25.0057474,"lng":121.4686643,"geocode_src":"osm:exact"},{"serial_no":"RPPNMLTJMHLGFHF09EA","county_code":"f","district":"永和區","address":"新北市永和區環河東路二段４２號五樓","road":"永和區環河東路二段","building_type":"華廈(10層含以下有電梯)","total_floors":7.0,"transfer_floor_num":5.0,"age_years":5.3,"rooms":3.0,"halls":2.0,"baths":2.0,"building_area_sqm":181.53,"total_price":32000000,"unit_price_per_ping":582740.474015,"deal_date":"2026-03-25","is_special_deal":false,"note":null,"lat":25.0121083,"lng":121.5228799,"geocode_src":"osm:exact"},{"serial_no":"RPQOMLKKMHLGFDF97DA","county_code":"f","district":"汐止區","address":"新北市汐止區大同路二段３１２巷１６弄１４號２樓","road":"汐止區大同路二段","building_type":"公寓(5樓含以下無電梯)","total_floors":5.0,"transfer_floor_num":2.0,"age_years":38.2,"rooms":3.0,"halls":2.0,"baths":1.0,"building_area_sqm":27.43,"total_price":1500000,"unit_price_per_ping":180842.968425,"deal_date":"2026-03-24","is_special_deal":true,"note":"親友、員工、共有人或其他特殊關係間之交易；","lat":25.0654361,"lng":121.65492429999999,"geocode_src":"osm:exact"},{"serial_no":"RPQNMLKKMHLGFIF38DA","county_code":"f","district":"三峽區","address":"新北市三峽區文化路１２０巷２號一樓","road":"三峽區文化路","building_type":"公寓(5樓含以下無電梯)","total_floors":4.0,"transfer_floor_num":null,"age_years":49.0,"rooms":0.0,"halls":0.0,"baths":0.0,"building_area_sqm":111.33,"total_price":20000000,"unit_price_per_ping":593871.05211,"deal_date":"2026-03-24","is_special_deal":true,"note":"親友、員工、共有人或其他特殊關係間之交易；","lat":24.9364056,"lng":121.3711071,"geocode_src":"osm:exact"},{"serial_no":"RPTNMLLJMHLGFHF58DA","county_code":"f","district":"中和區","address":"新北市中和區宜安路２６巷７號四樓","road":"中和區宜安路","building_type":"公寓(5樓含以下無電梯)","total_floors":4.0,"transfer_floor_num":4.0,"age_years":null,"rooms":4.0,"halls":2.0,"baths":3.0,"building_area_sqm":77.76,"total_price":12500000,"unit_price_per_ping":531408.2445350001,"deal_date":"2026-03-24","is_special_deal":false,"note":"頂樓加蓋；","lat":24.996277,"lng":121.513423,"geocode_src":"osm:exact"},{"serial_no":"RPSNMLOKMHLGFDF48DA","county_code":"f","district":"汐止區","address":"新北市汐止區樟樹一路１４５巷１６號３樓之４","road":"汐止區樟樹一路","building_type":"住宅大樓(11層含以上有電梯)","total_floors":17.0,"transfer_floor_num":3.0,"age_years":30.9,"rooms":1.0,"halls":1.0,"baths":1.0,"building_area_sqm":29.790000000000003,"total_price":5000000,"unit_price_per_ping":554849.56597,"deal_date":"2026-03-24","is_special_deal":false,"note":"陽台外推；","lat":25.068108100000003,"lng":121.6418243,"geocode_src":"osm:exact"},{"serial_no":"RPPNMLKKMHLGFIF28DA","county_code":"f","district":"三峽區","address":"新北市三峽區文化路１２０巷２號二樓","road":"三峽區文化路","building_type":"公寓(5樓含以下無電梯)","total_floors":4.0,"transfer_floor_num":2.0,"age_years":49.0,"rooms":2.0,"halls":2.0,"baths":1.0,"building_area_sqm":111.33,"total_price":7200000,"unit_price_per_ping":213795.03330500002,"deal_date":"2026-03-24","is_special_deal":true,"note":"親友、員工、共有人或其他特殊關係間之交易；","lat":24.9364056,"lng":121.3711071,"geocode_src":"osm:exact"},{"serial_no":"RPSNMLSJMHLGFIF66DA","county_code":"f","district":"樹林區","address":"新北市樹林區俊英街１８９號十六樓之３","road":"樹林區俊英街","building_type":"住宅大樓(11層含以上有電梯)","total_floors":17.0,"transfer_floor_num":16.0,"age_years":31.1,"rooms":0.0,"halls":0.0,"baths":0.0,"building_area_sqm":36.16,"total_price":4300000,"unit_price_per_ping":393110.72906000004,"deal_date":"2026-03-24","is_special_deal":false,"note":null,"lat":25.0124516,"lng":121.4238627,"geocode_src":"osm:exact"},{"serial_no":"RPXNMLKKMHLGFGF88DA","county_code":"f","district":"三重區","address":"新北市三重區三和路四段３９６巷３４號三樓","road":"三重區三和路四段","building_type":"公寓(5樓含以下無電梯)","total_floors":4.0,"transfer_floor_num":null,"age_years":48.2,"rooms":2.0,"halls":1.0,"baths":1.0,"building_area_sqm":57.0,"total_price":8260000,"unit_price_per_ping":479047.91592,"deal_date":"2026-03-24","is_special_deal":false,"note":"陽台外推；","lat":25.0787528,"lng":121.4798692,"geocode_src":"osm:exact"},{"serial_no":"RPSNMLTJMHLGFEF98DA","county_code":"f","district":"淡水區","address":"新北市淡水區淡金路７７巷２７號十一樓","road":"淡水區淡金路","building_type":"住宅大樓(11層含以上有電梯)","total_floors":13.0,"transfer_floor_num":11.0,"age_years":25.8,"rooms":3.0,"halls":2.0,"baths":2.0,"building_area_sqm":40.730000000000004,"total_price":2500000,"unit_price_per_ping":202909.0833,"deal_date":"2026-03-23","is_special_deal":true,"note":"親友、員工、共有人或其他特殊關係間之交易；","lat":25.160728,"lng":121.4544415,"geocode_src":"osm:exact"},{"serial_no":"RPPNMLOKMHLGFHF68EA","county_code":"f","district":"中和區","address":"新北市中和區中山路二段３５１號五樓之五","road":"中和區中山路二段","building_type":"華廈(10層含以下有電梯)","total_floors":10.0,"transfer_floor_num":5.0,"age_years":32.9,"rooms":0.0,"halls":0.0,"baths":0.0,"building_area_sqm":359.3,"total_price":32100000,"unit_price_per_ping":322525.60774,"deal_date":"2026-03-23","is_special_deal":false,"note":null,"lat":25.003167400000002,"lng":121.4906842,"geocode_src":"osm:exact"},{"serial_no":"RPXOMLQKLHLGFAF88DA","county_code":"f","district":"板橋區","address":"新北市板橋區國慶路１４９巷３７弄３號","road":"板橋區國慶路","building_type":"公寓(5樓含以下無電梯)","total_floors":5.0,"transfer_floor_num":null,"age_years":45.0,"rooms":2.0,"halls":2.0,"baths":1.0,"building_area_sqm":68.45,"total_price":16100000,"unit_price_per_ping":777547.07828,"deal_date":"2026-03-23","is_special_deal":false,"note":null,"lat":24.997928,"lng":121.4607145,"geocode_src":"osm:exact"},{"serial_no":"RPUPMLSJMHLGFAF88DA","county_code":"f","district":"板橋區","address":"新北市板橋區府中路６０號五樓之１０","road":"板橋區府中路","building_type":"住宅大樓(11層含以上有電梯)","total_floors":15.0,"transfer_floor_num":5.0,"age_years":7.3,"rooms":1.0,"halls":1.0,"baths":1.0,"building_area_sqm":43.7,"total_price":10600000,"unit_price_per_ping":801861.1269550001,"deal_date":"2026-03-23","is_special_deal":false,"note":null,"lat":25.0096508,"lng":121.45697020000001,"geocode_src":"osm:exact"},{"serial_no":"RPROMLKKMHLGFHF48DA","county_code":"f","district":"中和區","address":"新北市中和區景新街５６０號十一樓之五","road":"中和區景新街","building_type":"住宅大樓(11層含以上有電梯)","total_floors":15.0,"transfer_floor_num":11.0,"age_years":29.0,"rooms":1.0,"halls":0.0,"baths":1.0,"building_area_sqm":32.160000000000004,"total_price":5750000,"unit_price_per_ping":591054.52329,"deal_date":"2026-03-23","is_special_deal":false,"note":null,"lat":24.9866324,"lng":121.5142602,"geocode_src":"osm:exact"},{"serial_no":"RPXUNLPKMHLGFGF57DA","county_code":"f","district":"三重區","address":"新北市三重區中正南路２３３號十八樓之一","road":"三重區中正南路","building_type":"住宅大樓(11層含以上有電梯)","total_floors":22.0,"transfer_floor_num":18.0,"age_years":12.3,"rooms":2.0,"halls":1.0,"baths":1.0,"building_area_sqm":92.13,"total_price":18980000,"unit_price_per_ping":681034.685205,"deal_date":"2026-03-23","is_special_deal":false,"note":null,"lat":25.0535399,"lng":121.4931618,"geocode_src":"osm:exact"},{"serial_no":"RPTNMLOKMHLGFBF48EA","county_code":"f","district":"五股區","address":"新北市五股區成泰路三段３１３號之１七樓","road":"五股區成泰路三段","building_type":"住宅大樓(11層含以上有電梯)","total_floors":12.0,"transfer_floor_num":7.0,"age_years":30.3,"rooms":3.0,"halls":2.0,"baths":2.0,"building_area_sqm":109.18,"total_price":12000000,"unit_price_per_ping":363338.82935,"deal_date":"2026-03-23","is_special_deal":true,"note":"親友、員工、共有人或其他特殊關係間之交易；","lat":25.094956908,"lng":121.447490664,"geocode_src":"osm:exact"},{"serial_no":"RPUNMLKMLHLGFHF78DA","county_code":"f","district":"永和區","address":"新北市永和區自強街２３號","road":"永和區自強街","building_type":"公寓(5樓含以下無電梯)","total_floors":4.0,"transfer_floor_num":null,"age_years":55.3,"rooms":4.0,"halls":2.0,"baths":2.0,"building_area_sqm":174.28,"total_price":30000000,"unit_price_per_ping":569047.9125450001,"deal_date":"2026-03-23","is_special_deal":true,"note":"親友、員工、共有人或其他特殊關係間之交易；未登記建物；","lat":25.0081407,"lng":121.5151663,"geocode_src":"osm:exact"},{"serial_no":"RPWQMLNKMHLGFBF88DA","county_code":"f","district":"新莊區","address":"新北市新莊區中華路一段２３０號四樓","road":"新莊區中華路一段","building_type":"公寓(5樓含以下無電梯)","total_floors":4.0,"transfer_floor_num":null,"age_years":49.0,"rooms":3.0,"halls":1.0,"baths":2.0,"building_area_sqm":70.35,"total_price":12580000,"unit_price_per_ping":591140.4737000001,"deal_date":"2026-03-23","is_special_deal":false,"note":"陽台外推；頂樓加蓋；","lat":25.0431925,"lng":121.4527171,"geocode_src":"osm:exact"},{"serial_no":"RPQNMLKKMHLGFEF08EA","county_code":"f","district":"淡水區","address":"新北市淡水區鄧公路１０號十四樓之１","road":"淡水區鄧公路","building_type":"住宅大樓(11層含以上有電梯)","total_floors":14.0,"transfer_floor_num":14.0,"age_years":25.6,"rooms":2.0,"halls":2.0,"baths":1.0,"building_area_sqm":72.23,"total_price":6700000,"unit_price_per_ping":306598.33561,"deal_date":"2026-03-22","is_special_deal":false,"note":null,"lat":25.169823884745764,"lng":121.44950737627119,"geocode_src":"osm:exact"},{"serial_no":"RPTNMLKKMHLGFDF18DA","county_code":"f","district":"汐止區","address":"新北市汐止區大同路二段２６１之１號二十三樓","road":"汐止區大同路二段","building_type":"住宅大樓(11層含以上有電梯)","total_floors":29.0,"transfer_floor_num":23.0,"age_years":14.2,"rooms":1.0,"halls":1.0,"baths":1.0,"building_area_sqm":49.86,"total_price":10380000,"unit_price_per_ping":688208.238655,"deal_date":"2026-03-22","is_special_deal":false,"note":null,"lat":25.0653508,"lng":121.6534302,"geocode_src":"osm:exact"},{"serial_no":"RPROMLPLLHLGFGF88DA","county_code":"f","district":"三重區","address":"新北市三重區重陽路一段６０巷８８號三樓","road":"三重區重陽路一段","building_type":"公寓(5樓含以下無電梯)","total_floors":5.0,"transfer_floor_num":3.0,"age_years":21.4,"rooms":1.0,"halls":1.0,"baths":1.0,"building_area_sqm":66.15,"total_price":9200000,"unit_price_per_ping":459761.96623,"deal_date":"2026-03-22","is_special_deal":false,"note":"陽台外推；","lat":25.0581228,"lng":121.48399429999999,"geocode_src":"osm:exact"},{"serial_no":"RPTNMLOKMHLGFIF09DA","county_code":"f","district":"樹林區","address":"新北市樹林區大成路２９號十四樓","road":"樹林區大成路","building_type":"住宅大樓(11層含以上有電梯)","total_floors":15.0,"transfer_floor_num":14.0,"age_years":20.3,"rooms":3.0,"halls":2.0,"baths":2.0,"building_area_sqm":145.63,"total_price":13500000,"unit_price_per_ping":306449.575285,"deal_date":"2026-03-22","is_special_deal":false,"note":null,"lat":24.9447903,"lng":121.3821207,"geocode_src":"osm:exact"},{"serial_no":"RPPPMLOLLHLGFBF18DA","county_code":"f","district":"新莊區","address":"新北市新莊區中央路５６６號二樓","road":"新莊區中央路","building_type":"住宅大樓(11層含以上有電梯)","total_floors":18.0,"transfer_floor_num":2.0,"age_years":7.5,"rooms":0.0,"halls":0.0,"baths":0.0,"building_area_sqm":139.25,"total_price":15800000,"unit_price_per_ping":465745.43708,"deal_date":"2026-03-22","is_special_deal":false,"note":null,"lat":25.0589738,"lng":121.4485728,"geocode_src":"osm:exact"},{"serial_no":"RPWPMLOLLHLGFBF88DA","county_code":"f","district":"新莊區","address":"新北市新莊區新知一路６９號四樓","road":"新莊區新知一路","building_type":"住宅大樓(11層含以上有電梯)","total_floors":14.0,"transfer_floor_num":4.0,"age_years":3.7,"rooms":3.0,"halls":2.0,"baths":2.0,"building_area_sqm":145.8,"total_price":25760000,"unit_price_per_ping":699785.097725,"deal_date":"2026-03-21","is_special_deal":false,"note":null,"lat":25.0626433,"lng":121.46382959999998,"geocode_src":"osm:exact"},{"serial_no":"RPTNMLKLLHLGFDF18DA","county_code":"f","district":"汐止區","address":"新北市汐止區龍安路２０２巷２２號４樓","road":"汐止區龍安路","building_type":"公寓(5樓含以下無電梯)","total_floors":5.0,"transfer_floor_num":4.0,"age_years":41.9,"rooms":3.0,"halls":2.0,"baths":2.0,"building_area_sqm":87.04,"total_price":10800000,"unit_price_per_ping":410185.10858500004,"deal_date":"2026-03-21","is_special_deal":false,"note":null,"lat":25.0635516,"lng":121.65284879999999,"geocode_src":"osm:exact"},{"serial_no":"RPUNMLPLLHLGFBF58DA","county_code":"f","district":"新莊區","address":"新北市新莊區民全街９巷１６號五樓","road":"新莊區民全街","building_type":"華廈(10層含以下有電梯)","total_floors":6.0,"transfer_floor_num":5.0,"age_years":15.9,"rooms":2.0,"halls":1.0,"baths":1.0,"building_area_sqm":85.1,"total_price":11300000,"unit_price_per_ping":438958.66122500005,"deal_date":"2026-03-21","is_special_deal":false,"note":"內梯增建陽台外推；夾層；其他增建；","lat":25.0216064,"lng":121.42861109999998,"geocode_src":"osm:exact"},{"serial_no":"RPRNMLOKMHLGFDF48EA","county_code":"f","district":"汐止區","address":"新北市汐止區龍安路２８巷２６號６樓之３","road":"汐止區龍安路","building_type":"住宅大樓(11層含以上有電梯)","total_floors":27.0,"transfer_floor_num":6.0,"age_years":28.7,"rooms":1.0,"halls":1.0,"baths":1.0,"building_area_sqm":76.03,"total_price":14300000,"unit_price_per_ping":621765.2659400001,"deal_date":"2026-03-20","is_special_deal":false,"note":null,"lat":25.0641414,"lng":121.6542051,"geocode_src":"osm:exact"},{"serial_no":"RPSNMLNKMHLGFEF48DA","county_code":"f","district":"淡水區","address":"新北市淡水區新市三路二段１８７號二十一樓","road":"淡水區新市三路二段","building_type":"住宅大樓(11層含以上有電梯)","total_floors":29.0,"transfer_floor_num":21.0,"age_years":7.8,"rooms":2.0,"halls":1.0,"baths":1.0,"building_area_sqm":108.07,"total_price":8380000,"unit_price_per_ping":262783.46122,"deal_date":"2026-03-20","is_special_deal":false,"note":null,"lat":25.1965696,"lng":121.4367849,"geocode_src":"osm:exact"},{"serial_no":"RPQNMLQKMHLGFHF98EA","county_code":"f","district":"中和區","address":"新北市中和區員山路５８１巷２弄３號四樓","road":"中和區員山路","building_type":"公寓(5樓含以下無電梯)","total_floors":4.0,"transfer_floor_num":4.0,"age_years":49.8,"rooms":2.0,"halls":1.0,"baths":1.0,"building_area_sqm":42.42,"total_price":4000000,"unit_price_per_ping":311718.996575,"deal_date":"2026-03-20","is_special_deal":false,"note":"頂樓加蓋；","lat":25.0095725,"lng":121.4779015,"geocode_src":"osm:exact"},{"serial_no":"RPQNMLPKMHLGFHF88EA","county_code":"f","district":"中和區","address":"新北市中和區中和路３５０巷１２弄４號二樓","road":"中和區中和路","building_type":"公寓(5樓含以下無電梯)","total_floors":5.0,"transfer_floor_num":2.0,"age_years":43.2,"rooms":3.0,"halls":2.0,"baths":2.0,"building_area_sqm":92.4,"total_price":14650000,"unit_price_per_ping":524132.21175,"deal_date":"2026-03-20","is_special_deal":true,"note":"親友、員工、共有人或其他特殊關係間之交易；","lat":25.0001866,"lng":121.5107052,"geocode_src":"osm:exact"},{"serial_no":"RPVNMLKMLHLGFAF18DA","county_code":"f","district":"板橋區","address":"新北市板橋區文化路一段２２７號","road":"板橋區文化路一段","building_type":"透天厝","total_floors":2.0,"transfer_floor_num":null,"age_years":57.3,"rooms":0.0,"halls":0.0,"baths":0.0,"building_area_sqm":115.04,"total_price":20000000,"unit_price_per_ping":574720.639605,"deal_date":"2026-03-20","is_special_deal":false,"note":"頂樓加蓋；其他增建；具重建或重劃、都更等效益；","lat":25.017534050000002,"lng":121.46384795,"geocode_src":"osm:exact"},{"serial_no":"RPPNMLOKMHLGFDF18DA","county_code":"f","district":"汐止區","address":"新北市汐止區康寧街６１巷１號","road":"汐止區康寧街","building_type":"公寓(5樓含以下無電梯)","total_floors":2.0,"transfer_floor_num":1.0,"age_years":27.8,"rooms":16.0,"halls":1.0,"baths":4.0,"building_area_sqm":374.7,"total_price":700000,"unit_price_per_ping":6175.2063800000005,"deal_date":"2026-03-20","is_special_deal":true,"note":"建物坐落地號：北山段613地號；親友、員工、共有人或其他特殊關係間之交易；","lat":25.0668262,"lng":121.6185823,"geocode_src":"osm:exact"},{"serial_no":"RPSNMLOKMHLGFHF88DA","county_code":"f","district":"中和區","address":"新北市中和區錦和路２１４號二樓","road":"中和區錦和路","building_type":"公寓(5樓含以下無電梯)","total_floors":4.0,"transfer_floor_num":2.0,"age_years":50.7,"rooms":6.0,"halls":0.0,"baths":6.0,"building_area_sqm":111.25,"total_price":15000000,"unit_price_per_ping":445722.297335,"deal_date":"2026-03-20","is_special_deal":false,"note":"陽台外推；","lat":24.9944725,"lng":121.4903765,"geocode_src":"osm:exact"},{"serial_no":"RPUOMLPKMHLGFAF58DA","county_code":"f","district":"板橋區","address":"新北市板橋區縣民大道三段１８７巷７號","road":"板橋區縣民大道三段","building_type":"公寓(5樓含以下無電梯)","total_floors":4.0,"transfer_floor_num":1.0,"age_years":null,"rooms":0.0,"halls":0.0,"baths":0.0,"building_area_sqm":69.61,"total_price":5110000,"unit_price_per_ping":242674.371065,"deal_date":"2026-03-20","is_special_deal":true,"note":"二親等內親屬間買賣。親友、員工、共有人或其他特殊關係間之交易；","lat":25.0250358,"lng":121.4791556,"geocode_src":"osm:exact"},{"serial_no":"RPRNMLTJMHLGFAF58EA","county_code":"f","district":"板橋區","address":"新北市板橋區僑中一街８０巷１弄１０號三樓","road":"板橋區僑中一街","building_type":"公寓(5樓含以下無電梯)","total_floors":5.0,"transfer_floor_num":3.0,"age_years":null,"rooms":3.0,"halls":2.0,"baths":1.0,"building_area_sqm":88.33,"total_price":3050000,"unit_price_per_ping":114148.75605000001,"deal_date":"2026-03-20","is_special_deal":true,"note":"土地增值稅由賣方負擔親友、員工、共有人或其他特殊關係間之交易；","lat":25.0120423,"lng":121.44711850000002,"geocode_src":"osm:exact"},{"serial_no":"RPRNMLNLLHLGFGF58DA","county_code":"f","district":"三重區","address":"新北市三重區車路頭街５１巷２１號四樓","road":"三重區車路","building_type":"公寓(5樓含以下無電梯)","total_floors":5.0,"transfer_floor_num":4.0,"age_years":41.3,"rooms":3.0,"halls":2.0,"baths":2.0,"building_area_sqm":93.67,"total_price":10400000,"unit_price_per_ping":367034.69698,"deal_date":"2026-03-20","is_special_deal":false,"note":"陽台外推；","lat":25.0725178,"lng":121.4854627,"geocode_src":"osm:exact"},{"serial_no":"RPUNMLRKMHLGFEF09DA","county_code":"f","district":"淡水區","address":"新北市淡水區民權路２３號十三樓之９","road":"淡水區民權路","building_type":"住宅大樓(11層含以上有電梯)","total_floors":24.0,"transfer_floor_num":13.0,"age_years":17.2,"rooms":2.0,"halls":2.0,"baths":2.0,"building_area_sqm":63.42,"total_price":9200000,"unit_price_per_ping":479553.701025,"deal_date":"2026-03-19","is_special_deal":false,"note":"夾層；","lat":25.14183165583832,"lng":121.46091288368262,"geocode_src":"osm:exact"},{"serial_no":"RPRNMLNLLHLGFAF97DA","county_code":"f","district":"土城區","address":"新北市土城區金城路三段２５５號十樓之十四","road":"土城區金城路三段","building_type":"住宅大樓(11層含以上有電梯)","total_floors":19.0,"transfer_floor_num":10.0,"age_years":30.5,"rooms":2.0,"halls":1.0,"baths":1.0,"building_area_sqm":73.51,"total_price":10500000,"unit_price_per_ping":472191.71783000004,"deal_date":"2026-03-19","is_special_deal":false,"note":"陽台外推；","lat":24.99049555,"lng":121.47209218636364,"geocode_src":"osm:exact"},{"serial_no":"RPSNMLRKMHLGFAF48DA","county_code":"f","district":"板橋區","address":"新北市板橋區雙十路二段４７巷２弄１０號四樓","road":"板橋區雙十路二段","building_type":"公寓(5樓含以下無電梯)","total_floors":4.0,"transfer_floor_num":null,"age_years":null,"rooms":5.0,"halls":3.0,"baths":2.0,"building_area_sqm":80.88,"total_price":12800000,"unit_price_per_ping":523170.228315,"deal_date":"2026-03-19","is_special_deal":false,"note":"頂樓加蓋；","lat":25.0264776,"lng":121.4759264,"geocode_src":"osm:exact"},{"serial_no":"RPWNMLNKMHLGFGF56EA","county_code":"f","district":"蘆洲區","address":"新北市蘆洲區長安街１９３巷１弄６號","road":"蘆洲區長安街","building_type":"公寓(5樓含以下無電梯)","total_floors":5.0,"transfer_floor_num":1.0,"age_years":36.8,"rooms":3.0,"halls":2.0,"baths":2.0,"building_area_sqm":117.43,"total_price":23000000,"unit_price_per_ping":647474.3558850001,"deal_date":"2026-03-18","is_special_deal":false,"note":null,"lat":25.0814343,"lng":121.46023949999999,"geocode_src":"osm:exact"},{"serial_no":"RPSNMLSKLHLGFCF68DA","county_code":"f","district":"深坑區","address":"新北市深坑區阿柔洋３８之５號三樓","road":null,"building_type":"華廈(10層含以下有電梯)","total_floors":4.0,"transfer_floor_num":3.0,"age_years":16.4,"rooms":2.0,"halls":1.0,"baths":1.0,"building_area_sqm":108.2,"total_price":10380000,"unit_price_per_ping":317133.87240500003,"deal_date":"2026-03-18","is_special_deal":false,"note":null,"lat":24.9991902,"lng":121.6103216,"geocode_src":"osm:exact"},{"serial_no":"RPTNMLKKMHLGFCF08DA","county_code":"f","district":"新店區","address":"新北市新店區北宜路二段１２５之１號十一樓","road":"新店區北宜路二段","building_type":"住宅大樓(11層含以上有電梯)","total_floors":22.0,"transfer_floor_num":11.0,"age_years":25.2,"rooms":1.0,"halls":1.0,"baths":1.0,"building_area_sqm":48.43,"total_price":5600000,"unit_price_per_ping":382251.225335,"deal_date":"2026-03-18","is_special_deal":false,"note":null,"lat":24.9533649,"lng":121.5506761,"geocode_src":"osm:exact"},{"serial_no":"RPRNMLTJMHLGFAF48DA","county_code":"f","district":"板橋區","address":"新北市板橋區金門街１５１巷１７弄３號四樓","road":"板橋區金門街","building_type":"公寓(5樓含以下無電梯)","total_floors":5.0,"transfer_floor_num":4.0,"age_years":37.4,"rooms":3.0,"halls":2.0,"baths":2.0,"building_area_sqm":60.77,"total_price":4000000,"unit_price_per_ping":217593.38027000002,"deal_date":"2026-03-18","is_special_deal":true,"note":"親友、員工、共有人或其他特殊關係間之交易；","lat":24.9906729,"lng":121.4337225,"geocode_src":"osm:exact"},{"serial_no":"RPQNMLRLLHLGFDF58DA","county_code":"f","district":"汐止區","address":"新北市汐止區大同路一段１８５號５樓","road":"汐止區大同路一段","building_type":"住宅大樓(11層含以上有電梯)","total_floors":14.0,"transfer_floor_num":5.0,"age_years":32.2,"rooms":0.0,"halls":0.0,"baths":0.0,"building_area_sqm":232.89999999999998,"total_price":13500000,"unit_price_per_ping":191619.827525,"deal_date":"2026-03-18","is_special_deal":false,"note":null,"lat":25.05702,"lng":121.6328131,"geocode_src":"osm:exact"},{"serial_no":"RPOOMLKKMHLGFHF18DA","county_code":"f","district":"中和區","address":"新北市中和區中興街２９７號六樓","road":"中和區中興街","building_type":"住宅大樓(11層含以上有電梯)","total_floors":14.0,"transfer_floor_num":6.0,"age_years":0.7,"rooms":2.0,"halls":1.0,"baths":1.0,"building_area_sqm":117.74000000000001,"total_price":19500000,"unit_price_per_ping":547500.805915,"deal_date":"2026-03-18","is_special_deal":false,"note":null,"lat":24.9924641,"lng":121.4999851,"geocode_src":"osm:road"},{"serial_no":"RPXOMLRKLHLGFHF07DA","county_code":"f","district":"永和區","address":"新北市永和區保福路二段１０３號三樓","road":"永和區保福路二段","building_type":"公寓(5樓含以下無電梯)","total_floors":4.0,"transfer_floor_num":3.0,"age_years":49.9,"rooms":4.0,"halls":2.0,"baths":2.0,"building_area_sqm":66.92,"total_price":7700000,"unit_price_per_ping":380373.539455,"deal_date":"2026-03-17","is_special_deal":true,"note":"親友、員工、共有人或其他特殊關係間之交易；","lat":25.0132342,"lng":121.5103166,"geocode_src":"osm:exact"},{"serial_no":"RPSOMLNKMHLGFGF78DA","county_code":"f","district":"三重區","address":"新北市三重區仁愛街１２５巷２８號","road":"三重區仁愛街","building_type":"公寓(5樓含以下無電梯)","total_floors":5.0,"transfer_floor_num":null,"age_years":45.4,"rooms":0.0,"halls":0.0,"baths":0.0,"building_area_sqm":206.0,"total_price":8530000,"unit_price_per_ping":136885.94528,"deal_date":"2026-03-17","is_special_deal":true,"note":"親友、員工、共有人或其他特殊關係間之交易；","lat":25.0759054,"lng":121.49769940000002,"geocode_src":"osm:exact"},{"serial_no":"RPUOMLMJMHLGFAF18DA","county_code":"f","district":"土城區","address":"新北市土城區中央路四段５２巷１８號六樓","road":"土城區中央路四段","building_type":"住宅大樓(11層含以上有電梯)","total_floors":20.0,"transfer_floor_num":6.0,"age_years":0.3,"rooms":2.0,"halls":0.0,"baths":1.0,"building_area_sqm":96.00999999999999,"total_price":10858637,"unit_price_per_ping":373880.97771500004,"deal_date":"2026-03-16","is_special_deal":false,"note":"權利變換安置戶交易總價依實際分配價值","lat":24.9610498,"lng":121.4199254,"geocode_src":"osm:exact"},{"serial_no":"RPVOMLMJMHLGFAF28DA","county_code":"f","district":"土城區","address":"新北市土城區中央路四段５２巷２２之１號三樓","road":"土城區中央路四段","building_type":"住宅大樓(11層含以上有電梯)","total_floors":20.0,"transfer_floor_num":3.0,"age_years":0.3,"rooms":1.0,"halls":0.0,"baths":1.0,"building_area_sqm":80.19,"total_price":6119189,"unit_price_per_ping":252261.14756500002,"deal_date":"2026-03-16","is_special_deal":false,"note":"權利變換安置戶交易總價依實際分配價值","lat":24.9611094,"lng":121.4200278,"geocode_src":"osm:lane"},{"serial_no":"RPROMLQKMHLGFGF09EA","county_code":"f","district":"蘆洲區","address":"新北市蘆洲區中山一路２９號三樓","road":"蘆洲區中山一路","building_type":"公寓(5樓含以下無電梯)","total_floors":4.0,"transfer_floor_num":null,"age_years":46.3,"rooms":2.0,"halls":1.0,"baths":1.0,"building_area_sqm":90.0,"total_price":6000000,"unit_price_per_ping":220386.768595,"deal_date":"2026-03-16","is_special_deal":true,"note":"親友、員工、共有人或其他特殊關係間之交易；","lat":25.0807451,"lng":121.4791661,"geocode_src":"osm:exact"},{"serial_no":"RPUSMLOLLHLGFGF86DA","county_code":"f","district":"蘆洲區","address":"新北市蘆洲區長安街２６６之１號三樓","road":"蘆洲區長安街","building_type":"華廈(10層含以下有電梯)","total_floors":9.0,"transfer_floor_num":3.0,"age_years":31.1,"rooms":3.0,"halls":2.0,"baths":2.0,"building_area_sqm":147.05,"total_price":17680000,"unit_price_per_ping":397457.836335,"deal_date":"2026-03-16","is_special_deal":false,"note":null,"lat":25.0867692,"lng":121.45760000000001,"geocode_src":"osm:exact"},{"serial_no":"RPPNMLNKMHLGFCF08EA","county_code":"f","district":"新店區","address":"新北市新店區禾豐六路１０８號三樓","road":"新店區禾豐六路","building_type":"公寓(5樓含以下無電梯)","total_floors":3.0,"transfer_floor_num":3.0,"age_years":29.5,"rooms":5.0,"halls":3.0,"baths":2.0,"building_area_sqm":175.97,"total_price":18500000,"unit_price_per_ping":347543.78862,"deal_date":"2026-03-16","is_special_deal":false,"note":"陽台外推；夾層；","lat":24.9319598,"lng":121.5112876,"geocode_src":"osm:exact"},{"serial_no":"RPSNMLNKMHLGFAF08DA","county_code":"f","district":"板橋區","address":"新北市板橋區中山路一段１６６之３號二十六樓","road":"板橋區中山路一段","building_type":"住宅大樓(11層含以上有電梯)","total_floors":33.0,"transfer_floor_num":26.0,"age_years":15.2,"rooms":3.0,"halls":2.0,"baths":2.0,"building_area_sqm":346.78,"total_price":87000000,"unit_price_per_ping":979117.3186550001,"deal_date":"2026-03-16","is_special_deal":false,"note":null,"lat":25.0123039,"lng":121.46739369999999,"geocode_src":"osm:exact"},{"serial_no":"RPVNMLQKMHLGFAF78EA","county_code":"f","district":"板橋區","address":"新北市板橋區中興路４３號","road":"板橋區中興路","building_type":"透天厝","total_floors":4.0,"transfer_floor_num":null,"age_years":51.2,"rooms":5.0,"halls":4.0,"baths":4.0,"building_area_sqm":279.22,"total_price":33000000,"unit_price_per_ping":390697.50601,"deal_date":"2026-03-16","is_special_deal":false,"note":"陽台外推；頂樓加蓋；其他增建；","lat":25.0072603,"lng":121.4555773,"geocode_src":"osm:exact"},{"serial_no":"RPQNMLMJMHLGFIF48DA","county_code":"f","district":"樹林區","address":"新北市樹林區三福街２６巷２０號四樓","road":"樹林區三福街","building_type":"公寓(5樓含以下無電梯)","total_floors":4.0,"transfer_floor_num":4.0,"age_years":null,"rooms":3.0,"halls":2.0,"baths":1.0,"building_area_sqm":66.9,"total_price":6100000,"unit_price_per_ping":301424.782085,"deal_date":"2026-03-15","is_special_deal":false,"note":"陽台外推；頂樓加蓋；其他增建；","lat":25.0173825,"lng":121.408292,"geocode_src":"osm:exact"},{"serial_no":"RPWOMLMJMHLGFBF48DA","county_code":"f","district":"五股區","address":"新北市五股區成泰路三段３３５號三樓","road":"五股區成泰路三段","building_type":"公寓(5樓含以下無電梯)","total_floors":4.0,"transfer_floor_num":null,"age_years":46.7,"rooms":2.0,"halls":2.0,"baths":1.0,"building_area_sqm":88.99,"total_price":6350000,"unit_price_per_ping":235887.59446000002,"deal_date":"2026-03-15","is_special_deal":false,"note":"陽台外推；其他增建；","lat":25.0954081,"lng":121.4482047,"geocode_src":"osm:exact"},{"serial_no":"RPSPMLLJMHLGFBF08DA","county_code":"f","district":"新莊區","address":"新北市新莊區中正路５７６巷１３號","road":"新莊區中正路","building_type":"透天厝","total_floors":2.0,"transfer_floor_num":null,"age_years":41.8,"rooms":6.0,"halls":2.0,"baths":5.0,"building_area_sqm":347.22,"total_price":23000000,"unit_price_per_ping":218975.19840000002,"deal_date":"2026-03-15","is_special_deal":true,"note":"親友、員工、共有人或其他特殊關係間之交易；頂樓加蓋；","lat":25.0312433,"lng":121.4268554,"geocode_src":"osm:exact"},{"serial_no":"RPXNMLLJMHLGFDF58DA","county_code":"f","district":"汐止區","address":"新北市汐止區南興路８２巷３號二樓","road":"汐止區南興路","building_type":"住宅大樓(11層含以上有電梯)","total_floors":16.0,"transfer_floor_num":2.0,"age_years":33.2,"rooms":4.0,"halls":2.0,"baths":2.0,"building_area_sqm":163.32,"total_price":18000000,"unit_price_per_ping":364340.482205,"deal_date":"2026-03-15","is_special_deal":false,"note":"鐵鋁窗遮雨棚增建前陽台窗戶雨遮其他增建；","lat":25.0588582,"lng":121.652727,"geocode_src":"osm:exact"},{"serial_no":"RPSNMLKKMHLGFCF97DA","county_code":"f","district":"新店區","address":"新北市新店區北宜路二段１１７之５號六樓","road":"新店區北宜路二段","building_type":"住宅大樓(11層含以上有電梯)","total_floors":15.0,"transfer_floor_num":6.0,"age_years":25.1,"rooms":3.0,"halls":2.0,"baths":2.0,"building_area_sqm":89.18,"total_price":13050000,"unit_price_per_ping":483745.43640500004,"deal_date":"2026-03-15","is_special_deal":false,"note":"夾層；","lat":24.9530251,"lng":121.5505545,"geocode_src":"osm:exact"},{"serial_no":"RPPOMLLKLHLGFHF28DA","county_code":"f","district":"永和區","address":"新北市永和區永和路二段３９７號四樓","road":"永和區永和路二段","building_type":"公寓(5樓含以下無電梯)","total_floors":5.0,"transfer_floor_num":null,"age_years":46.9,"rooms":4.0,"halls":2.0,"baths":2.0,"building_area_sqm":135.44,"total_price":15500000,"unit_price_per_ping":378320.64697,"deal_date":"2026-03-15","is_special_deal":true,"note":"親友、員工、共有人或其他特殊關係間之交易；包含公共設施保留地用地；","lat":25.0169638,"lng":121.5156387,"geocode_src":"osm:exact"},{"serial_no":"RPQNMLOKMHLGFCF28EA","county_code":"f","district":"新店區","address":"新北市新店區富貴街１０巷３號四樓","road":"新店區富貴街","building_type":"公寓(5樓含以下無電梯)","total_floors":5.0,"transfer_floor_num":4.0,"age_years":43.3,"rooms":3.0,"halls":2.0,"baths":2.0,"building_area_sqm":100.88,"total_price":7900000,"unit_price_per_ping":258879.329135,"deal_date":"2026-03-15","is_special_deal":false,"note":"陽台外推；","lat":24.9496499,"lng":121.4939381,"geocode_src":"osm:exact"},{"serial_no":"RPQNMLQKMHLGFCF38DA","county_code":"f","district":"新店區","address":"新北市新店區竹林路６３號五樓","road":"新店區竹林路","building_type":"華廈(10層含以下有電梯)","total_floors":10.0,"transfer_floor_num":5.0,"age_years":26.7,"rooms":3.0,"halls":2.0,"baths":2.0,"building_area_sqm":93.53999999999999,"total_price":10800000,"unit_price_per_ping":381682.630315,"deal_date":"2026-03-15","is_special_deal":false,"note":null,"lat":24.9513688,"lng":121.5527966,"geocode_src":"osm:exact"},{"serial_no":"RPTOMLNKMHLGFBF38DA","county_code":"f","district":"新莊區","address":"新北市新莊區民安西路１９６巷２弄２號","road":"新莊區民安西路","building_type":"公寓(5樓含以下無電梯)","total_floors":5.0,"transfer_floor_num":1.0,"age_years":39.2,"rooms":3.0,"halls":1.0,"baths":1.0,"building_area_sqm":77.75,"total_price":10700000,"unit_price_per_ping":454945.437485,"deal_date":"2026-03-15","is_special_deal":false,"note":"其他增建；","lat":25.0154833,"lng":121.42566489999999,"geocode_src":"osm:exact"},{"serial_no":"RPVNMLRLLHLGFBF88DA","county_code":"f","district":"五股區","address":"新北市五股區成泰路三段３０１巷１弄３號","road":"五股區成泰路三段","building_type":"公寓(5樓含以下無電梯)","total_floors":3.0,"transfer_floor_num":null,"age_years":47.4,"rooms":3.0,"halls":2.0,"baths":1.0,"building_area_sqm":75.0,"total_price":8500000,"unit_price_per_ping":374654.531405,"deal_date":"2026-03-15","is_special_deal":false,"note":"其他增建；","lat":25.092434,"lng":121.4451553,"geocode_src":"osm:exact"},{"serial_no":"RPRNMLOKMHLGFBF28EA","county_code":"f","district":"新莊區","address":"新北市新莊區福德二街３號十樓","road":"新莊區福德二街","building_type":"住宅大樓(11層含以上有電梯)","total_floors":15.0,"transfer_floor_num":10.0,"age_years":12.1,"rooms":4.0,"halls":2.0,"baths":2.0,"building_area_sqm":219.26,"total_price":38000000,"unit_price_per_ping":685335.5114900001,"deal_date":"2026-03-15","is_special_deal":false,"note":null,"lat":25.0569375,"lng":121.4629777,"geocode_src":"osm:exact"},{"serial_no":"RPUQMLNLLHLGFBF68DA","county_code":"f","district":"五股區","address":"新北市五股區工商路１５８號四樓","road":"五股區工商路","building_type":"華廈(10層含以下有電梯)","total_floors":9.0,"transfer_floor_num":4.0,"age_years":28.3,"rooms":3.0,"halls":2.0,"baths":2.0,"building_area_sqm":143.8,"total_price":12350000,"unit_price_per_ping":283910.733155,"deal_date":"2026-03-15","is_special_deal":false,"note":null,"lat":25.0878142,"lng":121.43346170000001,"geocode_src":"osm:exact"},{"serial_no":"RPPNMLRKLHLGFGF68DA","county_code":"f","district":"三重區","address":"新北市三重區永福街２１１巷２５號五樓","road":"三重區永福街","building_type":"華廈(10層含以下有電梯)","total_floors":8.0,"transfer_floor_num":5.0,"age_years":25.7,"rooms":3.0,"halls":2.0,"baths":2.0,"building_area_sqm":130.54,"total_price":19100000,"unit_price_per_ping":495404.9401,"deal_date":"2026-03-15","is_special_deal":false,"note":null,"lat":25.0740774,"lng":121.4789978,"geocode_src":"osm:exact"},{"serial_no":"RPSNMLKKMHLGFDF08DA","county_code":"f","district":"汐止區","address":"新北市汐止區新昌路２５號","road":"汐止區新昌路","building_type":"公寓(5樓含以下無電梯)","total_floors":4.0,"transfer_floor_num":null,"age_years":null,"rooms":3.0,"halls":1.0,"baths":1.0,"building_area_sqm":75.4,"total_price":10000000,"unit_price_per_ping":438433.04141,"deal_date":"2026-03-15","is_special_deal":false,"note":null,"lat":25.0677964,"lng":121.6620613,"geocode_src":"osm:exact"},{"serial_no":"RPQOMLKKMHLGFHF38DA","county_code":"f","district":"中和區","address":"新北市中和區景平路５２２號八樓之１","road":"中和區景平路","building_type":"住宅大樓(11層含以上有電梯)","total_floors":12.0,"transfer_floor_num":8.0,"age_years":35.3,"rooms":2.0,"halls":2.0,"baths":1.0,"building_area_sqm":63.25,"total_price":13580000,"unit_price_per_ping":709765.2626400001,"deal_date":"2026-03-14","is_special_deal":false,"note":null,"lat":24.99414802,"lng":121.50327778,"geocode_src":"osm:exact"},{"serial_no":"RPQNMLKKMHLGFEF97DA","county_code":"f","district":"淡水區","address":"新北市淡水區中山北路一段２７５巷６號二樓","road":"淡水區中山北路一段","building_type":"公寓(5樓含以下無電梯)","total_floors":5.0,"transfer_floor_num":2.0,"age_years":43.1,"rooms":3.0,"halls":2.0,"baths":2.0,"building_area_sqm":90.73,"total_price":4620000,"unit_price_per_ping":168330.57220000002,"deal_date":"2026-03-14","is_special_deal":false,"note":"陽台外推；","lat":25.1813956,"lng":121.4439576,"geocode_src":"osm:exact"},{"serial_no":"RPTUMLKKMHLGFBF68DA","county_code":"f","district":"新莊區","address":"新北市新莊區萬安街１５７巷１６號三樓","road":"新莊區萬安街","building_type":"公寓(5樓含以下無電梯)","total_floors":5.0,"transfer_floor_num":3.0,"age_years":44.5,"rooms":3.0,"halls":2.0,"baths":2.0,"building_area_sqm":92.77,"total_price":8400000,"unit_price_per_ping":299328.914395,"deal_date":"2026-03-14","is_special_deal":false,"note":"陽台外推；","lat":25.0211007,"lng":121.42101720000001,"geocode_src":"osm:exact"},{"serial_no":"RPVOMLNKMHLGFHF56DA","county_code":"f","district":"永和區","address":"新北市永和區中山路一段２８９號三樓","road":"永和區中山路一段","building_type":"公寓(5樓含以下無電梯)","total_floors":4.0,"transfer_floor_num":3.0,"age_years":50.4,"rooms":2.0,"halls":3.0,"baths":2.0,"building_area_sqm":63.45,"total_price":13300000,"unit_price_per_ping":692938.8169900001,"deal_date":"2026-03-14","is_special_deal":false,"note":null,"lat":25.0068469,"lng":121.5068712,"geocode_src":"osm:exact"},{"serial_no":"RPTOMLNKMHLGFHF09EA","county_code":"f","district":"中和區","address":"新北市中和區景新街３３７之８號十六樓","road":"中和區景新街","building_type":"住宅大樓(11層含以上有電梯)","total_floors":36.0,"transfer_floor_num":16.0,"age_years":4.0,"rooms":2.0,"halls":2.0,"baths":1.0,"building_area_sqm":89.99000000000001,"total_price":20500000,"unit_price_per_ping":893735.503675,"deal_date":"2026-03-14","is_special_deal":false,"note":"陽台外推；","lat":24.9914114,"lng":121.51230610000002,"geocode_src":"osm:exact"},{"serial_no":"RPQOMLQKMHLGFEF78EA","county_code":"f","district":"淡水區","address":"新北市淡水區新市二路三段３６巷２８號九樓","road":"淡水區新市二路三段","building_type":"住宅大樓(11層含以上有電梯)","total_floors":15.0,"transfer_floor_num":9.0,"age_years":1.3,"rooms":3.0,"halls":2.0,"baths":2.0,"building_area_sqm":182.39,"total_price":16750000,"unit_price_per_ping":323018.169705,"deal_date":"2026-03-13","is_special_deal":false,"note":"預售屋、或土地及建物分件登記案件；","lat":25.1926401,"lng":121.4328651,"geocode_src":"osm:exact"},{"serial_no":"RPVNMLTJMHLGFHF07EA","county_code":"f","district":"中和區","address":"新北市中和區中興街３０５號六樓","road":"中和區中興街","building_type":"住宅大樓(11層含以上有電梯)","total_floors":14.0,"transfer_floor_num":6.0,"age_years":0.6,"rooms":2.0,"halls":2.0,"baths":1.0,"building_area_sqm":79.46000000000001,"total_price":15650000,"unit_price_per_ping":651087.57889,"deal_date":"2026-03-13","is_special_deal":false,"note":null,"lat":24.9924641,"lng":121.4999851,"geocode_src":"osm:road"},{"serial_no":"RPSOMLLMLHLGFGF68DA","county_code":"f","district":"三重區","address":"新北市三重區溪尾街４５號十三樓之七","road":"三重區溪尾街","building_type":"住宅大樓(11層含以上有電梯)","total_floors":14.0,"transfer_floor_num":13.0,"age_years":13.0,"rooms":0.0,"halls":0.0,"baths":0.0,"building_area_sqm":55.86,"total_price":10200000,"unit_price_per_ping":603633.035215,"deal_date":"2026-03-13","is_special_deal":false,"note":null,"lat":25.0763235,"lng":121.49122980000001,"geocode_src":"osm:exact"},{"serial_no":"RPSSMLOKMHLGFBF78DA","county_code":"f","district":"林口區","address":"新北市林口區文化三路一段３５８號十五樓","road":"林口區文化三路一段","building_type":"住宅大樓(11層含以上有電梯)","total_floors":19.0,"transfer_floor_num":15.0,"age_years":18.6,"rooms":4.0,"halls":2.0,"baths":2.0,"building_area_sqm":203.95,"total_price":26080000,"unit_price_per_ping":470525.60219,"deal_date":"2026-03-13","is_special_deal":false,"note":"其他增建；","lat":25.0716653,"lng":121.3640864,"geocode_src":"osm:exact"},{"serial_no":"RPVNMLOKMHLGFAF48DA","county_code":"f","district":"土城區","address":"新北市土城區學享街５８號九樓之１５","road":"土城區學享街","building_type":"住宅大樓(11層含以上有電梯)","total_floors":14.0,"transfer_floor_num":9.0,"age_years":17.3,"rooms":1.0,"halls":1.0,"baths":1.0,"building_area_sqm":53.74,"total_price":8000000,"unit_price_per_ping":492115.684025,"deal_date":"2026-03-13","is_special_deal":true,"note":"親友、員工、共有人或其他特殊關係間之交易；","lat":24.9864458,"lng":121.4522062,"geocode_src":"osm:exact"},{"serial_no":"RPVPMLPLLHLGFGF76DA","county_code":"f","district":"三重區","address":"新北市三重區大同北路６０巷９號三樓","road":"三重區大同北路","building_type":"公寓(5樓含以下無電梯)","total_floors":5.0,"transfer_floor_num":3.0,"age_years":40.2,"rooms":2.0,"halls":2.0,"baths":1.0,"building_area_sqm":52.04,"total_price":8100000,"unit_price_per_ping":514545.43525000004,"deal_date":"2026-03-12","is_special_deal":false,"note":"陽台外推；其他增建；","lat":25.0638664,"lng":121.49391640000002,"geocode_src":"osm:exact"},{"serial_no":"RPVOMLOKMHLGFEF98DA","county_code":"f","district":"淡水區","address":"新北市淡水區大忠街８８號四樓","road":"淡水區大忠街","building_type":"住宅大樓(11層含以上有電梯)","total_floors":21.0,"transfer_floor_num":4.0,"age_years":30.4,"rooms":2.0,"halls":2.0,"baths":1.0,"building_area_sqm":131.56,"total_price":8480000,"unit_price_per_ping":213080.983745,"deal_date":"2026-03-12","is_special_deal":false,"note":"拆分土地價格為140萬元；建物價格為708萬元。","lat":25.1763045,"lng":121.44506899999999,"geocode_src":"osm:exact"},{"serial_no":"RPVOMLNKMHLGFBF58DA","county_code":"f","district":"新莊區","address":"新北市新莊區新北大道七段３０５號八樓","road":"新莊區新北大道七段","building_type":"住宅大樓(11層含以上有電梯)","total_floors":14.0,"transfer_floor_num":8.0,"age_years":21.3,"rooms":0.0,"halls":0.0,"baths":0.0,"building_area_sqm":45.739999999999995,"total_price":7100000,"unit_price_per_ping":513140.476625,"deal_date":"2026-03-12","is_special_deal":false,"note":null,"lat":25.0279184,"lng":121.4124602,"geocode_src":"osm:exact"},{"serial_no":"RPUNMLKMLHLGFIF88DA","county_code":"f","district":"三峽區","address":"新北市三峽區大德路２８８號","road":"三峽區大德路","building_type":"住宅大樓(11層含以上有電梯)","total_floors":14.0,"transfer_floor_num":null,"age_years":14.4,"rooms":4.0,"halls":2.0,"baths":2.0,"building_area_sqm":138.01,"total_price":24500000,"unit_price_per_ping":613279.3158450001,"deal_date":"2026-03-12","is_special_deal":false,"note":"夾層；","lat":24.947856,"lng":121.3748879,"geocode_src":"osm:exact"},{"serial_no":"RPOOMLOKMHLGFGF58EA","county_code":"f","district":"蘆洲區","address":"新北市蘆洲區長安街３３１巷３８號二樓","road":"蘆洲區長安街","building_type":"華廈(10層含以下有電梯)","total_floors":9.0,"transfer_floor_num":2.0,"age_years":27.0,"rooms":3.0,"halls":2.0,"baths":2.0,"building_area_sqm":116.92,"total_price":15500000,"unit_price_per_ping":438244.61166500003,"deal_date":"2026-03-12","is_special_deal":false,"note":"陽台外推；其他增建；","lat":25.0866572,"lng":121.45574240000002,"geocode_src":"osm:exact"},{"serial_no":"RPPOMLSKLHLGFAF28DA","county_code":"f","district":"板橋區","address":"新北市板橋區陽明街２５７號十一樓","road":"板橋區陽明街","building_type":"住宅大樓(11層含以上有電梯)","total_floors":12.0,"transfer_floor_num":11.0,"age_years":null,"rooms":0.0,"halls":0.0,"baths":1.0,"building_area_sqm":40.78,"total_price":8360000,"unit_price_per_ping":677692.53657,"deal_date":"2026-03-12","is_special_deal":false,"note":"陽台外推；","lat":25.025312499999995,"lng":121.4625416,"geocode_src":"osm:exact"},{"serial_no":"RPWNMLNKMHLGFBF58DA","county_code":"f","district":"新莊區","address":"新北市新莊區瓊林路瓊英巷６弄１３號三樓","road":"新莊區瓊林路","building_type":"公寓(5樓含以下無電梯)","total_floors":4.0,"transfer_floor_num":null,"age_years":46.1,"rooms":4.0,"halls":2.0,"baths":1.0,"building_area_sqm":104.7,"total_price":7920000,"unit_price_per_ping":250066.106325,"deal_date":"2026-03-12","is_special_deal":false,"note":null,"lat":25.0281653,"lng":121.4436098,"geocode_src":"osm:exact"},{"serial_no":"RPTOMLTKLHLGFAF78DA","county_code":"f","district":"板橋區","address":"新北市板橋區僑中二街１００巷３２號四樓","road":"板橋區僑中二街","building_type":"公寓(5樓含以下無電梯)","total_floors":5.0,"transfer_floor_num":4.0,"age_years":null,"rooms":2.0,"halls":2.0,"baths":1.0,"building_area_sqm":84.86,"total_price":8220000,"unit_price_per_ping":320214.864025,"deal_date":"2026-03-12","is_special_deal":false,"note":null,"lat":25.0087505,"lng":121.4446813,"geocode_src":"osm:exact"},{"serial_no":"RPUOMLNKMHLGFEF78DA","county_code":"f","district":"淡水區","address":"新北市淡水區沙崙路２４２號九樓","road":"淡水區沙崙路","building_type":"住宅大樓(11層含以上有電梯)","total_floors":19.0,"transfer_floor_num":9.0,"age_years":31.2,"rooms":2.0,"halls":2.0,"baths":2.0,"building_area_sqm":112.73,"total_price":9426688,"unit_price_per_ping":276436.35327,"deal_date":"2026-03-11","is_special_deal":false,"note":"其他增建；","lat":25.1846708,"lng":121.4258621,"geocode_src":"osm:exact"},{"serial_no":"RPRNMLQKMHLGFAF38EA","county_code":"f","district":"土城區","address":"新北市土城區青山路２巷１５號四樓","road":"土城區青山路","building_type":"華廈(10層含以下有電梯)","total_floors":6.0,"transfer_floor_num":4.0,"age_years":34.1,"rooms":2.0,"halls":2.0,"baths":1.0,"building_area_sqm":84.69,"total_price":11500000,"unit_price_per_ping":448889.23936500004,"deal_date":"2026-03-11","is_special_deal":false,"note":null,"lat":24.9765375,"lng":121.46135699999999,"geocode_src":"osm:exact"},{"serial_no":"RPVOMLTKLHLGFHF07DA","county_code":"f","district":"永和區","address":"新北市永和區永和路一段６５巷４號三樓","road":"永和區永和路一段","building_type":"公寓(5樓含以下無電梯)","total_floors":4.0,"transfer_floor_num":3.0,"age_years":54.4,"rooms":4.0,"halls":2.0,"baths":1.0,"building_area_sqm":65.1,"total_price":9000000,"unit_price_per_ping":457021.470465,"deal_date":"2026-03-11","is_special_deal":true,"note":"依調解筆錄成立之買賣案件。親友、員工、共有人或其他特殊關係間之交易；","lat":25.0073143,"lng":121.5127696,"geocode_src":"osm:exact"},{"serial_no":"RPWNMLNKMHLGFIF66DA","county_code":"f","district":"三峽區","address":"新北市三峽區學成路２６０號三樓之九","road":"三峽區學成路","building_type":"住宅大樓(11層含以上有電梯)","total_floors":19.0,"transfer_floor_num":3.0,"age_years":19.3,"rooms":1.0,"halls":1.0,"baths":1.0,"building_area_sqm":79.36,"total_price":8500000,"unit_price_per_ping":354072.713995,"deal_date":"2026-03-11","is_special_deal":false,"note":"陽台外推；","lat":24.9427618,"lng":121.3758976,"geocode_src":"osm:exact"},{"serial_no":"RPWNMLRJMHLGFHF86DA","county_code":"f","district":"永和區","address":"新北市永和區永貞路３９巷６弄１４號三樓","road":"永和區永貞路","building_type":"公寓(5樓含以下無電梯)","total_floors":4.0,"transfer_floor_num":3.0,"age_years":54.1,"rooms":3.0,"halls":2.0,"baths":1.0,"building_area_sqm":63.19,"total_price":10100000,"unit_price_per_ping":528380.145475,"deal_date":"2026-03-11","is_special_deal":false,"note":"陽台外推；其他增建；","lat":25.0060998,"lng":121.5218058,"geocode_src":"osm:exact"},{"serial_no":"RPPNMLNKMHLGFDF18EA","county_code":"f","district":"汐止區","address":"新北市汐止區中興路１６８號８樓之５","road":"汐止區中興路","building_type":"住宅大樓(11層含以上有電梯)","total_floors":17.0,"transfer_floor_num":8.0,"age_years":27.9,"rooms":2.0,"halls":1.0,"baths":1.0,"building_area_sqm":52.650000000000006,"total_price":9514109,"unit_price_per_ping":597371.878425,"deal_date":"2026-03-11","is_special_deal":false,"note":"含土地增值稅或其他稅費14109元；","lat":25.0653589524,"lng":121.632024348,"geocode_src":"osm:exact"},{"serial_no":"RPTNMLNKMHLGFBF28DA","county_code":"f","district":"新莊區","address":"新北市新莊區中華路二段２８０號二樓","road":"新莊區中華路二段","building_type":"住宅大樓(11層含以上有電梯)","total_floors":17.0,"transfer_floor_num":2.0,"age_years":32.5,"rooms":1.0,"halls":1.0,"baths":1.0,"building_area_sqm":53.05,"total_price":9050000,"unit_price_per_ping":563947.08629,"deal_date":"2026-03-11","is_special_deal":false,"note":"其他增建為陽台凸窗增建其他增建；","lat":25.0535403,"lng":121.4528977,"geocode_src":"osm:exact"},{"serial_no":"RPUOMLOKMHLGFAF48DA","county_code":"f","district":"板橋區","address":"新北市板橋區忠孝路２２６號十二樓","road":"板橋區忠孝路","building_type":"住宅大樓(11層含以上有電梯)","total_floors":15.0,"transfer_floor_num":12.0,"age_years":0.6,"rooms":3.0,"halls":2.0,"baths":1.0,"building_area_sqm":147.95999999999998,"total_price":32680000,"unit_price_per_ping":865047.9014450001,"deal_date":"2026-03-11","is_special_deal":false,"note":null,"lat":25.0020519,"lng":121.4619795,"geocode_src":"osm:road"},{"serial_no":"RPRNMLTJMHLGFEF88DA","county_code":"f","district":"淡水區","address":"新北市淡水區自強路１２８巷９號四樓","road":"淡水區自強路","building_type":"住宅大樓(11層含以上有電梯)","total_floors":16.0,"transfer_floor_num":4.0,"age_years":30.6,"rooms":3.0,"halls":2.0,"baths":2.0,"building_area_sqm":116.57000000000001,"total_price":11000000,"unit_price_per_ping":311947.09574,"deal_date":"2026-03-11","is_special_deal":false,"note":null,"lat":25.1334589,"lng":121.46587910000001,"geocode_src":"osm:exact"},{"serial_no":"RPRNMLPLLHLGFBF28DA","county_code":"f","district":"林口區","address":"新北市林口區文化三路一段５８３號二十五樓","road":"林口區文化三路一段","building_type":"住宅大樓(11層含以上有電梯)","total_floors":27.0,"transfer_floor_num":25.0,"age_years":6.8,"rooms":4.0,"halls":3.0,"baths":4.0,"building_area_sqm":566.5,"total_price":91890000,"unit_price_per_ping":586952.044105,"deal_date":"2026-03-10","is_special_deal":false,"note":"含裝潢費11000000元；","lat":25.0770233,"lng":121.37070709999999,"geocode_src":"osm:exact"},{"serial_no":"RPTNMLRKLHLGFHF56DA","county_code":"f","district":"永和區","address":"新北市永和區環河西路一段８３號十樓之二","road":"永和區環河西路一段","building_type":"住宅大樓(11層含以上有電梯)","total_floors":27.0,"transfer_floor_num":10.0,"age_years":15.6,"rooms":2.0,"halls":2.0,"baths":1.0,"building_area_sqm":80.61,"total_price":16000000,"unit_price_per_ping":656155.347295,"deal_date":"2026-03-10","is_special_deal":false,"note":"陽台外推；","lat":25.0179764,"lng":121.5127542,"geocode_src":"osm:exact"},{"serial_no":"RPTNMLPLLHLGFCF58DA","county_code":"f","district":"新店區","address":"新北市新店區安康路二段１１８之１３號六樓","road":"新店區安康路二段","building_type":"住宅大樓(11層含以上有電梯)","total_floors":14.0,"transfer_floor_num":6.0,"age_years":15.5,"rooms":3.0,"halls":2.0,"baths":2.0,"building_area_sqm":129.22,"total_price":19150000,"unit_price_per_ping":489907.419645,"deal_date":"2026-03-10","is_special_deal":false,"note":"其他增建；","lat":24.9632389,"lng":121.5124221,"geocode_src":"osm:exact"},{"serial_no":"RPQNMLOKMHLGFIF88EA","county_code":"f","district":"三峽區","address":"新北市三峽區大同路３９巷６０號八樓","road":"三峽區大同路","building_type":"住宅大樓(11層含以上有電梯)","total_floors":11.0,"transfer_floor_num":8.0,"age_years":4.6,"rooms":2.0,"halls":2.0,"baths":2.0,"building_area_sqm":83.92999999999999,"total_price":10500000,"unit_price_per_ping":413566.92664,"deal_date":"2026-03-10","is_special_deal":false,"note":"其他增建；","lat":24.9274264,"lng":121.3782258,"geocode_src":"osm:exact"},{"serial_no":"RPQNMLOKMHLGFAF97DA","county_code":"f","district":"土城區","address":"新北市土城區明德路二段１２７號八樓之二","road":"土城區明德路二段","building_type":"住宅大樓(11層含以上有電梯)","total_floors":15.0,"transfer_floor_num":8.0,"age_years":31.7,"rooms":1.0,"halls":1.0,"baths":1.0,"building_area_sqm":39.94,"total_price":8100000,"unit_price_per_ping":670426.42114,"deal_date":"2026-03-10","is_special_deal":false,"note":null,"lat":24.9821384,"lng":121.4497839,"geocode_src":"osm:exact"},{"serial_no":"RPPRMLKLLHLGFAF87DA","county_code":"f","district":"板橋區","address":"新北市板橋區僑中一街１０２巷７弄７號五樓","road":"板橋區僑中一街","building_type":"公寓(5樓含以下無電梯)","total_floors":5.0,"transfer_floor_num":5.0,"age_years":null,"rooms":3.0,"halls":2.0,"baths":1.0,"building_area_sqm":79.32,"total_price":8250000,"unit_price_per_ping":343831.392065,"deal_date":"2026-03-10","is_special_deal":false,"note":"陽台外推；頂樓加蓋；","lat":25.0128751,"lng":121.4464547,"geocode_src":"osm:exact"},{"serial_no":"RPPOMLKKMHLGFEF97DA","county_code":"f","district":"淡水區","address":"新北市淡水區新春街１２５巷９３號六樓","road":"淡水區新春街","building_type":"華廈(10層含以下有電梯)","total_floors":10.0,"transfer_floor_num":6.0,"age_years":6.3,"rooms":2.0,"halls":2.0,"baths":1.0,"building_area_sqm":132.06,"total_price":10200000,"unit_price_per_ping":255332.22183000002,"deal_date":"2026-03-10","is_special_deal":false,"note":null,"lat":25.1833249,"lng":121.4397115,"geocode_src":"osm:exact"},{"serial_no":"RPOOMLMJLHLGFGF08DA","county_code":"f","district":"蘆洲區","address":"新北市蘆洲區永平街３２巷１１弄２４號五樓","road":"蘆洲區永平街","building_type":"公寓(5樓含以下無電梯)","total_floors":5.0,"transfer_floor_num":5.0,"age_years":36.6,"rooms":3.0,"halls":1.0,"baths":2.0,"building_area_sqm":114.37,"total_price":4800000,"unit_price_per_ping":138740.49066500002,"deal_date":"2026-03-09","is_special_deal":true,"note":"親友、員工、共有人或其他特殊關係間之交易；頂樓加蓋；","lat":25.0918339,"lng":121.4581359,"geocode_src":"osm:exact"},{"serial_no":"RPQOMLOKMHLGFCF38EA","county_code":"f","district":"新店區","address":"新北市新店區吉安街３３號三樓","road":"新店區吉安街","building_type":"華廈(10層含以下有電梯)","total_floors":7.0,"transfer_floor_num":3.0,"age_years":30.9,"rooms":4.0,"halls":2.0,"baths":2.0,"building_area_sqm":124.88,"total_price":12500000,"unit_price_per_ping":330895.85536000005,"deal_date":"2026-03-09","is_special_deal":true,"note":"親友、員工、共有人或其他特殊關係間之交易；","lat":24.965936700000004,"lng":121.5159431,"geocode_src":"osm:exact"},{"serial_no":"RPUNMLKKMHLGFIF78DA","county_code":"f","district":"樹林區","address":"新北市樹林區智街８２巷１８號八樓","road":null,"building_type":"華廈(10層含以下有電梯)","total_floors":10.0,"transfer_floor_num":8.0,"age_years":10.0,"rooms":3.0,"halls":2.0,"baths":2.0,"building_area_sqm":61.72,"total_price":6800000,"unit_price_per_ping":364214.862375,"deal_date":"2026-03-09","is_special_deal":true,"note":"該停車位位於法定空地上。親友、員工、共有人或其他特殊關係間之交易；"},{"serial_no":"RPVOMLKLLHLGFHF88DA","county_code":"f","district":"中和區","address":"新北市中和區中山路二段３３２巷４３號五樓","road":"中和區中山路二段","building_type":"住宅大樓(11層含以上有電梯)","total_floors":15.0,"transfer_floor_num":5.0,"age_years":9.1,"rooms":2.0,"halls":2.0,"baths":1.0,"building_area_sqm":126.74,"total_price":15500000,"unit_price_per_ping":486092.54375500005,"deal_date":"2026-03-08","is_special_deal":false,"note":null,"lat":25.0042113,"lng":121.4938803,"geocode_src":"osm:exact"},{"serial_no":"RPTNMLTJLHLGFEF98DA","county_code":"f","district":"淡水區","address":"新北市淡水區自強路１０號十樓","road":"淡水區自強路","building_type":"華廈(10層含以下有電梯)","total_floors":10.0,"transfer_floor_num":10.0,"age_years":18.3,"rooms":2.0,"halls":2.0,"baths":2.0,"building_area_sqm":97.5,"total_price":12800000,"unit_price_per_ping":468680.97416000004,"deal_date":"2026-03-08","is_special_deal":false,"note":"其他增建；","lat":25.124981763157894,"lng":121.46466029473685,"geocode_src":"osm:exact"},{"serial_no":"RPSNMLLKLHLGFHF48DA","county_code":"f","district":"中和區","address":"新北市中和區中和路３９０號十六樓","road":"中和區中和路","building_type":"住宅大樓(11層含以上有電梯)","total_floors":21.0,"transfer_floor_num":16.0,"age_years":19.2,"rooms":0.0,"halls":0.0,"baths":0.0,"building_area_sqm":55.59,"total_price":14000000,"unit_price_per_ping":832542.11754,"deal_date":"2026-03-08","is_special_deal":false,"note":"陽台外推；","lat":25.0023973,"lng":121.5110135,"geocode_src":"osm:exact"},{"serial_no":"RPTOMLSKLHLGFHF76DA","county_code":"f","district":"中和區","address":"新北市中和區景平路４８８號十五樓之三","road":"中和區景平路","building_type":"住宅大樓(11層含以上有電梯)","total_floors":19.0,"transfer_floor_num":15.0,"age_years":17.9,"rooms":0.0,"halls":1.0,"baths":1.0,"building_area_sqm":55.980000000000004,"total_price":13000000,"unit_price_per_ping":767689.22741,"deal_date":"2026-03-08","is_special_deal":false,"note":null,"lat":24.993784181208053,"lng":121.50463198657718,"geocode_src":"osm:exact"},{"serial_no":"RPVOMLOLLHLGFAF68EA","county_code":"f","district":"土城區","address":"新北市土城區學士路８２號三樓","road":"土城區學士路","building_type":"住宅大樓(11層含以上有電梯)","total_floors":18.0,"transfer_floor_num":3.0,"age_years":4.3,"rooms":2.0,"halls":2.0,"baths":1.0,"building_area_sqm":117.95,"total_price":22200000,"unit_price_per_ping":728568.56772,"deal_date":"2026-03-08","is_special_deal":false,"note":null,"lat":24.9805609,"lng":121.4507094,"geocode_src":"osm:exact"},{"serial_no":"RPRNMLOKMHLGFDF38DA","county_code":"f","district":"汐止區","address":"新北市汐止區八連路一段７８巷３號３樓","road":"汐止區八連路一段","building_type":"公寓(5樓含以下無電梯)","total_floors":4.0,"transfer_floor_num":3.0,"age_years":44.0,"rooms":3.0,"halls":2.0,"baths":2.0,"building_area_sqm":103.42,"total_price":7650000,"unit_price_per_ping":244528.91645000002,"deal_date":"2026-03-08","is_special_deal":false,"note":"陽台外推；","lat":25.0807604,"lng":121.6437977,"geocode_src":"osm:exact"},{"serial_no":"RPROMLTJMHLGFHF66DA","county_code":"f","district":"永和區","address":"新北市永和區中山路一段２６號五樓之二","road":"永和區中山路一段","building_type":"住宅大樓(11層含以上有電梯)","total_floors":14.0,"transfer_floor_num":5.0,"age_years":27.9,"rooms":1.0,"halls":2.0,"baths":1.0,"building_area_sqm":58.55,"total_price":13800000,"unit_price_per_ping":779160.30136,"deal_date":"2026-03-08","is_special_deal":false,"note":"陽台外推；其他增建；","lat":25.010637200000005,"lng":121.51370580000001,"geocode_src":"osm:exact"},{"serial_no":"RPQNMLPKMHLGFAF08DA","county_code":"f","district":"板橋區","address":"新北市板橋區四川路二段１２３號十一樓之６","road":"板橋區四川路二段","building_type":"住宅大樓(11層含以上有電梯)","total_floors":19.0,"transfer_floor_num":11.0,"age_years":25.9,"rooms":2.0,"halls":1.0,"baths":2.0,"building_area_sqm":52.95,"total_price":11900000,"unit_price_per_ping":742942.1209000001,"deal_date":"2026-03-08","is_special_deal":false,"note":"夾層；","lat":24.9940158,"lng":121.45114719999998,"geocode_src":"osm:exact"},{"serial_no":"RPOPMLRJMHLGFEF68EA","county_code":"f","district":"淡水區","address":"新北市淡水區大忠街５巷３之３號二樓","road":"淡水區大忠街","building_type":"公寓(5樓含以下無電梯)","total_floors":5.0,"transfer_floor_num":2.0,"age_years":42.2,"rooms":3.0,"halls":2.0,"baths":2.0,"building_area_sqm":85.28,"total_price":2650000,"unit_price_per_ping":102723.96309,"deal_date":"2026-03-08","is_special_deal":true,"note":"親友、員工、共有人或其他特殊關係間之交易；陽台外推；","lat":25.1766854,"lng":121.44375870000002,"geocode_src":"osm:exact"},{"serial_no":"RPPNMLRLLHLGFDF48DA","county_code":"f","district":"汐止區","address":"新北市汐止區伯爵街９６巷２１號３樓","road":"汐止區伯爵街","building_type":"公寓(5樓含以下無電梯)","total_floors":4.0,"transfer_floor_num":3.0,"age_years":29.1,"rooms":2.0,"halls":2.0,"baths":1.0,"building_area_sqm":69.38,"total_price":5800000,"unit_price_per_ping":276357.01443000004,"deal_date":"2026-03-08","is_special_deal":false,"note":"陽台外推；其他增建；","lat":25.0841165,"lng":121.637443,"geocode_src":"osm:exact"},{"serial_no":"RPWNMLSJMHLGFAF98EA","county_code":"f","district":"板橋區","address":"新北市板橋區四川路二段２５１號二十九樓","road":"板橋區四川路二段","building_type":"住宅大樓(11層含以上有電梯)","total_floors":29.0,"transfer_floor_num":29.0,"age_years":16.6,"rooms":3.0,"halls":2.0,"baths":2.0,"building_area_sqm":164.60000000000002,"total_price":31000000,"unit_price_per_ping":738046.2533150001,"deal_date":"2026-03-08","is_special_deal":false,"note":"其他增建；","lat":24.992893899999995,"lng":121.450472,"geocode_src":"osm:exact"},{"serial_no":"RPQNMLQKLHLGFCF28DA","county_code":"f","district":"新店區","address":"新北市新店區安德街１１６巷４６號三樓","road":"新店區安德街","building_type":"住宅大樓(11層含以上有電梯)","total_floors":12.0,"transfer_floor_num":3.0,"age_years":31.4,"rooms":4.0,"halls":2.0,"baths":2.0,"building_area_sqm":131.1,"total_price":13350000,"unit_price_per_ping":336631.39233500004,"deal_date":"2026-03-08","is_special_deal":false,"note":null,"lat":24.9612599,"lng":121.50818959999998,"geocode_src":"osm:exact"},{"serial_no":"RPQNMLTJMHLGFAF38DA","county_code":"f","district":"板橋區","address":"新北市板橋區南雅西路一段１２８之１號六樓","road":"板橋區南雅西路一段","building_type":"住宅大樓(11層含以上有電梯)","total_floors":24.0,"transfer_floor_num":6.0,"age_years":0.5,"rooms":4.0,"halls":2.0,"baths":2.0,"building_area_sqm":191.67000000000002,"total_price":38400000,"unit_price_per_ping":703401.626515,"deal_date":"2026-03-08","is_special_deal":false,"note":null,"lat":25.0061349,"lng":121.453152,"geocode_src":"osm:road"},{"serial_no":"RPPNMLOKMHLGFBF08EA","county_code":"f","district":"五股區","address":"新北市五股區西雲路１１號四樓","road":"五股區西雲路","building_type":"公寓(5樓含以下無電梯)","total_floors":4.0,"transfer_floor_num":4.0,"age_years":44.2,"rooms":0.0,"halls":0.0,"baths":0.0,"building_area_sqm":73.87,"total_price":3100000,"unit_price_per_ping":138730.57331,"deal_date":"2026-03-08","is_special_deal":true,"note":"瑕疵物件；","lat":25.0901591,"lng":121.4427419,"geocode_src":"osm:exact"},{"serial_no":"RPUNMLMJMHLGFEF48DA","county_code":"f","district":"淡水區","address":"新北市淡水區英專路１７６號七樓","road":"淡水區英專路","building_type":"住宅大樓(11層含以上有電梯)","total_floors":13.0,"transfer_floor_num":7.0,"age_years":21.8,"rooms":3.0,"halls":1.0,"baths":2.0,"building_area_sqm":131.88,"total_price":5200000,"unit_price_per_ping":130347.10255000001,"deal_date":"2026-03-08","is_special_deal":false,"note":"增值稅17441元由買方繳納","lat":25.1728665,"lng":121.44815600000001,"geocode_src":"osm:exact"},{"serial_no":"RPVNMLSJMHLGFHF86DA","county_code":"f","district":"中和區","address":"新北市中和區民享街１１２號二樓","road":"中和區民享街","building_type":"公寓(5樓含以下無電梯)","total_floors":5.0,"transfer_floor_num":null,"age_years":45.8,"rooms":3.0,"halls":2.0,"baths":2.0,"building_area_sqm":99.17,"total_price":12360000,"unit_price_per_ping":412013.20769,"deal_date":"2026-03-08","is_special_deal":false,"note":"陽台外推；","lat":24.9992811,"lng":121.47453090000002,"geocode_src":"osm:exact"},{"serial_no":"RPTNMLKKLHLGFEF18DA","county_code":"f","district":"三芝區","address":"新北市三芝區樂全街１００號六樓","road":"三芝區樂全街","building_type":"住宅大樓(11層含以上有電梯)","total_floors":16.0,"transfer_floor_num":6.0,"age_years":29.8,"rooms":1.0,"halls":0.0,"baths":1.0,"building_area_sqm":41.14,"total_price":1850000,"unit_price_per_ping":148654.53988,"deal_date":"2026-03-08","is_special_deal":false,"note":null,"lat":25.2579493,"lng":121.4878866,"geocode_src":"osm:exact"},{"serial_no":"RPSNMLNKMHLGFIF88DA","county_code":"f","district":"樹林區","address":"新北市樹林區學成路７５６號十二樓","road":"樹林區學成路","building_type":"住宅大樓(11層含以上有電梯)","total_floors":14.0,"transfer_floor_num":12.0,"age_years":16.4,"rooms":3.0,"halls":2.0,"baths":2.0,"building_area_sqm":198.9,"total_price":26360000,"unit_price_per_ping":489626.42792000005,"deal_date":"2026-03-07","is_special_deal":false,"note":null,"lat":24.9462258,"lng":121.3837075,"geocode_src":"osm:exact"},{"serial_no":"RPQNMLRKLHLGFHF88DA","county_code":"f","district":"中和區","address":"新北市中和區水源路３４巷１２號七樓之３","road":"中和區水源路","building_type":"住宅大樓(11層含以上有電梯)","total_floors":14.0,"transfer_floor_num":7.0,"age_years":0.5,"rooms":2.0,"halls":1.0,"baths":1.0,"building_area_sqm":78.56,"total_price":17500000,"unit_price_per_ping":736396.6666,"deal_date":"2026-03-07","is_special_deal":false,"note":"本案拆算土地及建物價格:土地總價新台幣12075000元整；建物總價新台幣5425000元整","lat":25.0033065,"lng":121.5048997,"geocode_src":"osm:lane"},{"serial_no":"RPVOMLTJMHLGFIF17DA","county_code":"f","district":"鶯歌區","address":"新北市鶯歌區鳳吉五街１４號三樓","road":"鶯歌區鳳吉五街","building_type":"公寓(5樓含以下無電梯)","total_floors":5.0,"transfer_floor_num":3.0,"age_years":44.3,"rooms":3.0,"halls":2.0,"baths":1.0,"building_area_sqm":81.62,"total_price":6300000,"unit_price_per_ping":255163.62679500002,"deal_date":"2026-03-07","is_special_deal":false,"note":"後陽台外推。陽台外推；","lat":24.972316,"lng":121.326803,"geocode_src":"osm:exact"},{"serial_no":"RPWOMLOLLHLGFAF78EA","county_code":"f","district":"土城區","address":"新北市土城區學府路一段１２６巷４６號八樓","road":"土城區學府路一段","building_type":"住宅大樓(11層含以上有電梯)","total_floors":16.0,"transfer_floor_num":8.0,"age_years":31.1,"rooms":2.0,"halls":2.0,"baths":1.0,"building_area_sqm":85.04,"total_price":15380000,"unit_price_per_ping":597871.0519600001,"deal_date":"2026-03-07","is_special_deal":false,"note":"陽台外推；其他增建；","lat":24.9887646,"lng":121.4548052,"geocode_src":"osm:exact"},{"serial_no":"RPVUMLKKMHLGFBF88DA","county_code":"f","district":"林口區","address":"新北市林口區文化三路一段６１７巷６９號二樓","road":"林口區文化三路一段","building_type":"住宅大樓(11層含以上有電梯)","total_floors":15.0,"transfer_floor_num":2.0,"age_years":8.7,"rooms":2.0,"halls":1.0,"baths":1.0,"building_area_sqm":125.71000000000001,"total_price":16500000,"unit_price_per_ping":433897.50439,"deal_date":"2026-03-07","is_special_deal":false,"note":null,"lat":25.0779166,"lng":121.36977049999999,"geocode_src":"osm:exact"},{"serial_no":"RPQQMLSJMHLGFBF68DA","county_code":"f","district":"新莊區","address":"新北市新莊區榮華路一段１５號十七樓","road":"新莊區榮華路一段","building_type":"住宅大樓(11層含以上有電梯)","total_floors":17.0,"transfer_floor_num":17.0,"age_years":6.2,"rooms":2.0,"halls":2.0,"baths":1.0,"building_area_sqm":74.22999999999999,"total_price":16660000,"unit_price_per_ping":741943.7738300001,"deal_date":"2026-03-07","is_special_deal":false,"note":null,"lat":25.0555032,"lng":121.457646,"geocode_src":"osm:exact"},{"serial_no":"RPSNMLKMLHLGFEF28DA","county_code":"f","district":"淡水區","address":"新北市淡水區淡金路６７號十四樓之２","road":"淡水區淡金路","building_type":"住宅大樓(11層含以上有電梯)","total_floors":22.0,"transfer_floor_num":14.0,"age_years":23.8,"rooms":1.0,"halls":1.0,"baths":1.0,"building_area_sqm":59.0,"total_price":4950000,"unit_price_per_ping":457804.94151000003,"deal_date":"2026-03-07","is_special_deal":false,"note":"陽台外推；","lat":25.1616404,"lng":121.4558653,"geocode_src":"osm:exact"},{"serial_no":"RPQNMLRJLHLGFCF28DA","county_code":"f","district":"新店區","address":"新北市新店區新店路２６２之１１號十六樓","road":"新店區新店路","building_type":"住宅大樓(11層含以上有電梯)","total_floors":19.0,"transfer_floor_num":16.0,"age_years":16.9,"rooms":0.0,"halls":2.0,"baths":1.0,"building_area_sqm":48.63,"total_price":11780000,"unit_price_per_ping":800783.4410450001,"deal_date":"2026-03-07","is_special_deal":false,"note":null,"lat":24.9579936,"lng":121.5377161,"geocode_src":"osm:exact"},{"serial_no":"RPRPMLRLLHLGFBF68DA","county_code":"f","district":"新莊區","address":"新北市新莊區中平路３７７巷３３號二樓","road":"新莊區中平路","building_type":"住宅大樓(11層含以上有電梯)","total_floors":11.0,"transfer_floor_num":2.0,"age_years":19.8,"rooms":3.0,"halls":2.0,"baths":1.0,"building_area_sqm":99.36,"total_price":16980000,"unit_price_per_ping":564938.8217900001,"deal_date":"2026-03-07","is_special_deal":false,"note":"陽台外推；其他增建；","lat":25.052395,"lng":121.4428002,"geocode_src":"osm:exact"},{"serial_no":"RPVOMLKKMHLGFDF48DA","county_code":"f","district":"汐止區","address":"新北市汐止區明峰街２６６號十四樓","road":"汐止區明峰街","building_type":"住宅大樓(11層含以上有電梯)","total_floors":20.0,"transfer_floor_num":14.0,"age_years":1.9,"rooms":2.0,"halls":2.0,"baths":1.0,"building_area_sqm":90.07,"total_price":19060000,"unit_price_per_ping":699547.081205,"deal_date":"2026-03-07","is_special_deal":false,"note":null,"lat":25.0686236,"lng":121.6260874,"geocode_src":"osm:exact"},{"serial_no":"RPRNMLKLLHLGFFF18DA","county_code":"f","district":"瑞芳區","address":"新北市瑞芳區岳王路３７號三樓","road":"瑞芳區岳王路","building_type":"公寓(5樓含以下無電梯)","total_floors":4.0,"transfer_floor_num":3.0,"age_years":null,"rooms":4.0,"halls":1.0,"baths":1.0,"building_area_sqm":100.28,"total_price":3450000,"unit_price_per_ping":113732.22714,"deal_date":"2026-03-06","is_special_deal":false,"note":null,"lat":25.1113016,"lng":121.8078516,"geocode_src":"osm:exact"},{"serial_no":"RPWNMLKKMHLGFEF68EA","county_code":"f","district":"淡水區","address":"新北市淡水區學府路１２８巷８號三樓之１","road":"淡水區學府路","building_type":"公寓(5樓含以下無電梯)","total_floors":5.0,"transfer_floor_num":3.0,"age_years":35.0,"rooms":1.0,"halls":0.0,"baths":1.0,"building_area_sqm":30.17,"total_price":2730000,"unit_price_per_ping":299130.567295,"deal_date":"2026-03-05","is_special_deal":false,"note":null,"lat":25.1723284,"lng":121.4506638,"geocode_src":"osm:exact"},{"serial_no":"RPRNMLOKMHLGFHF78DA","county_code":"f","district":"中和區","address":"新北市中和區中山路二段１１１號四樓","road":"中和區中山路二段","building_type":"公寓(5樓含以下無電梯)","total_floors":4.0,"transfer_floor_num":4.0,"age_years":49.6,"rooms":2.0,"halls":2.0,"baths":1.0,"building_area_sqm":68.71,"total_price":8040000,"unit_price_per_ping":386823.12599000003,"deal_date":"2026-03-05","is_special_deal":true,"note":"親友、員工、共有人或其他特殊關係間之交易；","lat":25.0037592,"lng":121.5031112,"geocode_src":"osm:exact"},{"serial_no":"RPQNMLKKMHLGFBF67DA","county_code":"f","district":"新莊區","address":"新北市新莊區中誠街１２７號二樓","road":"新莊區中誠街","building_type":"公寓(5樓含以下無電梯)","total_floors":4.0,"transfer_floor_num":null,"age_years":48.5,"rooms":2.0,"halls":2.0,"baths":1.0,"building_area_sqm":75.92,"total_price":9000000,"unit_price_per_ping":391887.58861000004,"deal_date":"2026-03-05","is_special_deal":false,"note":"陽台外推；","lat":25.0475402,"lng":121.4492229,"geocode_src":"osm:exact"},{"serial_no":"RPVOMLKMLHLGFHF98DA","county_code":"f","district":"中和區","address":"新北市中和區中山路二段３０５號九樓之九","road":"中和區中山路二段","building_type":"住宅大樓(11層含以上有電梯)","total_floors":12.0,"transfer_floor_num":9.0,"age_years":18.1,"rooms":1.0,"halls":1.0,"baths":1.0,"building_area_sqm":81.17,"total_price":13900000,"unit_price_per_ping":643107.4139,"deal_date":"2026-03-05","is_special_deal":false,"note":"分開計價:房屋款1240萬元/車位150萬元","lat":25.002018700000004,"lng":121.49518939999999,"geocode_src":"osm:exact"},{"serial_no":"RPUNMLTJMHLGFAF78DA","county_code":"f","district":"板橋區","address":"新北市板橋區三民路二段２０２之１５號","road":"板橋區三民路二段","building_type":"公寓(5樓含以下無電梯)","total_floors":5.0,"transfer_floor_num":null,"age_years":41.5,"rooms":0.0,"halls":0.0,"baths":1.0,"building_area_sqm":123.54,"total_price":26000000,"unit_price_per_ping":695728.89953,"deal_date":"2026-03-05","is_special_deal":false,"note":"一樓: 0房0廳1衛B1: 無隔間","lat":25.01366706666667,"lng":121.47884448333333,"geocode_src":"osm:exact"},{"serial_no":"RPOOMLQLLHLGFCF28DA","county_code":"f","district":"新店區","address":"新北市新店區文記街１０號十六樓","road":"新店區文記街","building_type":"住宅大樓(11層含以上有電梯)","total_floors":24.0,"transfer_floor_num":16.0,"age_years":0.7,"rooms":3.0,"halls":2.0,"baths":2.0,"building_area_sqm":211.09,"total_price":43600000,"unit_price_per_ping":960942.112725,"deal_date":"2026-03-05","is_special_deal":false,"note":null},{"serial_no":"RPTOMLKKMHLGFAF97DA","county_code":"f","district":"板橋區","address":"新北市板橋區民治街５１巷２號二樓","road":"板橋區民治街","building_type":"公寓(5樓含以下無電梯)","total_floors":4.0,"transfer_floor_num":null,"age_years":null,"rooms":2.0,"halls":2.0,"baths":2.0,"building_area_sqm":79.76,"total_price":12150000,"unit_price_per_ping":503576.84062000003,"deal_date":"2026-03-05","is_special_deal":false,"note":null,"lat":25.033645,"lng":121.4793893,"geocode_src":"osm:exact"},{"serial_no":"RPSNMLNKMHLGFGF68DA","county_code":"f","district":"三重區","address":"新北市三重區中華路７５巷３號二樓","road":"三重區中華路","building_type":"公寓(5樓含以下無電梯)","total_floors":4.0,"transfer_floor_num":null,"age_years":51.1,"rooms":4.0,"halls":0.0,"baths":2.0,"building_area_sqm":96.48,"total_price":10800000,"unit_price_per_ping":370049.5729,"deal_date":"2026-03-05","is_special_deal":false,"note":"二等親買賣","lat":25.062565,"lng":121.4838767,"geocode_src":"osm:exact"},{"serial_no":"RPQOMLLMLHLGFIF68DA","county_code":"f","district":"樹林區","address":"新北市樹林區光華街１４巷８號二樓","road":"樹林區光華街","building_type":"華廈(10層含以下有電梯)","total_floors":10.0,"transfer_floor_num":2.0,"age_years":33.0,"rooms":3.0,"halls":2.0,"baths":1.0,"building_area_sqm":111.75999999999999,"total_price":11500000,"unit_price_per_ping":340161.970715,"deal_date":"2026-03-05","is_special_deal":false,"note":"陽台外推；","lat":25.0032889,"lng":121.41306260000002,"geocode_src":"osm:exact"},{"serial_no":"RPVQMLQKMHLGFEF86EA","county_code":"f","district":"淡水區","address":"新北市淡水區淡金路１６巷３號七樓","road":"淡水區淡金路","building_type":"住宅大樓(11層含以上有電梯)","total_floors":17.0,"transfer_floor_num":7.0,"age_years":32.2,"rooms":1.0,"halls":1.0,"baths":1.0,"building_area_sqm":47.03,"total_price":5680000,"unit_price_per_ping":399252.87759000005,"deal_date":"2026-03-05","is_special_deal":false,"note":"陽台外推；","lat":25.1601898,"lng":121.4574121,"geocode_src":"osm:exact"},{"serial_no":"RPROMLSKLHLGFHF56DA","county_code":"f","district":"永和區","address":"新北市永和區水源街３０巷１５號二樓","road":"永和區水源街","building_type":"公寓(5樓含以下無電梯)","total_floors":4.0,"transfer_floor_num":2.0,"age_years":52.4,"rooms":2.0,"halls":1.0,"baths":2.0,"building_area_sqm":83.25,"total_price":9316600,"unit_price_per_ping":369953.705135,"deal_date":"2026-03-05","is_special_deal":true,"note":"親友、員工、共有人或其他特殊關係間之交易；","lat":25.0050115,"lng":121.5111042,"geocode_src":"osm:exact"},{"serial_no":"RPSPNLNKMHLGFBF48DA","county_code":"f","district":"林口區","address":"新北市林口區中華路５０５號十四樓","road":"林口區中華路","building_type":"住宅大樓(11層含以上有電梯)","total_floors":14.0,"transfer_floor_num":14.0,"age_years":3.8,"rooms":2.0,"halls":1.0,"baths":1.0,"building_area_sqm":76.25,"total_price":9750000,"unit_price_per_ping":422707.422165,"deal_date":"2026-03-04","is_special_deal":false,"note":"其他增建:欄杆增建","lat":25.0934316,"lng":121.37929740000001,"geocode_src":"osm:exact"},{"serial_no":"RPPNMLQKMHLGFCF28DA","county_code":"f","district":"新店區","address":"新北市新店區安祥路１３２號","road":"新店區安祥路","building_type":"住宅大樓(11層含以上有電梯)","total_floors":16.0,"transfer_floor_num":1.0,"age_years":31.4,"rooms":3.0,"halls":2.0,"baths":2.0,"building_area_sqm":137.76,"total_price":8200000,"unit_price_per_ping":196773.54634,"deal_date":"2026-03-04","is_special_deal":true,"note":"親友、員工、共有人或其他特殊關係間之交易；","lat":24.9561934,"lng":121.4745058,"geocode_src":"osm:exact"},{"serial_no":"RPQNMLNKMHLGFHF58DA","county_code":"f","district":"永和區","address":"新北市永和區環河西路二段２２９巷１號十八樓之一","road":"永和區環河西路二段","building_type":"住宅大樓(11層含以上有電梯)","total_floors":23.0,"transfer_floor_num":18.0,"age_years":26.8,"rooms":0.0,"halls":1.0,"baths":1.0,"building_area_sqm":26.1,"total_price":5950000,"unit_price_per_ping":753616.500665,"deal_date":"2026-03-04","is_special_deal":false,"note":"其他增建為玻璃氣密窗其他增建；","lat":25.010024,"lng":121.50118960000002,"geocode_src":"osm:exact"},{"serial_no":"RPPNMLPKMHLGFCF18DA","county_code":"f","district":"新店區","address":"新北市新店區北新路二段２９巷１弄６號","road":"新店區北新路二段","building_type":"公寓(5樓含以下無電梯)","total_floors":4.0,"transfer_floor_num":1.0,"age_years":57.1,"rooms":3.0,"halls":1.0,"baths":2.0,"building_area_sqm":48.48,"total_price":7200000,"unit_price_per_ping":490958.65927500004,"deal_date":"2026-03-04","is_special_deal":true,"note":"親友、員工、共有人或其他特殊關係間之交易；","lat":24.9724262,"lng":121.5422035,"geocode_src":"osm:exact"},{"serial_no":"RPWNMLKKMHLGFGF88EA","county_code":"f","district":"蘆洲區","address":"新北市蘆洲區信義路２９４號五樓","road":"蘆洲區信義路","building_type":"華廈(10層含以下有電梯)","total_floors":7.0,"transfer_floor_num":5.0,"age_years":5.7,"rooms":4.0,"halls":2.0,"baths":2.0,"building_area_sqm":145.44,"total_price":24000000,"unit_price_per_ping":545510.7233450001,"deal_date":"2026-03-04","is_special_deal":false,"note":"其他增建；","lat":25.0875364,"lng":121.4776915,"geocode_src":"osm:exact"},{"serial_no":"RPUOMLTJLHLGFHF86DA","county_code":"f","district":"中和區","address":"新北市中和區中山路二段５７７之２號九樓","road":"中和區中山路二段","building_type":"住宅大樓(11層含以上有電梯)","total_floors":13.0,"transfer_floor_num":9.0,"age_years":30.8,"rooms":2.0,"halls":2.0,"baths":1.0,"building_area_sqm":60.269999999999996,"total_price":10680000,"unit_price_per_ping":585795.019355,"deal_date":"2026-03-04","is_special_deal":false,"note":"陽台外推；其他增建；","lat":25.005653,"lng":121.4804529,"geocode_src":"osm:exact"},{"serial_no":"RPUOMLQLLHLGFBF78DA","county_code":"f","district":"泰山區","address":"新北市泰山區明志路三段１４２巷８號四樓之三十九","road":"泰山區明志路三段","building_type":"華廈(10層含以下有電梯)","total_floors":9.0,"transfer_floor_num":4.0,"age_years":27.4,"rooms":1.0,"halls":0.0,"baths":1.0,"building_area_sqm":26.119999999999997,"total_price":3400000,"unit_price_per_ping":430307.42188000004,"deal_date":"2026-03-04","is_special_deal":false,"note":null,"lat":25.0400179,"lng":121.424519,"geocode_src":"osm:exact"},{"serial_no":"RPQNMLTJMHLGFBF58EA","county_code":"f","district":"新莊區","address":"新北市新莊區立信三街６１號二樓","road":"新莊區立信三街","building_type":"住宅大樓(11層含以上有電梯)","total_floors":13.0,"transfer_floor_num":2.0,"age_years":20.9,"rooms":2.0,"halls":2.0,"baths":1.0,"building_area_sqm":101.6,"total_price":15980000,"unit_price_per_ping":519943.782155,"deal_date":"2026-03-04","is_special_deal":false,"note":"陽台外推；","lat":25.051931599999996,"lng":121.4425229,"geocode_src":"osm:exact"},{"serial_no":"RPXNMLLJMHLGFCF48DA","county_code":"f","district":"新店區","address":"新北市新店區華興街３８巷１０號三樓","road":"新店區華興街","building_type":"公寓(5樓含以下無電梯)","total_floors":4.0,"transfer_floor_num":3.0,"age_years":53.2,"rooms":2.0,"halls":2.0,"baths":1.0,"building_area_sqm":93.2,"total_price":14000000,"unit_price_per_ping":496578.49377500004,"deal_date":"2026-03-04","is_special_deal":false,"note":"陽台外推；其他增建；","lat":24.969452,"lng":121.537094,"geocode_src":"osm:exact"},{"serial_no":"RPUQMLKKMHLGFBF38DA","county_code":"f","district":"林口區","address":"新北市林口區文化三路二段４２號十八樓之一","road":"林口區文化三路二段","building_type":"住宅大樓(11層含以上有電梯)","total_floors":19.0,"transfer_floor_num":18.0,"age_years":13.6,"rooms":3.0,"halls":2.0,"baths":3.0,"building_area_sqm":285.09,"total_price":38000000,"unit_price_per_ping":440631.38843500003,"deal_date":"2026-03-03","is_special_deal":false,"note":null,"lat":25.0794935,"lng":121.37457490000001,"geocode_src":"osm:exact"},{"serial_no":"RPVNMLQKMHLGFIF96EA","county_code":"f","district":"樹林區","address":"新北市樹林區中山路一段６０號二樓","road":"樹林區中山路一段","building_type":"公寓(5樓含以下無電梯)","total_floors":5.0,"transfer_floor_num":2.0,"age_years":43.2,"rooms":2.0,"halls":2.0,"baths":1.0,"building_area_sqm":76.6,"total_price":10000000,"unit_price_per_ping":431563.62018,"deal_date":"2026-03-03","is_special_deal":false,"note":"其他增建；","lat":24.9919466,"lng":121.4235872,"geocode_src":"osm:exact"},{"serial_no":"RPUOMLTJMHLGFAF88DA","county_code":"f","district":"板橋區","address":"新北市板橋區文化路二段１８２巷３弄３３號二十樓之一","road":"板橋區文化路二段","building_type":"住宅大樓(11層含以上有電梯)","total_floors":21.0,"transfer_floor_num":20.0,"age_years":29.4,"rooms":1.0,"halls":2.0,"baths":1.0,"building_area_sqm":110.3,"total_price":23000000,"unit_price_per_ping":689328.89977,"deal_date":"2026-03-03","is_special_deal":false,"note":null,"lat":25.0287033,"lng":121.4723615,"geocode_src":"osm:exact"},{"serial_no":"RPRNMLLMLHLGFAF87DA","county_code":"f","district":"土城區","address":"新北市土城區裕生路８３巷１６弄１０號二樓","road":"土城區裕生路","building_type":"公寓(5樓含以下無電梯)","total_floors":5.0,"transfer_floor_num":2.0,"age_years":42.4,"rooms":3.0,"halls":2.0,"baths":1.0,"building_area_sqm":81.18,"total_price":11070000,"unit_price_per_ping":450790.06574000005,"deal_date":"2026-03-03","is_special_deal":false,"note":"陽台外推；其他增建；","lat":24.9837944,"lng":121.44722140000002,"geocode_src":"osm:exact"},{"serial_no":"RPTOMLSJMHLGFGF66DA","county_code":"f","district":"三重區","address":"新北市三重區成功路７４號三樓","road":"三重區成功路","building_type":"住宅大樓(11層含以上有電梯)","total_floors":12.0,"transfer_floor_num":3.0,"age_years":33.7,"rooms":2.0,"halls":1.0,"baths":1.0,"building_area_sqm":56.019999999999996,"total_price":10100000,"unit_price_per_ping":596009.895005,"deal_date":"2026-03-03","is_special_deal":false,"note":null,"lat":25.0509811,"lng":121.4883559,"geocode_src":"osm:exact"},{"serial_no":"RPTNMLRJMHLGFCF68DA","county_code":"f","district":"新店區","address":"新北市新店區安和路三段４７巷１號十五樓之二","road":"新店區安和路三段","building_type":"住宅大樓(11層含以上有電梯)","total_floors":16.0,"transfer_floor_num":15.0,"age_years":31.3,"rooms":3.0,"halls":2.0,"baths":2.0,"building_area_sqm":104.42999999999999,"total_price":16000000,"unit_price_per_ping":506489.237205,"deal_date":"2026-03-03","is_special_deal":false,"note":null,"lat":24.9824357,"lng":121.5176619,"geocode_src":"osm:exact"},{"serial_no":"RPQNMLKKMHLGFAF57DA","county_code":"f","district":"板橋區","address":"新北市板橋區民生路二段１１９號七樓","road":"板橋區民生路二段","building_type":"住宅大樓(11層含以上有電梯)","total_floors":12.0,"transfer_floor_num":7.0,"age_years":32.6,"rooms":1.0,"halls":0.0,"baths":1.0,"building_area_sqm":36.9,"total_price":7130000,"unit_price_per_ping":638760.3066250001,"deal_date":"2026-03-03","is_special_deal":false,"note":"陽台外推；其他增建；","lat":25.018421657894738,"lng":121.47064381052633,"geocode_src":"osm:exact"},{"serial_no":"RPQOMLLJMHLGFHF38DA","county_code":"f","district":"中和區","address":"新北市中和區民安街１０３號九樓","road":"中和區民安街","building_type":"住宅大樓(11層含以上有電梯)","total_floors":21.0,"transfer_floor_num":9.0,"age_years":8.6,"rooms":3.0,"halls":2.0,"baths":3.0,"building_area_sqm":165.72000000000003,"total_price":27000000,"unit_price_per_ping":567666.094415,"deal_date":"2026-03-03","is_special_deal":false,"note":null,"lat":24.9994426,"lng":121.4778221,"geocode_src":"osm:exact"},{"serial_no":"RPSNMLRKMHLGFAF58EA","county_code":"f","district":"板橋區","address":"新北市板橋區中正路２７５巷１弄６號三樓","road":"板橋區中正路","building_type":"公寓(5樓含以下無電梯)","total_floors":4.0,"transfer_floor_num":3.0,"age_years":53.4,"rooms":3.0,"halls":2.0,"baths":2.0,"building_area_sqm":64.8,"total_price":11700000,"unit_price_per_ping":596879.31646,"deal_date":"2026-03-02","is_special_deal":false,"note":"陽台外推；其他增建；","lat":25.0184503,"lng":121.4547961,"geocode_src":"osm:exact"},{"serial_no":"RPQNMLTJMHLGFBF48DA","county_code":"f","district":"新莊區","address":"新北市新莊區中港路中慶巷４２號三樓","road":"新莊區中港路","building_type":"公寓(5樓含以下無電梯)","total_floors":5.0,"transfer_floor_num":3.0,"age_years":38.5,"rooms":3.0,"halls":2.0,"baths":2.0,"building_area_sqm":82.59,"total_price":8800000,"unit_price_per_ping":352231.39175,"deal_date":"2026-03-02","is_special_deal":false,"note":"陽台外推；其他增建；","lat":25.053824,"lng":121.4486702,"geocode_src":"osm:exact"},{"serial_no":"RPRNMLQKMHLGFAF28DA","county_code":"f","district":"土城區","address":"新北市土城區千歲路３１號四樓","road":"土城區千歲路","building_type":"華廈(10層含以下有電梯)","total_floors":10.0,"transfer_floor_num":4.0,"age_years":0.5,"rooms":0.0,"halls":0.0,"baths":0.0,"building_area_sqm":433.94000000000005,"total_price":47043300,"unit_price_per_ping":404968.579855,"deal_date":"2026-03-02","is_special_deal":false,"note":null,"lat":24.969840700000002,"lng":121.44090569999999,"geocode_src":"osm:road"},{"serial_no":"RPXNMLQKMHLGFEF76EA","county_code":"f","district":"淡水區","address":"新北市淡水區新市一路一段６２號六樓","road":"淡水區新市一路一段","building_type":"住宅大樓(11層含以上有電梯)","total_floors":20.0,"transfer_floor_num":6.0,"age_years":15.0,"rooms":3.0,"halls":2.0,"baths":2.0,"building_area_sqm":133.01999999999998,"total_price":10500000,"unit_price_per_ping":280436.35312000004,"deal_date":"2026-03-02","is_special_deal":false,"note":null,"lat":25.18631,"lng":121.43048360000002,"geocode_src":"osm:exact"},{"serial_no":"RPVOMLSKLHLGFAF88DA","county_code":"f","district":"板橋區","address":"新北市板橋區中山路二段５５３巷４弄２１號四樓","road":"板橋區中山路二段","building_type":"公寓(5樓含以下無電梯)","total_floors":5.0,"transfer_floor_num":null,"age_years":null,"rooms":3.0,"halls":2.0,"baths":2.0,"building_area_sqm":98.95,"total_price":9820000,"unit_price_per_ping":328072.71497000003,"deal_date":"2026-03-02","is_special_deal":true,"note":"親友、員工、共有人或其他特殊關係間之交易；","lat":25.0230543,"lng":121.4835965,"geocode_src":"osm:exact"},{"serial_no":"RPTOMLNLLHLGFCF48DA","county_code":"f","district":"新店區","address":"新北市新店區新店路２６２之１５號十四樓","road":"新店區新店路","building_type":"住宅大樓(11層含以上有電梯)","total_floors":19.0,"transfer_floor_num":14.0,"age_years":16.9,"rooms":1.0,"halls":1.0,"baths":1.0,"building_area_sqm":49.24,"total_price":12800000,"unit_price_per_ping":859342.116535,"deal_date":"2026-03-02","is_special_deal":false,"note":"夾層；其他增建；","lat":24.9579625,"lng":121.5377369,"geocode_src":"osm:exact"},{"serial_no":"RPXOMLLMLHLGFGF56DA","county_code":"f","district":"三重區","address":"新北市三重區集美街７５巷３９號","road":"三重區集美街","building_type":"公寓(5樓含以下無電梯)","total_floors":4.0,"transfer_floor_num":null,"age_years":49.8,"rooms":3.0,"halls":2.0,"baths":1.0,"building_area_sqm":77.0,"total_price":10800000,"unit_price_per_ping":463669.40410000004,"deal_date":"2026-03-02","is_special_deal":false,"note":"陽台外推；其他增建；","lat":25.052673,"lng":121.4876871,"geocode_src":"osm:exact"},{"serial_no":"RPPNMLNJLHLGFEF97DA","county_code":"f","district":"淡水區","address":"新北市淡水區沙崙路二段８７１號十一樓","road":"淡水區沙崙路二段","building_type":"住宅大樓(11層含以上有電梯)","total_floors":22.0,"transfer_floor_num":11.0,"age_years":2.6,"rooms":2.0,"halls":2.0,"baths":2.0,"building_area_sqm":116.24000000000001,"total_price":9400000,"unit_price_per_ping":267328.915595,"deal_date":"2026-03-02","is_special_deal":false,"note":null,"lat":25.2005764,"lng":121.4325312,"geocode_src":"osm:exact"},{"serial_no":"RPQNMLNKMHLGFGF48DA","county_code":"f","district":"蘆洲區","address":"新北市蘆洲區民族路３３６巷２７弄３號","road":"蘆洲區民族路","building_type":"公寓(5樓含以下無電梯)","total_floors":3.0,"transfer_floor_num":1.0,"age_years":45.6,"rooms":0.0,"halls":0.0,"baths":0.0,"building_area_sqm":85.29,"total_price":13800000,"unit_price_per_ping":534879.318785,"deal_date":"2026-03-01","is_special_deal":false,"note":"其他增建；","lat":25.091393,"lng":121.4776504,"geocode_src":"osm:exact"},{"serial_no":"RPVNMLOKMHLGFGF56EA","county_code":"f","district":"蘆洲區","address":"新北市蘆洲區民義街４７號四樓","road":"蘆洲區民義街","building_type":"公寓(5樓含以下無電梯)","total_floors":5.0,"transfer_floor_num":4.0,"age_years":44.5,"rooms":3.0,"halls":2.0,"baths":2.0,"building_area_sqm":99.0,"total_price":10800000,"unit_price_per_ping":360631.391435,"deal_date":"2026-03-01","is_special_deal":false,"note":"陽台外推；其他增建；","lat":25.0894796,"lng":121.47232979999998,"geocode_src":"osm:exact"},{"serial_no":"RPUNMLQLLHLGFGF56DA","county_code":"f","district":"蘆洲區","address":"新北市蘆洲區集賢路２２４巷２３號九樓","road":"蘆洲區集賢路","building_type":"住宅大樓(11層含以上有電梯)","total_floors":12.0,"transfer_floor_num":9.0,"age_years":29.8,"rooms":2.0,"halls":2.0,"baths":1.0,"building_area_sqm":79.93,"total_price":13300000,"unit_price_per_ping":550069.40086,"deal_date":"2026-03-01","is_special_deal":false,"note":"陽台外推；","lat":25.0869388,"lng":121.48164230000002,"geocode_src":"osm:exact"},{"serial_no":"RPPNMLNKMHLGFBF97EA","county_code":"f","district":"五股區","address":"新北市五股區成洲五路４８號八樓","road":"五股區成洲五路","building_type":"住宅大樓(11層含以上有電梯)","total_floors":14.0,"transfer_floor_num":8.0,"age_years":8.4,"rooms":2.0,"halls":2.0,"baths":2.0,"building_area_sqm":128.87,"total_price":14600000,"unit_price_per_ping":436780.14891000005,"deal_date":"2026-03-01","is_special_deal":false,"note":null,"lat":25.1022116,"lng":121.4530293,"geocode_src":"osm:exact"},{"serial_no":"RPXSMLQKJHLGFAF56EA","county_code":"f","district":"土城區","address":"新北市土城區莊園街２５２號九樓","road":"土城區莊園街","building_type":"住宅大樓(11層含以上有電梯)","total_floors":24.0,"transfer_floor_num":9.0,"age_years":1.0,"rooms":3.0,"halls":1.0,"baths":1.0,"building_area_sqm":88.67,"total_price":10500000,"unit_price_per_ping":391461.142345,"deal_date":"2026-03-01","is_special_deal":true,"note":"親友、員工、共有人或其他特殊關係間之交易；","lat":24.9815417,"lng":121.446423,"geocode_src":"osm:road"},{"serial_no":"RPROMLKLLHLGFBF87DA","county_code":"f","district":"新莊區","address":"新北市新莊區中港路５９１巷３２號四樓","road":"新莊區中港路","building_type":"公寓(5樓含以下無電梯)","total_floors":5.0,"transfer_floor_num":4.0,"age_years":39.9,"rooms":3.0,"halls":2.0,"baths":2.0,"building_area_sqm":89.45,"total_price":11200000,"unit_price_per_ping":413917.33985000005,"deal_date":"2026-03-01","is_special_deal":false,"note":"陽台外推；其他增建；","lat":25.0523916,"lng":121.4496492,"geocode_src":"osm:exact"},{"serial_no":"RPVPMLQLLHLGFBF98DA","county_code":"f","district":"五股區","address":"新北市五股區芳洲八路９８號十三樓","road":"五股區芳洲八路","building_type":"住宅大樓(11層含以上有電梯)","total_floors":15.0,"transfer_floor_num":13.0,"age_years":12.1,"rooms":2.0,"halls":2.0,"baths":2.0,"building_area_sqm":148.3,"total_price":17880000,"unit_price_per_ping":427844.61205500003,"deal_date":"2026-03-01","is_special_deal":false,"note":"陽台外推；","lat":25.087345699999997,"lng":121.4465379,"geocode_src":"osm:exact"},{"serial_no":"RPTNMLRLLHLGFBF68DA","county_code":"f","district":"新莊區","address":"新北市新莊區新泰路４１７之１５號六樓","road":"新莊區新泰路","building_type":"住宅大樓(11層含以上有電梯)","total_floors":14.0,"transfer_floor_num":6.0,"age_years":26.8,"rooms":5.0,"halls":2.0,"baths":3.0,"building_area_sqm":176.95,"total_price":23000000,"unit_price_per_ping":475239.65160000004,"deal_date":"2026-02-28","is_special_deal":false,"note":"陽台外推；夾層；其他增建；","lat":25.0446379,"lng":121.4426337,"geocode_src":"osm:exact"},{"serial_no":"RPVNMLLMLHLGFAF28DA","county_code":"f","district":"板橋區","address":"新北市板橋區英士路２６號十三樓","road":"板橋區英士路","building_type":"住宅大樓(11層含以上有電梯)","total_floors":15.0,"transfer_floor_num":13.0,"age_years":8.1,"rooms":2.0,"halls":2.0,"baths":1.0,"building_area_sqm":121.94,"total_price":24000000,"unit_price_per_ping":712591.708815,"deal_date":"2026-02-28","is_special_deal":false,"note":"陽台外推；","lat":25.0252099,"lng":121.4617661,"geocode_src":"osm:exact"},{"serial_no":"RPVNMLNKLHLGFCF48DA","county_code":"f","district":"新店區","address":"新北市新店區北宜路一段３５號十樓之一","road":"新店區北宜路一段","building_type":"住宅大樓(11層含以上有電梯)","total_floors":12.0,"transfer_floor_num":10.0,"age_years":33.4,"rooms":3.0,"halls":2.0,"baths":2.0,"building_area_sqm":149.93,"total_price":23500000,"unit_price_per_ping":562985.1028550001,"deal_date":"2026-02-28","is_special_deal":false,"note":null,"lat":24.957629082608698,"lng":121.53841035652174,"geocode_src":"osm:exact"},{"serial_no":"RPQOMLQKLHLGFDF48DA","county_code":"f","district":"汐止區","address":"新北市汐止區保長路６２號十樓","road":"汐止區保長路","building_type":"住宅大樓(11層含以上有電梯)","total_floors":15.0,"transfer_floor_num":10.0,"age_years":15.8,"rooms":2.0,"halls":1.0,"baths":1.0,"building_area_sqm":71.53999999999999,"total_price":10100000,"unit_price_per_ping":466710.72630000004,"deal_date":"2026-02-28","is_special_deal":false,"note":null,"lat":25.0783868,"lng":121.6748683,"geocode_src":"osm:exact"},{"serial_no":"RPROMLQJLHLGFBF28DA","county_code":"f","district":"林口區","address":"新北市林口區仁愛路一段６３７巷１９號","road":"林口區仁愛路一段","building_type":"透天厝","total_floors":3.0,"transfer_floor_num":null,"age_years":18.7,"rooms":3.0,"halls":2.0,"baths":3.0,"building_area_sqm":243.19,"total_price":28000000,"unit_price_per_ping":380614.86176,"deal_date":"2026-02-28","is_special_deal":false,"note":"其他增建；","lat":25.0756557,"lng":121.3883921,"geocode_src":"osm:exact"},