[{"serial_no":"RPWNMLNLLHLGFBH88CC","county_code":"h","district":"觀音區","address":"桃園市觀音區民生路６７號三樓","road":"觀音區民生路","building_type":"華廈(10層含以下有電梯)","total_floors":5.0,"transfer_floor_num":3.0,"age_years":8.0,"rooms":8.0,"halls":0.0,"baths":8.0,"building_area_sqm":18.78,"total_price":5100,"unit_price_per_ping":899.17352,"deal_date":"2026-03-20","is_special_deal":false,"note":"租金總額含管理費；網路費；續租案件；","lat":25.0519494,"lng":121.123198,"geocode_src":"osm:exact"},{"serial_no":"RPUNMLLJMHLGFDH58CC","county_code":"h","district":"楊梅區","address":"桃園市楊梅區高平路３６３巷３６號","road":"楊梅區高平路","building_type":"透天厝","total_floors":4.0,"transfer_floor_num":null,"age_years":3.5,"rooms":4.0,"halls":2.0,"baths":4.0,"building_area_sqm":187.53,"total_price":23000,"unit_price_per_ping":406.611555,"deal_date":"2026-03-20","is_special_deal":false,"note":"續租案件；","lat":24.9397743,"lng":121.1354273,"geocode_src":"osm:exact"},{"serial_no":"RPRPMLQLLHLGFAH78CC","county_code":"h","district":"桃園區","address":"桃園市桃園區民生路８６號三樓之４","road":"桃園區民生路","building_type":"華廈(10層含以下有電梯)","total_floors":5.0,"transfer_floor_num":3.0,"age_years":28.8,"rooms":1.0,"halls":0.0,"baths":1.0,"building_area_sqm":28.810000000000002,"total_price":6200,"unit_price_per_ping":710.743775,"deal_date":"2026-03-20","is_special_deal":false,"note":"水電費由承租人負擔","lat":24.99175064285714,"lng":121.31449878928571,"geocode_src":"osm:exact"},{"serial_no":"RPOQMLRKMHLGFAH68CC","county_code":"h","district":"桃園區","address":"桃園市桃園區新埔十街１４巷１４之１號二樓","road":"桃園區新埔十街","building_type":"華廈(10層含以下有電梯)","total_floors":7.0,"transfer_floor_num":2.0,"age_years":32.2,"rooms":3.0,"halls":2.0,"baths":2.0,"building_area_sqm":104.03999999999999,"total_price":18000,"unit_price_per_ping":571.900805,"deal_date":"2026-03-20","is_special_deal":false,"note":null,"lat":25.0234159,"lng":121.2996261,"geocode_src":"osm:exact"},{"serial_no":"RPOQMLQLLHLGFBH68CC","county_code":"h","district":"中壢區","address":"桃園市中壢區榮安十四街８之５號八樓","road":"中壢區榮安十四街","building_type":"住宅大樓(11層含以上有電梯)","total_floors":12.0,"transfer_floor_num":8.0,"age_years":31.4,"rooms":3.0,"halls":1.0,"baths":1.0,"building_area_sqm":113.08,"total_price":12000,"unit_price_per_ping":350.41321,"deal_date":"2026-03-20","is_special_deal":false,"note":null,"lat":24.9605625,"lng":121.2581624,"geocode_src":"osm:exact"},{"serial_no":"RPQNMLOLLHLGFBH38CC","county_code":"h","district":"中壢區","address":"桃園市中壢區環西路二段２８２號十四樓","road":"中壢區環西路二段","building_type":"住宅大樓(11層含以上有電梯)","total_floors":15.0,"transfer_floor_num":14.0,"age_years":14.7,"rooms":3.0,"halls":2.0,"baths":2.0,"building_area_sqm":117.38,"total_price":23100,"unit_price_per_ping":714.04956,"deal_date":"2026-03-20","is_special_deal":false,"note":"管理費1900元，水電費 瓦斯費 由承租人負擔","lat":24.9646902,"lng":121.2125485,"geocode_src":"osm:exact"},{"serial_no":"RPQQMLRLLHLGFBH98CC","county_code":"h","district":"中壢區","address":"桃園市中壢區延平路４５０號七樓","road":"中壢區延平路","building_type":"辦公商業大樓","total_floors":12.0,"transfer_floor_num":7.0,"age_years":34.0,"rooms":4.0,"halls":0.0,"baths":4.0,"building_area_sqm":22.24,"total_price":11500,"unit_price_per_ping":1709.0908450000002,"deal_date":"2026-03-20","is_special_deal":false,"note":"租金總額含管理費；網路費；其他電視費；租賃建物部分範圍，且未計入共有部分面積；","lat":24.9583341,"lng":121.2239818,"geocode_src":"osm:exact"},{"serial_no":"RPTRMLQLLHLGFBH66CC","county_code":"h","district":"中壢區","address":"桃園市中壢區大智街１０號三樓之１１２","road":"中壢區大智街","building_type":"公寓(5樓含以下無電梯)","total_floors":5.0,"transfer_floor_num":3.0,"age_years":36.8,"rooms":1.0,"halls":1.0,"baths":1.0,"building_area_sqm":30.36,"total_price":6600,"unit_price_per_ping":717.355345,"deal_date":"2026-03-20","is_special_deal":false,"note":"社會住宅 管理費400元，水電費  由承租人負擔","lat":24.953082370967742,"lng":121.24109037096774,"geocode_src":"osm:exact"},{"serial_no":"RPUNMLTJMHLGFDH76CC","county_code":"h","district":"新屋區","address":"桃園市新屋區高洲六街６７號八樓","road":"新屋區高洲六街","building_type":"住宅大樓(11層含以上有電梯)","total_floors":12.0,"transfer_floor_num":8.0,"age_years":5.9,"rooms":2.0,"halls":1.0,"baths":1.0,"building_area_sqm":120.99000000000001,"total_price":17500,"unit_price_per_ping":618.1817950000001,"deal_date":"2026-03-20","is_special_deal":false,"note":"承租人負擔管理費2500元","lat":24.961132500000005,"lng":121.15918220000002,"geocode_src":"osm:exact"},{"serial_no":"RPRNMLMLLHLGFCH38CC","county_code":"h","district":"大溪區","address":"桃園市大溪區中央路４７之１號三樓","road":"大溪區中央路","building_type":"華廈(10層含以下有電梯)","total_floors":6.0,"transfer_floor_num":3.0,"age_years":12.7,"rooms":1.0,"halls":1.0,"baths":1.0,"building_area_sqm":81.96,"total_price":17000,"unit_price_per_ping":684.297495,"deal_date":"2026-03-20","is_special_deal":false,"note":null,"lat":24.879545880000002,"lng":121.2875405,"geocode_src":"osm:exact"},{"serial_no":"RPRPMLMJMHLGFAH28CC","county_code":"h","district":"桃園區","address":"桃園市桃園區泰昌十一街３３號十二樓","road":"桃園區泰昌十一街","building_type":"住宅大樓(11層含以上有電梯)","total_floors":13.0,"transfer_floor_num":12.0,"age_years":17.9,"rooms":3.0,"halls":1.0,"baths":2.0,"building_area_sqm":230.55,"total_price":22100,"unit_price_per_ping":317.35536,"deal_date":"2026-03-20","is_special_deal":false,"note":"水電費及管理費每月  5100 元 由承租人負擔","lat":24.9858465,"lng":121.2918558,"geocode_src":"osm:exact"},{"serial_no":"RPTQMLKLLHLGFBH58CC","county_code":"h","district":"中壢區","address":"桃園市中壢區永昌路１７７號五樓","road":"中壢區永昌路","building_type":"住宅大樓(11層含以上有電梯)","total_floors":15.0,"transfer_floor_num":5.0,"age_years":4.9,"rooms":2.0,"halls":1.0,"baths":1.0,"building_area_sqm":111.48,"total_price":12700,"unit_price_per_ping":376.85949000000005,"deal_date":"2026-03-20","is_special_deal":false,"note":"社會住宅  管理費2300  水電費 由承租人負擔未租賃車位，建物登記含有車位面積；續租案件；","lat":25.0162073,"lng":121.2079851,"geocode_src":"osm:exact"},{"serial_no":"RPUOMLQLLHLGFDH66CC","county_code":"h","district":"楊梅區","address":"桃園市楊梅區青山六街３３號５樓","road":"楊梅區青山六街","building_type":"華廈(10層含以下有電梯)","total_floors":9.0,"transfer_floor_num":5.0,"age_years":31.0,"rooms":3.0,"halls":1.0,"baths":1.0,"building_area_sqm":85.12,"total_price":16500,"unit_price_per_ping":641.3222900000001,"deal_date":"2026-03-20","is_special_deal":false,"note":null,"lat":24.9199091,"lng":121.1697166,"geocode_src":"osm:exact"},{"serial_no":"RPWNMLPLLHLGFAH98CC","county_code":"h","district":"桃園區","address":"桃園市桃園區陽明十二街４６巷１６之４號","road":"桃園區陽明十二街","building_type":"公寓(5樓含以下無電梯)","total_floors":5.0,"transfer_floor_num":5.0,"age_years":45.2,"rooms":3.0,"halls":2.0,"baths":1.0,"building_area_sqm":89.12,"total_price":12500,"unit_price_per_ping":462.8099,"deal_date":"2026-03-20","is_special_deal":false,"note":"續租案件；","lat":24.9776007,"lng":121.3092232,"geocode_src":"osm:exact"},{"serial_no":"RPRNMLOLLHLGFHH09CC","county_code":"h","district":"龜山區","address":"桃園市龜山區幸美七街３１號三樓","road":"龜山區幸美七街","building_type":"公寓(5樓含以下無電梯)","total_floors":5.0,"transfer_floor_num":3.0,"age_years":29.1,"rooms":3.0,"halls":1.0,"baths":2.0,"building_area_sqm":98.42999999999999,"total_price":13000,"unit_price_per_ping":436.36362,"deal_date":"2026-03-20","is_special_deal":false,"note":null,"lat":24.9947654,"lng":121.35683530000001,"geocode_src":"osm:exact"},{"serial_no":"RPPQMLOKMHLGFBH58CC","county_code":"h","district":"中壢區","address":"桃園市中壢區興仁路二段９９號９樓之２３","road":"中壢區興仁路二段","building_type":"華廈(10層含以下有電梯)","total_floors":10.0,"transfer_floor_num":9.0,"age_years":19.8,"rooms":1.0,"halls":0.0,"baths":1.0,"building_area_sqm":31.66,"total_price":6300,"unit_price_per_ping":657.851215,"deal_date":"2026-03-20","is_special_deal":false,"note":null,"lat":24.96681348751926,"lng":121.263478896302,"geocode_src":"osm:exact"},{"serial_no":"RPVPMLNLLHLGFBH98CC","county_code":"h","district":"中壢區","address":"桃園市中壢區中央西路二段１６４巷１４弄１０號二樓","road":"中壢區中央西路二段","building_type":"公寓(5樓含以下無電梯)","total_floors":5.0,"transfer_floor_num":2.0,"age_years":38.3,"rooms":3.0,"halls":2.0,"baths":2.0,"building_area_sqm":91.37,"total_price":19000,"unit_price_per_ping":687.60328,"deal_date":"2026-03-20","is_special_deal":false,"note":null,"lat":24.9591275,"lng":121.21283229999999,"geocode_src":"osm:exact"},{"serial_no":"RPQNMLNLLHLGFFH68CC","county_code":"h","district":"八德區","address":"桃園市八德區建國路１４３之１號三樓","road":"八德區建國路","building_type":"華廈(10層含以下有電梯)","total_floors":9.0,"transfer_floor_num":3.0,"age_years":27.3,"rooms":3.0,"halls":2.0,"baths":2.0,"building_area_sqm":96.17,"total_price":16800,"unit_price_per_ping":578.512375,"deal_date":"2026-03-20","is_special_deal":false,"note":"每個月管理費1200元由承租人負擔續租案件；","lat":24.9339823,"lng":121.2868534,"geocode_src":"osm:exact"},{"serial_no":"RPVOMLQLLHLGFDH76CC","county_code":"h","district":"楊梅區","address":"桃園市楊梅區楊梅區瑞溪路一段１８２巷３５號３樓之１","road":"楊梅區楊梅區瑞溪路一段","building_type":"華廈(10層含以下有電梯)","total_floors":5.0,"transfer_floor_num":3.0,"age_years":29.7,"rooms":3.0,"halls":1.0,"baths":1.0,"building_area_sqm":72.71,"total_price":13500,"unit_price_per_ping":614.8760100000001,"deal_date":"2026-03-20","is_special_deal":false,"note":null},{"serial_no":"RPROMLQKMHLGFFH56CC","county_code":"h","district":"八德區","address":"桃園市八德區豐德路２１８號十二樓","road":"八德區豐德路","building_type":"住宅大樓(11層含以上有電梯)","total_floors":15.0,"transfer_floor_num":12.0,"age_years":11.6,"rooms":2.0,"halls":1.0,"baths":1.0,"building_area_sqm":108.03999999999999,"total_price":18700,"unit_price_per_ping":611.570225,"deal_date":"2026-03-20","is_special_deal":false,"note":"社會住宅","lat":24.9258007,"lng":121.2904758,"geocode_src":"osm:exact"},{"serial_no":"RPRNMLNLLHLGFEH68CC","county_code":"h","district":"蘆竹區","address":"桃園市蘆竹區奉化路１４６之１號九樓","road":"蘆竹區奉化路","building_type":"住宅大樓(11層含以上有電梯)","total_floors":12.0,"transfer_floor_num":9.0,"age_years":21.3,"rooms":2.0,"halls":2.0,"baths":1.0,"building_area_sqm":110.53999999999999,"total_price":19500,"unit_price_per_ping":680.99171,"deal_date":"2026-03-20","is_special_deal":false,"note":"每月管理費2000由承租人自付。","lat":25.0390668,"lng":121.2891314,"geocode_src":"osm:exact"},{"serial_no":"RPPNMLSJMHLGFBH58CC","county_code":"h","district":"中壢區","address":"桃園市中壢區九和一街６號二十一樓之６","road":"中壢區九和一街","building_type":"住宅大樓(11層含以上有電梯)","total_floors":22.0,"transfer_floor_num":21.0,"age_years":24.6,"rooms":1.0,"halls":1.0,"baths":1.0,"building_area_sqm":92.08,"total_price":11700,"unit_price_per_ping":419.834695,"deal_date":"2026-03-20","is_special_deal":false,"note":"社會住宅，管理費1339元，水電費 瓦斯費 由承租人負擔未租賃車位，建物登記含有車位面積；","lat":24.9615831,"lng":121.2232405,"geocode_src":"osm:exact"},{"serial_no":"RPSNMLKKMHLGFCH28CC","county_code":"h","district":"大溪區","address":"桃園市大溪區介壽路１２５７號","road":"大溪區介壽路","building_type":"透天厝","total_floors":4.0,"transfer_floor_num":null,"age_years":21.4,"rooms":4.0,"halls":2.0,"baths":2.0,"building_area_sqm":237.83,"total_price":22000,"unit_price_per_ping":307.43800500000003,"deal_date":"2026-03-20","is_special_deal":false,"note":null,"lat":24.8980859,"lng":121.2850252,"geocode_src":"osm:exact"},{"serial_no":"RPQNMLMJMHLGFFH48CC","county_code":"h","district":"八德區","address":"桃園市八德區介壽路一段１６巷４０號１１樓","road":"八德區介壽路一段","building_type":"住宅大樓(11層含以上有電梯)","total_floors":14.0,"transfer_floor_num":11.0,"age_years":29.0,"rooms":3.0,"halls":2.0,"baths":2.0,"building_area_sqm":169.04,"total_price":24000,"unit_price_per_ping":469.42147,"deal_date":"2026-03-20","is_special_deal":false,"note":"租金總額含管理費；","lat":24.9783424,"lng":121.3022294,"geocode_src":"osm:exact"},{"serial_no":"RPOPMLRLLHLGFBH68CC","county_code":"h","district":"中壢區","address":"桃園市中壢區龍門街２１８巷５弄３號","road":"中壢區龍門街","building_type":"公寓(5樓含以下無電梯)","total_floors":2.0,"transfer_floor_num":1.0,"age_years":47.3,"rooms":2.0,"halls":1.0,"baths":1.0,"building_area_sqm":42.33,"total_price":10000,"unit_price_per_ping":780.1652600000001,"deal_date":"2026-03-20","is_special_deal":false,"note":null,"lat":24.9294124,"lng":121.2475203,"geocode_src":"osm:exact"},{"serial_no":"RPPPMLKMLHLGFAH08CC","county_code":"h","district":"桃園區","address":"桃園市桃園區民安路７３巷１９之２號","road":"桃園區民安路","building_type":"住宅大樓(11層含以上有電梯)","total_floors":15.0,"transfer_floor_num":3.0,"age_years":37.2,"rooms":4.0,"halls":2.0,"baths":2.0,"building_area_sqm":244.35000000000002,"total_price":25200,"unit_price_per_ping":340.495855,"deal_date":"2026-03-20","is_special_deal":false,"note":"水電費/瓦斯費及管理費每月 3300 元 由承租人負擔","lat":24.9968841,"lng":121.3003558,"geocode_src":"osm:exact"},{"serial_no":"RPPNMLSJMHLGFGH09CC","county_code":"h","district":"平鎮區","address":"桃園市平鎮區中豐路南勢二段２６２巷１６弄２衖３號四樓","road":"平鎮區中豐路","building_type":"公寓(5樓含以下無電梯)","total_floors":5.0,"transfer_floor_num":4.0,"age_years":44.2,"rooms":2.0,"halls":2.0,"baths":1.0,"building_area_sqm":77.2,"total_price":8000,"unit_price_per_ping":343.80164,"deal_date":"2026-03-20","is_special_deal":false,"note":"續租案件；","lat":24.9258959,"lng":121.2129253,"geocode_src":"osm:road"},{"serial_no":"RPQSMLQLLHLGFAH98CC","county_code":"h","district":"桃園區","address":"桃園市桃園區莊敬路二段１０１號十一樓","road":"桃園區莊敬路二段","building_type":"住宅大樓(11層含以上有電梯)","total_floors":17.0,"transfer_floor_num":11.0,"age_years":31.7,"rooms":3.0,"halls":1.0,"baths":2.0,"building_area_sqm":130.44,"total_price":18000,"unit_price_per_ping":456.19833,"deal_date":"2026-03-20","is_special_deal":false,"note":null,"lat":25.022464972222224,"lng":121.29302648333334,"geocode_src":"osm:exact"},{"serial_no":"RPUOMLNLLHLGFFH56CC","county_code":"h","district":"八德區","address":"桃園市八德區中正一路２５號九樓","road":"八德區中正一路","building_type":"住宅大樓(11層含以上有電梯)","total_floors":15.0,"transfer_floor_num":9.0,"age_years":0.6,"rooms":2.0,"halls":2.0,"baths":1.0,"building_area_sqm":110.97,"total_price":16800,"unit_price_per_ping":654.54543,"deal_date":"2026-03-20","is_special_deal":false,"note":"管理費2700元，水電費 瓦斯費 由承租人負擔","lat":24.9304534,"lng":121.2825152,"geocode_src":"osm:road"},{"serial_no":"RPVNMLRLLHLGFBH56CC","county_code":"h","district":"中壢區","address":"桃園市中壢區南園二路３３６號十一樓之５","road":"中壢區南園二路","building_type":"住宅大樓(11層含以上有電梯)","total_floors":13.0,"transfer_floor_num":11.0,"age_years":14.4,"rooms":3.0,"halls":2.0,"baths":2.0,"building_area_sqm":156.39999999999998,"total_price":17000,"unit_price_per_ping":393.388415,"deal_date":"2026-03-20","is_special_deal":false,"note":"每月管理費3000由承租人自付。","lat":24.9718462,"lng":121.2270049,"geocode_src":"osm:exact"},{"serial_no":"RPTNMLMKMHLGFAH38CC","county_code":"h","district":"桃園區","address":"桃園市桃園區慈文路２９８巷１０之２號","road":"桃園區慈文路","building_type":"公寓(5樓含以下無電梯)","total_floors":5.0,"transfer_floor_num":3.0,"age_years":44.1,"rooms":2.0,"halls":1.0,"baths":1.0,"building_area_sqm":54.49,"total_price":12800,"unit_price_per_ping":776.8594750000001,"deal_date":"2026-03-20","is_special_deal":false,"note":null,"lat":25.0056813,"lng":121.2997741,"geocode_src":"osm:exact"},{"serial_no":"RPPOMLQLLHLGFCH68CC","county_code":"h","district":"龍潭區","address":"桃園市龍潭區聖亭路２３２之６號","road":"龍潭區聖亭路","building_type":"華廈(10層含以下有電梯)","total_floors":6.0,"transfer_floor_num":1.0,"age_years":12.1,"rooms":2.0,"halls":2.0,"baths":1.0,"building_area_sqm":101.28,"total_price":14500,"unit_price_per_ping":472.727255,"deal_date":"2026-03-20","is_special_deal":false,"note":"管理費、停車費、水電費、瓦斯費由承租人負擔續租案件；","lat":24.870628800000002,"lng":121.204934,"geocode_src":"osm:exact"},{"serial_no":"RPRRMLPLLHLGFBH98CC","county_code":"h","district":"中壢區","address":"桃園市中壢區龍慈路７７號七樓","road":"中壢區龍慈路","building_type":"住宅大樓(11層含以上有電梯)","total_floors":15.0,"transfer_floor_num":7.0,"age_years":4.2,"rooms":2.0,"halls":1.0,"baths":1.0,"building_area_sqm":121.0,"total_price":21000,"unit_price_per_ping":631.404935,"deal_date":"2026-03-20","is_special_deal":false,"note":"出租機車位一個、承租人每月負擔管理費3000元續租案件；","lat":24.9431651,"lng":121.2474948,"geocode_src":"osm:exact"},{"serial_no":"RPPNMLOLLHLGFAH18CC","county_code":"h","district":"桃園區","address":"桃園市桃園區大有路５１４號十樓","road":"桃園區大有路","building_type":"住宅大樓(11層含以上有電梯)","total_floors":17.0,"transfer_floor_num":10.0,"age_years":30.9,"rooms":1.0,"halls":1.0,"baths":1.0,"building_area_sqm":53.21,"total_price":10000,"unit_price_per_ping":621.4875800000001,"deal_date":"2026-03-20","is_special_deal":false,"note":null,"lat":25.0134803,"lng":121.3185377,"geocode_src":"osm:exact"},{"serial_no":"RPPNMLMKMHLGFDH28CC","county_code":"h","district":"楊梅區","address":"桃園市楊梅區新農街３７２號二樓","road":"楊梅區新農街","building_type":"華廈(10層含以下有電梯)","total_floors":9.0,"transfer_floor_num":2.0,"age_years":28.5,"rooms":3.0,"halls":1.0,"baths":2.0,"building_area_sqm":140.68,"total_price":14000,"unit_price_per_ping":330.5785,"deal_date":"2026-03-20","is_special_deal":false,"note":"管理費1000元、水、電、瓦斯、網路費由承租人負擔。","lat":24.9114882,"lng":121.15678,"geocode_src":"osm:exact"},{"serial_no":"RPTNMLKMLHLGFGH88CC","county_code":"h","district":"平鎮區","address":"桃園市平鎮區中豐路山頂段１５號三樓之３","road":"平鎮區中豐路","building_type":"住宅大樓(11層含以上有電梯)","total_floors":11.0,"transfer_floor_num":3.0,"age_years":13.6,"rooms":3.0,"halls":2.0,"baths":2.0,"building_area_sqm":134.64000000000001,"total_price":15000,"unit_price_per_ping":366.942135,"deal_date":"2026-03-20","is_special_deal":false,"note":"水費、電費、瓦斯費及每月管理費2000元整由承租人負擔。","lat":24.9258959,"lng":121.2129253,"geocode_src":"osm:road"},{"serial_no":"RPTPMLRLLHLGFBH56CC","county_code":"h","district":"中壢區","address":"桃園市中壢區健行路６９巷１號","road":"中壢區健行路","building_type":"透天厝","total_floors":2.0,"transfer_floor_num":null,"age_years":57.5,"rooms":4.0,"halls":0.0,"baths":4.0,"building_area_sqm":33.03,"total_price":18000,"unit_price_per_ping":1801.6528250000001,"deal_date":"2026-03-20","is_special_deal":false,"note":"水電費由承租人負擔租金總額含網路費；租賃建物部分範圍，且未計入共有部分面積；","lat":24.9509525,"lng":121.2271096,"geocode_src":"osm:exact"},{"serial_no":"RPOSMLQLLHLGFAH78CC","county_code":"h","district":"桃園區","address":"桃園市桃園區國強一街２０６號七樓","road":"桃園區國強一街","building_type":"住宅大樓(11層含以上有電梯)","total_floors":14.0,"transfer_floor_num":7.0,"age_years":17.4,"rooms":2.0,"halls":1.0,"baths":1.0,"building_area_sqm":145.32999999999998,"total_price":19500,"unit_price_per_ping":515.7024600000001,"deal_date":"2026-03-20","is_special_deal":false,"note":null,"lat":24.9926315,"lng":121.2827397,"geocode_src":"osm:exact"},{"serial_no":"RPWQMLOLLHLGFBH66CC","county_code":"h","district":"中壢區","address":"桃園市中壢區振興街１４０號五樓之１８","road":"中壢區振興街","building_type":"華廈(10層含以下有電梯)","total_floors":7.0,"transfer_floor_num":5.0,"age_years":36.8,"rooms":1.0,"halls":1.0,"baths":1.0,"building_area_sqm":28.87,"total_price":5700,"unit_price_per_ping":651.239645,"deal_date":"2026-03-20","is_special_deal":false,"note":"每月管理費300元由承租人負擔，未計入租金。續租案件；","lat":24.9537705,"lng":121.2419029,"geocode_src":"osm:exact"},{"serial_no":"RPRNMLLJMHLGFFH48CC","county_code":"h","district":"八德區","address":"桃園市八德區建國路１３３巷１弄１號五樓","road":"八德區建國路","building_type":"華廈(10層含以下有電梯)","total_floors":8.0,"transfer_floor_num":5.0,"age_years":27.3,"rooms":4.0,"halls":2.0,"baths":2.0,"building_area_sqm":143.76999999999998,"total_price":21000,"unit_price_per_ping":482.64461000000006,"deal_date":"2026-03-20","is_special_deal":false,"note":"管理費每個月2000元整、水費、電費、瓦斯費皆由承租人負擔","lat":24.9337901,"lng":121.2863353,"geocode_src":"osm:exact"},{"serial_no":"RPPSMLOLLHLGFAH68CC","county_code":"h","district":"桃園區","address":"桃園市桃園區大興西路二段３５號二十一樓之一","road":"桃園區大興西路二段","building_type":"住宅大樓(11層含以上有電梯)","total_floors":23.0,"transfer_floor_num":21.0,"age_years":31.1,"rooms":3.0,"halls":1.0,"baths":2.0,"building_area_sqm":121.26,"total_price":21800,"unit_price_per_ping":595.0413,"deal_date":"2026-03-20","is_special_deal":false,"note":"承租人每月負擔管理費1200元","lat":25.0115931,"lng":121.29929820000001,"geocode_src":"osm:exact"},{"serial_no":"RPTNMLLJMHLGFEH58CC","county_code":"h","district":"大園區","address":"桃園市大園區水源南路１０９３巷１０號１０樓之１","road":"大園區水源南路","building_type":"華廈(10層含以下有電梯)","total_floors":10.0,"transfer_floor_num":10.0,"age_years":0.9,"rooms":5.0,"halls":1.0,"baths":2.0,"building_area_sqm":20.47,"total_price":12500,"unit_price_per_ping":2019.8346350000002,"deal_date":"2026-03-20","is_special_deal":false,"note":"租金總額含管理費；網路費；其他清潔費；租賃建物部分範圍，且未計入共有部分面積；"},{"serial_no":"RPTNMLNLLHLGFGH09CC","county_code":"h","district":"平鎮區","address":"桃園市平鎮區平東路２４６巷２８弄１８號","road":"平鎮區平東路","building_type":"透天厝","total_floors":2.0,"transfer_floor_num":null,"age_years":46.4,"rooms":4.0,"halls":2.0,"baths":3.0,"building_area_sqm":67.64,"total_price":15000,"unit_price_per_ping":733.88427,"deal_date":"2026-03-20","is_special_deal":false,"note":"水電費 由承租人負擔續租案件；","lat":24.9170019,"lng":121.250446,"geocode_src":"osm:road"},{"serial_no":"RPPNMLNLLHLGFAH08CC","county_code":"h","district":"桃園區","address":"桃園市桃園區大原路２巷１弄３號","road":"桃園區大原路","building_type":"透天厝","total_floors":2.0,"transfer_floor_num":null,"age_years":40.0,"rooms":5.0,"halls":3.0,"baths":3.0,"building_area_sqm":153.6,"total_price":8000,"unit_price_per_ping":171.90082,"deal_date":"2026-03-20","is_special_deal":false,"note":"社會住宅    水電費 由承租人負擔續租案件；","lat":24.979576,"lng":121.3199949,"geocode_src":"osm:exact"},{"serial_no":"RPPSMLNLLHLGFBH68CC","county_code":"h","district":"中壢區","address":"桃園市中壢區福星六街９５號二樓","road":"中壢區福星六街","building_type":"華廈(10層含以下有電梯)","total_floors":6.0,"transfer_floor_num":2.0,"age_years":34.1,"rooms":3.0,"halls":1.0,"baths":1.0,"building_area_sqm":66.91,"total_price":12500,"unit_price_per_ping":618.1817950000001,"deal_date":"2026-03-20","is_special_deal":false,"note":null,"lat":24.966224800000003,"lng":121.2315412,"geocode_src":"osm:exact"},{"serial_no":"RPROMLPKMHLGFDH88CC","county_code":"h","district":"楊梅區","address":"桃園市楊梅區永美路４７１巷８號三樓","road":"楊梅區永美路","building_type":"公寓(5樓含以下無電梯)","total_floors":4.0,"transfer_floor_num":3.0,"age_years":43.8,"rooms":2.0,"halls":1.0,"baths":1.0,"building_area_sqm":65.56,"total_price":8000,"unit_price_per_ping":403.30577,"deal_date":"2026-03-20","is_special_deal":false,"note":"社會住宅","lat":24.9130372,"lng":121.1776444,"geocode_src":"osm:exact"},{"serial_no":"RPQNMLOLLHLGFHH98CC","county_code":"h","district":"龜山區","address":"桃園市龜山區自強南路３０１巷５號","road":"龜山區自強南路","building_type":"住宅大樓(11層含以上有電梯)","total_floors":12.0,"transfer_floor_num":1.0,"age_years":25.3,"rooms":3.0,"halls":1.0,"baths":2.0,"building_area_sqm":140.37,"total_price":16700,"unit_price_per_ping":393.388415,"deal_date":"2026-03-20","is_special_deal":false,"note":"管理費1300元由出租人負擔","lat":24.9901753,"lng":121.3345096,"geocode_src":"osm:exact"},{"serial_no":"RPOPMLNLLHLGFAH18CC","county_code":"h","district":"桃園區","address":"桃園市桃園區春日路１１５５號二十樓之１","road":"桃園區春日路","building_type":"住宅大樓(11層含以上有電梯)","total_floors":20.0,"transfer_floor_num":20.0,"age_years":30.6,"rooms":1.0,"halls":0.0,"baths":1.0,"building_area_sqm":35.82,"total_price":12000,"unit_price_per_ping":1107.437975,"deal_date":"2026-03-20","is_special_deal":false,"note":"每個月管理費1000元由承租人負擔","lat":25.014403146031746,"lng":121.30905709285715,"geocode_src":"osm:exact"},{"serial_no":"RPTOMLQLLHLGFGH86CC","county_code":"h","district":"平鎮區","address":"桃園市平鎮區振興西路１４６號十四樓","road":"平鎮區振興西路","building_type":"住宅大樓(11層含以上有電梯)","total_floors":16.0,"transfer_floor_num":14.0,"age_years":31.1,"rooms":1.0,"halls":1.0,"baths":1.0,"building_area_sqm":54.37,"total_price":9500,"unit_price_per_ping":578.512375,"deal_date":"2026-03-20","is_special_deal":false,"note":"社會住宅 管理費500元，水電費 由承租人負擔","lat":24.946223,"lng":121.2141382,"geocode_src":"osm:road"},{"serial_no":"RPOOMLKLLHLGFCH97CC","county_code":"h","district":"大溪區","address":"桃園市大溪區三元一街４６巷８號","road":"大溪區三元一街","building_type":"透天厝","total_floors":2.0,"transfer_floor_num":null,"age_years":45.9,"rooms":2.0,"halls":2.0,"baths":2.0,"building_area_sqm":100.32,"total_price":11100,"unit_price_per_ping":366.942135,"deal_date":"2026-03-20","is_special_deal":false,"note":"水電費 由承租人負擔","lat":24.8835745,"lng":121.2702064,"geocode_src":"osm:exact"},{"serial_no":"RPSPMLPLLHLGFAH78CC","county_code":"h","district":"桃園區","address":"桃園市桃園區大興西路二段３５號二十二樓之二","road":"桃園區大興西路二段","building_type":"住宅大樓(11層含以上有電梯)","total_floors":23.0,"transfer_floor_num":22.0,"age_years":31.1,"rooms":3.0,"halls":2.0,"baths":1.0,"building_area_sqm":94.22,"total_price":19000,"unit_price_per_ping":667.7685700000001,"deal_date":"2026-03-20","is_special_deal":false,"note":"管理費2000元承租人負擔","lat":25.0115931,"lng":121.29929820000001,"geocode_src":"osm:exact"},{"serial_no":"RPUQMLNKMHLGFAH88CC","county_code":"h","district":"桃園區","address":"桃園市桃園區中路北街６７巷２３號","road":"桃園區中路","building_type":"透天厝","total_floors":1.0,"transfer_floor_num":null,"age_years":52.4,"rooms":1.0,"halls":1.0,"baths":1.0,"building_area_sqm":63.8,"total_price":10000,"unit_price_per_ping":519.008245,"deal_date":"2026-03-20","is_special_deal":false,"note":"水電費、瓦斯費由承租人負擔","lat":24.9632383,"lng":121.293684,"geocode_src":"osm:exact"},{"serial_no":"RPUNMLMJMHLGFAH38CC","county_code":"h","district":"桃園區","address":"桃園市桃園區春日路１１５５號十二樓之９","road":"桃園區春日路","building_type":"住宅大樓(11層含以上有電梯)","total_floors":20.0,"transfer_floor_num":12.0,"age_years":30.6,"rooms":1.0,"halls":1.0,"baths":1.0,"building_area_sqm":52.23,"total_price":9700,"unit_price_per_ping":614.8760100000001,"deal_date":"2026-03-20","is_special_deal":false,"note":"管理費、水電費、瓦斯費由承租人負擔","lat":25.014403146031746,"lng":121.30905709285715,"geocode_src":"osm:exact"},{"serial_no":"RPVOMLQLLHLGFAH09CC","county_code":"h","district":"桃園區","address":"桃園市桃園區桃德路４９巷１４號","road":"桃園區桃德路","building_type":"透天厝","total_floors":2.0,"transfer_floor_num":null,"age_years":37.8,"rooms":3.0,"halls":2.0,"baths":2.0,"building_area_sqm":120.81,"total_price":17000,"unit_price_per_ping":466.11568500000004,"deal_date":"2026-03-20","is_special_deal":false,"note":"水電費由承租人負擔","lat":24.9661105,"lng":121.2940008,"geocode_src":"osm:exact"},{"serial_no":"RPSTMLOKMHLGFBH56CC","county_code":"h","district":"觀音區","address":"桃園市觀音區濱海路大潭段３０２巷５５弄６衖１６號","road":"觀音區濱海路","building_type":"透天厝","total_floors":3.0,"transfer_floor_num":null,"age_years":30.9,"rooms":4.0,"halls":1.0,"baths":1.0,"building_area_sqm":164.18,"total_price":16000,"unit_price_per_ping":320.66114500000003,"deal_date":"2026-03-20","is_special_deal":false,"note":"水、電、瓦斯、網路費由承租人負擔。","lat":25.0279542,"lng":121.0638353,"geocode_src":"osm:exact"},{"serial_no":"RPPPMLLMLHLGFBH28CC","county_code":"h","district":"中壢區","address":"桃園市中壢區志航街７號二樓","road":"中壢區志航街","building_type":"公寓(5樓含以下無電梯)","total_floors":5.0,"transfer_floor_num":2.0,"age_years":44.0,"rooms":3.0,"halls":2.0,"baths":1.0,"building_area_sqm":95.07,"total_price":15000,"unit_price_per_ping":522.31403,"deal_date":"2026-03-20","is_special_deal":false,"note":"水電費 由承租人負擔","lat":24.9431354,"lng":121.2257206,"geocode_src":"osm:exact"},{"serial_no":"RPUNMLQLLHLGFEH66CC","county_code":"h","district":"大園區","address":"桃園市大園區南和路１４７之２號３樓","road":"大園區南和路","building_type":"華廈(10層含以下有電梯)","total_floors":5.0,"transfer_floor_num":3.0,"age_years":2.4,"rooms":2.0,"halls":1.0,"baths":1.0,"building_area_sqm":58.81,"total_price":15000,"unit_price_per_ping":842.975175,"deal_date":"2026-03-20","is_special_deal":false,"note":"管理費、水電費、瓦斯費由承租人負擔續租案件；","lat":25.0470142,"lng":121.1696999,"geocode_src":"osm:exact"},{"serial_no":"RPXOMLNLLHLGFBH09CC","county_code":"h","district":"觀音區","address":"桃園市觀音區民生路６５號二樓","road":"觀音區民生路","building_type":"華廈(10層含以下有電梯)","total_floors":5.0,"transfer_floor_num":2.0,"age_years":8.0,"rooms":8.0,"halls":0.0,"baths":8.0,"building_area_sqm":18.78,"total_price":4900,"unit_price_per_ping":862.809885,"deal_date":"2026-03-20","is_special_deal":false,"note":"租金總額含管理費；網路費；","lat":25.0520432,"lng":121.12310950000001,"geocode_src":"osm:exact"},{"serial_no":"RPXPMLSJMHLGFAH86CC","county_code":"h","district":"桃園區","address":"桃園市桃園區慈光街３２號七樓","road":"桃園區慈光街","building_type":"住宅大樓(11層含以上有電梯)","total_floors":13.0,"transfer_floor_num":7.0,"age_years":16.0,"rooms":3.0,"halls":2.0,"baths":2.0,"building_area_sqm":165.86,"total_price":26000,"unit_price_per_ping":618.1817950000001,"deal_date":"2026-03-20","is_special_deal":false,"note":"續租案件；","lat":25.004319500000005,"lng":121.2975151,"geocode_src":"osm:exact"},{"serial_no":"RPSNMLKKMHLGFFH58CC","county_code":"h","district":"八德區","address":"桃園市八德區介壽路二段４９０巷２５之１號","road":"八德區介壽路二段","building_type":"公寓(5樓含以下無電梯)","total_floors":4.0,"transfer_floor_num":2.0,"age_years":42.0,"rooms":3.0,"halls":1.0,"baths":1.0,"building_area_sqm":94.4,"total_price":14000,"unit_price_per_ping":489.25618000000003,"deal_date":"2026-03-20","is_special_deal":false,"note":null,"lat":24.9445495,"lng":121.2961849,"geocode_src":"osm:exact"},{"serial_no":"RPXNMLPLLHLGFAH09CC","county_code":"h","district":"桃園區","address":"桃園市桃園區民有五街１１９號三樓","road":"桃園區民有五街","building_type":"住宅大樓(11層含以上有電梯)","total_floors":14.0,"transfer_floor_num":3.0,"age_years":21.2,"rooms":1.0,"halls":1.0,"baths":1.0,"building_area_sqm":61.36,"total_price":14000,"unit_price_per_ping":753.71898,"deal_date":"2026-03-20","is_special_deal":false,"note":"水電費及管理費每月   800元 由承租人負擔","lat":25.0083043,"lng":121.3175261,"geocode_src":"osm:exact"},{"serial_no":"RPPNMLMLLHLGFEH38CC","county_code":"h","district":"蘆竹區","address":"桃園市蘆竹區南山路一段３３號五樓之７","road":"蘆竹區南山路一段","building_type":"住宅大樓(11層含以上有電梯)","total_floors":20.0,"transfer_floor_num":5.0,"age_years":30.5,"rooms":1.0,"halls":0.0,"baths":1.0,"building_area_sqm":36.69,"total_price":8500,"unit_price_per_ping":766.94212,"deal_date":"2026-03-20","is_special_deal":false,"note":null,"lat":25.05168882010582,"lng":121.29194538253968,"geocode_src":"osm:exact"},{"serial_no":"RPRNMLPJMHLGFHH09CC","county_code":"h","district":"龜山區","address":"桃園市龜山區樂善二路５６８號五樓","road":"龜山區樂善二路","building_type":"住宅大樓(11層含以上有電梯)","total_floors":15.0,"transfer_floor_num":5.0,"age_years":4.1,"rooms":3.0,"halls":1.0,"baths":2.0,"building_area_sqm":108.15,"total_price":18000,"unit_price_per_ping":578.512375,"deal_date":"2026-03-20","is_special_deal":false,"note":"承租人每月負擔管理費2200元續租案件；","lat":25.0458053,"lng":121.3883817,"geocode_src":"osm:exact"},{"serial_no":"RPOOMLQLLHLGFHH09CC","county_code":"h","district":"龜山區","address":"桃園市龜山區明德路２７０號","road":"龜山區明德路","building_type":"華廈(10層含以下有電梯)","total_floors":5.0,"transfer_floor_num":1.0,"age_years":24.8,"rooms":8.0,"halls":0.0,"baths":8.0,"building_area_sqm":11.32,"total_price":6500,"unit_price_per_ping":1897.52059,"deal_date":"2026-03-20","is_special_deal":false,"note":"租金總額含網路費；租賃建物部分範圍，且未計入共有部分面積；","lat":24.9905006,"lng":121.3424361,"geocode_src":"osm:exact"},{"serial_no":"RPPNMLMLLHLGFAH97CC","county_code":"h","district":"桃園區","address":"桃園市桃園區中正路１３８８號六樓之三","road":"桃園區中正路","building_type":"住宅大樓(11層含以上有電梯)","total_floors":16.0,"transfer_floor_num":7.0,"age_years":31.6,"rooms":3.0,"halls":1.0,"baths":2.0,"building_area_sqm":112.55,"total_price":18000,"unit_price_per_ping":528.9256,"deal_date":"2026-03-20","is_special_deal":false,"note":null,"lat":25.022792700000004,"lng":121.2957183,"geocode_src":"osm:exact"},{"serial_no":"RPPQMLLJMHLGFAH08CC","county_code":"h","district":"桃園區","address":"桃園市桃園區秀山路５６巷２弄１之１號","road":"桃園區秀山路","building_type":"公寓(5樓含以下無電梯)","total_floors":4.0,"transfer_floor_num":2.0,"age_years":47.6,"rooms":3.0,"halls":1.0,"baths":2.0,"building_area_sqm":117.54,"total_price":12000,"unit_price_per_ping":337.19007000000005,"deal_date":"2026-03-20","is_special_deal":false,"note":"續租案件；","lat":24.9895142,"lng":121.302317,"geocode_src":"osm:exact"},{"serial_no":"RPQPMLMJMHLGFFH68CC","county_code":"h","district":"八德區","address":"桃園市八德區介壽路二段１３３巷１１１號九樓","road":"八德區介壽路二段","building_type":"住宅大樓(11層含以上有電梯)","total_floors":12.0,"transfer_floor_num":9.0,"age_years":13.3,"rooms":3.0,"halls":1.0,"baths":2.0,"building_area_sqm":163.85,"total_price":22000,"unit_price_per_ping":485.950395,"deal_date":"2026-03-20","is_special_deal":false,"note":"承租人每月負擔管理費2000元","lat":24.9570547,"lng":121.3000235,"geocode_src":"osm:exact"},{"serial_no":"RPTOMLRJMHLGFCH09CC","county_code":"h","district":"龍潭區","address":"桃園市龍潭區自由街６７巷２９號","road":"龍潭區自由街","building_type":"透天厝","total_floors":2.0,"transfer_floor_num":null,"age_years":44.3,"rooms":5.0,"halls":2.0,"baths":3.0,"building_area_sqm":90.0,"total_price":12000,"unit_price_per_ping":439.66940500000004,"deal_date":"2026-03-20","is_special_deal":false,"note":null,"lat":24.8835546,"lng":121.2395264,"geocode_src":"osm:exact"},{"serial_no":"RPWOMLKMLHLGFFH56CC","county_code":"h","district":"八德區","address":"桃園市八德區銀和街７１巷２號二樓之２","road":"八德區銀和街","building_type":"住宅大樓(11層含以上有電梯)","total_floors":18.0,"transfer_floor_num":2.0,"age_years":27.6,"rooms":2.0,"halls":1.0,"baths":1.0,"building_area_sqm":130.71,"total_price":16400,"unit_price_per_ping":413.22312500000004,"deal_date":"2026-03-20","is_special_deal":false,"note":"水費、電費、瓦斯費及每月管理費1600元整由承租人負擔。","lat":24.9562499,"lng":121.2978659,"geocode_src":"osm:exact"},{"serial_no":"RPUOMLLJMHLGFHH09CC","county_code":"h","district":"龜山區","address":"桃園市龜山區明德路明駝一村１５號二樓","road":"龜山區明德路","building_type":"華廈(10層含以下有電梯)","total_floors":7.0,"transfer_floor_num":2.0,"age_years":28.0,"rooms":4.0,"halls":2.0,"baths":2.0,"building_area_sqm":145.75,"total_price":15000,"unit_price_per_ping":340.495855,"deal_date":"2026-03-20","is_special_deal":false,"note":null,"lat":24.9933471,"lng":121.3402893,"geocode_src":"osm:exact"},{"serial_no":"RPWOMLPLLHLGFBH56CC","county_code":"h","district":"中壢區","address":"桃園市中壢區長興街１０號九樓","road":"中壢區長興街","building_type":"住宅大樓(11層含以上有電梯)","total_floors":12.0,"transfer_floor_num":9.0,"age_years":21.2,"rooms":2.0,"halls":2.0,"baths":1.0,"building_area_sqm":76.1,"total_price":16900,"unit_price_per_ping":733.88427,"deal_date":"2026-03-20","is_special_deal":false,"note":"管理費1100元，水電費 瓦斯費 由承租人負擔","lat":24.9699068,"lng":121.250831,"geocode_src":"osm:exact"},{"serial_no":"RPQOMLMJMHLGFDH38CC","county_code":"h","district":"楊梅區","address":"桃園市楊梅區青山五街２１號１１樓之１６","road":"楊梅區青山五街","building_type":"住宅大樓(11層含以上有電梯)","total_floors":15.0,"transfer_floor_num":11.0,"age_years":31.0,"rooms":1.0,"halls":0.0,"baths":1.0,"building_area_sqm":42.14,"total_price":7400,"unit_price_per_ping":581.81816,"deal_date":"2026-03-20","is_special_deal":false,"note":null,"lat":24.9206489,"lng":121.17134650000001,"geocode_src":"osm:exact"},{"serial_no":"RPTOMLQKMHLGFBH98CC","county_code":"h","district":"中壢區","address":"桃園市中壢區普強里民有街１６號","road":"中壢區普強里民有街","building_type":"透天厝","total_floors":2.0,"transfer_floor_num":null,"age_years":28.7,"rooms":18.0,"halls":0.0,"baths":18.0,"building_area_sqm":17.0,"total_price":5500,"unit_price_per_ping":1071.0743400000001,"deal_date":"2026-03-20","is_special_deal":false,"note":"租賃建物部分範圍，且未計入共有部分面積；","lat":24.9531701,"lng":121.2382407,"geocode_src":"osm:exact"},{"serial_no":"RPXPMLPLLHLGFAH66CC","county_code":"h","district":"桃園區","address":"桃園市桃園區民有五街１０６號四樓","road":"桃園區民有五街","building_type":"住宅大樓(11層含以上有電梯)","total_floors":12.0,"transfer_floor_num":4.0,"age_years":17.0,"rooms":3.0,"halls":1.0,"baths":2.0,"building_area_sqm":119.87,"total_price":23500,"unit_price_per_ping":647.93386,"deal_date":"2026-03-20","is_special_deal":false,"note":"水電費及管理費每月   3000元 由承租人負擔","lat":25.0087669,"lng":121.3178688,"geocode_src":"osm:exact"},{"serial_no":"RPTNMLTJMHLGFDH66CC","county_code":"h","district":"楊梅區","address":"桃園市楊梅區福羚路２４８巷４５號六樓","road":"楊梅區福羚路","building_type":"住宅大樓(11層含以上有電梯)","total_floors":12.0,"transfer_floor_num":6.0,"age_years":2.0,"rooms":2.0,"halls":2.0,"baths":1.0,"building_area_sqm":119.33,"total_price":16000,"unit_price_per_ping":442.97519000000005,"deal_date":"2026-03-20","is_special_deal":false,"note":"未租賃車位，建物登記含有車位面積；","lat":24.9076662,"lng":121.183029,"geocode_src":"osm:lane"},{"serial_no":"RPPSMLQLLHLGFAH88CC","county_code":"h","district":"桃園區","address":"桃園市桃園區泰昌八街１５號五樓之一","road":"桃園區泰昌八街","building_type":"住宅大樓(11層含以上有電梯)","total_floors":22.0,"transfer_floor_num":5.0,"age_years":32.9,"rooms":2.0,"halls":1.0,"baths":2.0,"building_area_sqm":111.73,"total_price":20000,"unit_price_per_ping":591.7355150000001,"deal_date":"2026-03-20","is_special_deal":false,"note":null,"lat":24.987522699999996,"lng":121.2921947,"geocode_src":"osm:exact"},{"serial_no":"RPSOMLKLLHLGFEH58CC","county_code":"h","district":"蘆竹區","address":"桃園市蘆竹區中山路１３９號八樓","road":"蘆竹區中山路","building_type":"住宅大樓(11層含以上有電梯)","total_floors":14.0,"transfer_floor_num":8.0,"age_years":23.7,"rooms":3.0,"halls":2.0,"baths":2.0,"building_area_sqm":142.75,"total_price":19900,"unit_price_per_ping":459.504115,"deal_date":"2026-03-20","is_special_deal":false,"note":"每月管理費2100元由承租人負擔，未計入租金。","lat":25.0565157,"lng":121.297666,"geocode_src":"osm:exact"},{"serial_no":"RPVNMLOLLHLGFEH56CC","county_code":"h","district":"蘆竹區","address":"桃園市蘆竹區大新三街２０１巷６號５樓","road":"蘆竹區大新三街","building_type":"住宅大樓(11層含以上有電梯)","total_floors":11.0,"transfer_floor_num":5.0,"age_years":11.0,"rooms":2.0,"halls":2.0,"baths":1.0,"building_area_sqm":93.89999999999999,"total_price":22000,"unit_price_per_ping":773.5536900000001,"deal_date":"2026-03-20","is_special_deal":false,"note":null,"lat":25.02079105,"lng":121.25642936,"geocode_src":"osm:exact"},{"serial_no":"RPXNMLPLLHLGFCH66CC","county_code":"h","district":"大溪區","address":"桃園市大溪區介壽路７０３巷８弄３６號","road":"大溪區介壽路","building_type":"透天厝","total_floors":4.0,"transfer_floor_num":null,"age_years":21.9,"rooms":4.0,"halls":2.0,"baths":3.0,"building_area_sqm":200.94,"total_price":18000,"unit_price_per_ping":297.52065,"deal_date":"2026-03-20","is_special_deal":false,"note":null,"lat":24.90996,"lng":121.2883305,"geocode_src":"osm:exact"},{"serial_no":"RPXOMLTJMHLGFBH96CC","county_code":"h","district":"中壢區","address":"桃園市中壢區成功路９４巷４３之１號六樓","road":"中壢區成功路","building_type":"華廈(10層含以下有電梯)","total_floors":6.0,"transfer_floor_num":6.0,"age_years":33.0,"rooms":2.0,"halls":2.0,"baths":1.0,"building_area_sqm":105.46,"total_price":15000,"unit_price_per_ping":469.42147,"deal_date":"2026-03-20","is_special_deal":false,"note":"多人共同承租2；續租案件；","lat":24.9757972,"lng":121.2610568,"geocode_src":"osm:exact"},{"serial_no":"RPSNMLKMLHLGFGH78CC","county_code":"h","district":"平鎮區","address":"桃園市平鎮區頂好街３３巷２號","road":"平鎮區頂好街","building_type":"透天厝","total_floors":2.0,"transfer_floor_num":null,"age_years":45.9,"rooms":4.0,"halls":1.0,"baths":2.0,"building_area_sqm":90.9,"total_price":12000,"unit_price_per_ping":436.36362,"deal_date":"2026-03-20","is_special_deal":false,"note":"續租案件；"},{"serial_no":"RPXNMLNLLHLGFAH88CC","county_code":"h","district":"桃園區","address":"桃園市桃園區興一街９８之７號六樓","road":"桃園區興一街","building_type":"華廈(10層含以下有電梯)","total_floors":6.0,"transfer_floor_num":6.0,"age_years":32.5,"rooms":3.0,"halls":1.0,"baths":2.0,"building_area_sqm":120.8,"total_price":13200,"unit_price_per_ping":360.33056500000004,"deal_date":"2026-03-20","is_special_deal":false,"note":"管理費1800元由承租人負擔續租案件；","lat":25.014224866666666,"lng":121.31567825,"geocode_src":"osm:exact"},{"serial_no":"RPSOMLLJMHLGFEH58CC","county_code":"h","district":"蘆竹區","address":"桃園市蘆竹區六福路１６１號七樓之９","road":"蘆竹區六福路","building_type":"住宅大樓(11層含以上有電梯)","total_floors":12.0,"transfer_floor_num":7.0,"age_years":32.5,"rooms":1.0,"halls":1.0,"baths":1.0,"building_area_sqm":38.03,"total_price":9000,"unit_price_per_ping":783.471045,"deal_date":"2026-03-20","is_special_deal":false,"note":"管理費、水電費、瓦斯費由承租人負擔","lat":25.0592358,"lng":121.295668,"geocode_src":"osm:exact"},{"serial_no":"RPSOMLOKMHLGFFH09CC","county_code":"h","district":"八德區","address":"桃園市八德區長興路４９３巷４９弄１５號","road":"八德區長興路","building_type":"透天厝","total_floors":3.0,"transfer_floor_num":null,"age_years":33.4,"rooms":3.0,"halls":1.0,"baths":1.0,"building_area_sqm":139.48,"total_price":24500,"unit_price_per_ping":581.81816,"deal_date":"2026-03-20","is_special_deal":false,"note":"社會住宅","lat":24.9313152,"lng":121.2716321,"geocode_src":"osm:exact"},{"serial_no":"RPSNMLRLLHLGFBH88CC","county_code":"h","district":"中壢區","address":"桃園市中壢區長春路２６１巷１１號八樓","road":"中壢區長春路","building_type":"華廈(10層含以下有電梯)","total_floors":10.0,"transfer_floor_num":8.0,"age_years":25.7,"rooms":3.0,"halls":1.0,"baths":2.0,"building_area_sqm":104.73,"total_price":18483,"unit_price_per_ping":581.81816,"deal_date":"2026-03-20","is_special_deal":false,"note":"每月管理費1517出租人自付。","lat":24.9767264,"lng":121.24554789999999,"geocode_src":"osm:exact"},{"serial_no":"RPWRMLOLLHLGFAH66CC","county_code":"h","district":"桃園區","address":"桃園市桃園區國際路一段１１５１巷２號四樓","road":"桃園區國際路一段","building_type":"華廈(10層含以下有電梯)","total_floors":7.0,"transfer_floor_num":4.0,"age_years":31.3,"rooms":3.0,"halls":2.0,"baths":2.0,"building_area_sqm":140.77,"total_price":20000,"unit_price_per_ping":469.42147,"deal_date":"2026-03-20","is_special_deal":false,"note":"管理費3000元由承租人負擔續租案件；","lat":24.9884204,"lng":121.2886677,"geocode_src":"osm:exact"},{"serial_no":"RPOSMLQKMHLGFBH88CC","county_code":"h","district":"中壢區","address":"桃園市中壢區新中北路８４６巷１弄２２號","road":"中壢區新中北路","building_type":"透天厝","total_floors":2.0,"transfer_floor_num":null,"age_years":48.6,"rooms":3.0,"halls":1.0,"baths":1.0,"building_area_sqm":96.0,"total_price":20000,"unit_price_per_ping":687.60328,"deal_date":"2026-03-20","is_special_deal":false,"note":"社會住宅","lat":24.956154,"lng":121.2524581,"geocode_src":"osm:exact"},{"serial_no":"RPOVMLKMLHLGFBH68CC","county_code":"h","district":"中壢區","address":"桃園市中壢區龍昌路１６１巷１６號２樓之３","road":"中壢區龍昌路","building_type":"公寓(5樓含以下無電梯)","total_floors":3.0,"transfer_floor_num":2.0,"age_years":15.4,"rooms":1.0,"halls":0.0,"baths":1.0,"building_area_sqm":21.7,"total_price":8000,"unit_price_per_ping":1219.834665,"deal_date":"2026-03-20","is_special_deal":false,"note":"租金總額含網路費；續租案件；","lat":24.9386579,"lng":121.2502005,"geocode_src":"osm:exact"},{"serial_no":"RPXNMLPLLHLGFFH96CC","county_code":"h","district":"八德區","address":"桃園市八德區中山路１４９號三樓之６","road":"八德區中山路","building_type":"住宅大樓(11層含以上有電梯)","total_floors":14.0,"transfer_floor_num":3.0,"age_years":12.3,"rooms":2.0,"halls":2.0,"baths":1.0,"building_area_sqm":94.22,"total_price":19300,"unit_price_per_ping":677.685925,"deal_date":"2026-03-20","is_special_deal":false,"note":"續租案件；","lat":24.9270473,"lng":121.28489459999999,"geocode_src":"osm:exact"},{"serial_no":"RPROMLOKMHLGFAH48CC","county_code":"h","district":"桃園區","address":"桃園市桃園區同安街４５５巷１弄２９之３號","road":"桃園區同安街","building_type":"公寓(5樓含以下無電梯)","total_floors":5.0,"transfer_floor_num":4.0,"age_years":44.5,"rooms":3.0,"halls":1.0,"baths":1.0,"building_area_sqm":82.12,"total_price":16000,"unit_price_per_ping":644.6280750000001,"deal_date":"2026-03-20","is_special_deal":false,"note":null,"lat":25.0194295,"lng":121.2995427,"geocode_src":"osm:exact"},{"serial_no":"RPVOMLLJMHLGFDH78CC","county_code":"h","district":"楊梅區","address":"桃園市楊梅區福羚路２０８號３樓之２","road":"楊梅區福羚路","building_type":"華廈(10層含以下有電梯)","total_floors":7.0,"transfer_floor_num":3.0,"age_years":30.8,"rooms":3.0,"halls":2.0,"baths":2.0,"building_area_sqm":119.19999999999999,"total_price":12900,"unit_price_per_ping":357.02478,"deal_date":"2026-03-20","is_special_deal":false,"note":"續租案件；","lat":24.9077459,"lng":121.1820273,"geocode_src":"osm:exact"},{"serial_no":"RPTNMLOLLHLGFCH78CC","county_code":"h","district":"龍潭區","address":"桃園市龍潭區中興路３９２巷９弄２３號","road":"龍潭區中興路","building_type":"透天厝","total_floors":2.0,"transfer_floor_num":null,"age_years":45.1,"rooms":6.0,"halls":3.0,"baths":3.0,"building_area_sqm":99.0,"total_price":15000,"unit_price_per_ping":502.47932000000003,"deal_date":"2026-03-20","is_special_deal":false,"note":"續租案件；","lat":24.8733411,"lng":121.2302567,"geocode_src":"osm:exact"},{"serial_no":"RPVNMLLLLHLGFFH98CC","county_code":"h","district":"八德區","address":"桃園市八德區豐田三路８７號十三樓","road":"八德區豐田三路","building_type":"住宅大樓(11層含以上有電梯)","total_floors":14.0,"transfer_floor_num":13.0,"age_years":10.3,"rooms":3.0,"halls":1.0,"baths":2.0,"building_area_sqm":161.36,"total_price":17500,"unit_price_per_ping":357.02478,"deal_date":"2026-03-20","is_special_deal":false,"note":"未租賃車位，建物登記含有車位面積；","lat":24.9281686,"lng":121.2866854,"geocode_src":"osm:exact"},{"serial_no":"RPVOMLQKMHLGFBH56CC","county_code":"h","district":"中壢區","address":"桃園市中壢區自治里陸光二街３號２樓","road":"中壢區自治里陸光二街","building_type":"華廈(10層含以下有電梯)","total_floors":5.0,"transfer_floor_num":2.0,"age_years":23.8,"rooms":8.0,"halls":0.0,"baths":8.0,"building_area_sqm":17.0,"total_price":10500,"unit_price_per_ping":2042.97513,"deal_date":"2026-03-20","is_special_deal":false,"note":"租賃建物部分範圍，且未計入共有部分面積；","lat":24.967316949999997,"lng":121.25959748333334,"geocode_src":"osm:exact"},{"serial_no":"RPVNMLNLLHLGFAH68CC","county_code":"h","district":"桃園區","address":"桃園市桃園區桃鶯路２７５之１號","road":"桃園區桃鶯路","building_type":"透天厝","total_floors":2.0,"transfer_floor_num":null,"age_years":54.2,"rooms":0.0,"halls":0.0,"baths":0.0,"building_area_sqm":113.24,"total_price":65000,"unit_price_per_ping":1897.52059,"deal_date":"2026-03-20","is_special_deal":false,"note":null,"lat":24.9832871,"lng":121.3190307,"geocode_src":"osm:exact"},{"serial_no":"RPWPMLLJMHLGFAH68CC","county_code":"h","district":"桃園區","address":"桃園市桃園區南豐街２２０之１號","road":"桃園區南豐街","building_type":"公寓(5樓含以下無電梯)","total_floors":5.0,"transfer_floor_num":2.0,"age_years":43.8,"rooms":3.0,"halls":1.0,"baths":1.0,"building_area_sqm":90.31,"total_price":7000,"unit_price_per_ping":257.85123,"deal_date":"2026-03-20","is_special_deal":false,"note":"續租案件；","lat":24.9826417,"lng":121.3052537,"geocode_src":"osm:exact"},{"serial_no":"RPUNMLOLLHLGFFH56CC","county_code":"h","district":"八德區","address":"桃園市八德區桃鶯路南僑巷１弄９號","road":"八德區桃鶯路","building_type":"透天厝","total_floors":2.0,"transfer_floor_num":null,"age_years":52.4,"rooms":4.0,"halls":4.0,"baths":2.0,"building_area_sqm":111.29,"total_price":18500,"unit_price_per_ping":548.76031,"deal_date":"2026-03-20","is_special_deal":false,"note":"水費、電費、瓦斯費皆由承租人負擔","lat":24.9697611,"lng":121.3278167,"geocode_src":"osm:exact"},{"serial_no":"RPTPMLKLLHLGFBH48CC","county_code":"h","district":"中壢區","address":"桃園市中壢區大智街１０號四樓之８","road":"中壢區大智街","building_type":"公寓(5樓含以下無電梯)","total_floors":5.0,"transfer_floor_num":4.0,"age_years":36.8,"rooms":1.0,"halls":0.0,"baths":1.0,"building_area_sqm":20.68,"total_price":4600,"unit_price_per_ping":733.88427,"deal_date":"2026-03-20","is_special_deal":false,"note":"管理費400元由出租人負擔，水電費 由承租人負擔續租案件；","lat":24.953082370967742,"lng":121.24109037096774,"geocode_src":"osm:exact"},{"serial_no":"RPQOMLOLLHLGFDH68CC","county_code":"h","district":"楊梅區","address":"桃園市楊梅區民族路五段１４７巷１４弄２號","road":"楊梅區民族路五段","building_type":"店面(店鋪)","total_floors":5.0,"transfer_floor_num":1.0,"age_years":8.1,"rooms":0.0,"halls":0.0,"baths":0.0,"building_area_sqm":140.85999999999999,"total_price":35000,"unit_price_per_ping":819.83468,"deal_date":"2026-03-20","is_special_deal":false,"note":"有多增建70平方公尺含增建或未登記建物；","lat":24.9560906,"lng":121.17364990000002,"geocode_src":"osm:exact"},{"serial_no":"RPQNMLMLLHLGFHH78CC","county_code":"h","district":"龜山區","address":"桃園市龜山區山鶯路１３０巷３３號","road":"龜山區山鶯路","building_type":"透天厝","total_floors":5.0,"transfer_floor_num":null,"age_years":4.5,"rooms":10.0,"halls":0.0,"baths":10.0,"building_area_sqm":29.46,"total_price":13000,"unit_price_per_ping":1457.851185,"deal_date":"2026-03-20","is_special_deal":false,"note":"租金總額含水費；網路費；其他電視費；續租案件；","lat":24.9891701,"lng":121.3235438,"geocode_src":"osm:lane"},{"serial_no":"RPSPMLOKMHLGFBH78CC","county_code":"h","district":"中壢區","address":"桃園市中壢區興仁路二段９９號九樓","road":"中壢區興仁路二段","building_type":"華廈(10層含以下有電梯)","total_floors":10.0,"transfer_floor_num":9.0,"age_years":19.8,"rooms":1.0,"halls":0.0,"baths":1.0,"building_area_sqm":31.66,"total_price":6300,"unit_price_per_ping":657.851215,"deal_date":"2026-03-20","is_special_deal":false,"note":null,"lat":24.96681348751926,"lng":121.263478896302,"geocode_src":"osm:exact"},{"serial_no":"RPUPMLNLLHLGFAH78CC","county_code":"h","district":"桃園區","address":"桃園市桃園區萬壽路三段２３１號十樓","road":"桃園區萬壽路三段","building_type":"華廈(10層含以下有電梯)","total_floors":10.0,"transfer_floor_num":10.0,"age_years":32.1,"rooms":3.0,"halls":1.0,"baths":2.0,"building_area_sqm":142.77,"total_price":15000,"unit_price_per_ping":347.10742500000003,"deal_date":"2026-03-20","is_special_deal":false,"note":"管理費1200元由承租人負擔續租案件；","lat":24.98991329090909,"lng":121.3160694909091,"geocode_src":"osm:exact"},{"serial_no":"RPRNMLMKMHLGFAH18CC","county_code":"h","district":"桃園區","address":"桃園市桃園區莊敬路二段９９號十樓","road":"桃園區莊敬路二段","building_type":"住宅大樓(11層含以上有電梯)","total_floors":17.0,"transfer_floor_num":10.0,"age_years":31.7,"rooms":3.0,"halls":1.0,"baths":2.0,"building_area_sqm":130.44,"total_price":15000,"unit_price_per_ping":380.165275,"deal_date":"2026-03-20","is_special_deal":false,"note":"管理費2500元、水、電、瓦斯、網路費由承租人負擔。","lat":25.022493544444444,"lng":121.2931189277778,"geocode_src":"osm:exact"},{"serial_no":"RPWOMLPLLHLGFHH17CC","county_code":"h","district":"龜山區","address":"桃園市龜山區林森路１２７巷２５弄４號四樓","road":"龜山區林森路","building_type":"公寓(5樓含以下無電梯)","total_floors":4.0,"transfer_floor_num":4.0,"age_years":45.4,"rooms":3.0,"halls":1.0,"baths":1.0,"building_area_sqm":64.4,"total_price":12000,"unit_price_per_ping":614.8760100000001,"deal_date":"2026-03-20","is_special_deal":false,"note":"續租案件；","lat":24.9882118,"lng":121.3222388,"geocode_src":"osm:exact"},{"serial_no":"RPPNMLMLLHLGFGH58CC","county_code":"h","district":"平鎮區","address":"桃園市平鎮區金陵路三段１０１巷１１號","road":"平鎮區金陵路三段","building_type":"公寓(5樓含以下無電梯)","total_floors":4.0,"transfer_floor_num":1.0,"age_years":45.1,"rooms":3.0,"halls":1.0,"baths":1.0,"building_area_sqm":78.54,"total_price":16500,"unit_price_per_ping":694.2148500000001,"deal_date":"2026-03-20","is_special_deal":false,"note":null,"lat":24.9247745,"lng":121.2280582,"geocode_src":"osm:road"},{"serial_no":"RPTRMLTJMHLGFBH86CC","county_code":"h","district":"中壢區","address":"桃園市中壢區龍慈路６８號十二樓","road":"中壢區龍慈路","building_type":"住宅大樓(11層含以上有電梯)","total_floors":15.0,"transfer_floor_num":12.0,"age_years":1.8,"rooms":2.0,"halls":1.0,"baths":1.0,"building_area_sqm":130.59,"total_price":23000,"unit_price_per_ping":687.60328,"deal_date":"2026-03-20","is_special_deal":false,"note":"承租人負擔管理費2000元","lat":24.9423471,"lng":121.2467412,"geocode_src":"osm:road"},{"serial_no":"RPWNMLQLLHLGFCH66CC","county_code":"h","district":"龍潭區","address":"桃園市龍潭區渴望路２３７巷１號","road":"龍潭區渴望路","building_type":"華廈(10層含以下有電梯)","total_floors":7.0,"transfer_floor_num":3.0,"age_years":26.9,"rooms":168.0,"halls":0.0,"baths":168.0,"building_area_sqm":24.0,"total_price":11000,"unit_price_per_ping":1514.04953,"deal_date":"2026-03-20","is_special_deal":false,"note":null,"lat":24.8373174,"lng":121.1876904,"geocode_src":"osm:exact"},{"serial_no":"RPWPMLOKMHLGFBH56CC","county_code":"h","district":"中壢區","address":"桃園市中壢區興仁路二段９９號八樓之４９","road":"中壢區興仁路二段","building_type":"華廈(10層含以下有電梯)","total_floors":10.0,"transfer_floor_num":8.0,"age_years":19.8,"rooms":1.0,"halls":0.0,"baths":1.0,"building_area_sqm":31.66,"total_price":6300,"unit_price_per_ping":657.851215,"deal_date":"2026-03-20","is_special_deal":false,"note":null,"lat":24.96681348751926,"lng":121.263478896302,"geocode_src":"osm:exact"},{"serial_no":"RPTPMLNLLHLGFBH78CC","county_code":"h","district":"觀音區","address":"桃園市觀音區永吉街２８１之１號","road":"觀音區永吉街","building_type":"華廈(10層含以下有電梯)","total_floors":6.0,"transfer_floor_num":1.0,"age_years":1.6,"rooms":1.0,"halls":0.0,"baths":1.0,"building_area_sqm":21.93,"total_price":4000,"unit_price_per_ping":601.65287,"deal_date":"2026-03-20","is_special_deal":true,"note":"租金總額含管理費；網路費；租賃建物部分範圍，且未計入共有部分面積；親友、員工、共有人或其他特殊關係間之租賃；續租案件；","lat":25.0508813,"lng":121.12020809999999,"geocode_src":"osm:road"},{"serial_no":"RPRNMLNLLHLGFGH88CC","county_code":"h","district":"平鎮區","address":"桃園市平鎮區義興街１６號三樓","road":"平鎮區義興街","building_type":"華廈(10層含以下有電梯)","total_floors":5.0,"transfer_floor_num":3.0,"age_years":1.3,"rooms":1.0,"halls":1.0,"baths":1.0,"building_area_sqm":40.39,"total_price":11700,"unit_price_per_ping":958.6776500000001,"deal_date":"2026-03-20","is_special_deal":false,"note":"每月管理費300元由出租人負擔，租金已扣除。續租案件；"},{"serial_no":"RPSRMLKMLHLGFAH58CC","county_code":"h","district":"桃園區","address":"桃園市桃園區南華街１９７號五樓之８","road":"桃園區南華街","building_type":"華廈(10層含以下有電梯)","total_floors":6.0,"transfer_floor_num":5.0,"age_years":45.6,"rooms":1.0,"halls":0.0,"baths":1.0,"building_area_sqm":33.02,"total_price":7600,"unit_price_per_ping":760.33055,"deal_date":"2026-03-20","is_special_deal":false,"note":"水電費/瓦斯費由承租人負擔管理費  400元 由出租人負擔","lat":24.9943076,"lng":121.306787,"geocode_src":"osm:exact"},{"serial_no":"RPSQMLPKMHLGFBH98CC","county_code":"h","district":"中壢區","address":"桃園市中壢區陸光五街９號二樓之３","road":"中壢區陸光五街","building_type":"華廈(10層含以下有電梯)","total_floors":5.0,"transfer_floor_num":2.0,"age_years":23.3,"rooms":1.0,"halls":1.0,"baths":1.0,"building_area_sqm":47.26,"total_price":8500,"unit_price_per_ping":595.0413,"deal_date":"2026-03-20","is_special_deal":false,"note":"社會住宅","lat":24.9655306,"lng":121.2579417,"geocode_src":"osm:exact"},{"serial_no":"RPWQMLPLLHLGFBH76CC","county_code":"h","district":"中壢區","address":"桃園市中壢區龍東路４４５巷２５９號","road":"中壢區龍東路","building_type":"透天厝","total_floors":3.0,"transfer_floor_num":null,"age_years":36.6,"rooms":9.0,"halls":0.0,"baths":9.0,"building_area_sqm":23.14,"total_price":7000,"unit_price_per_ping":1001.652855,"deal_date":"2026-03-20","is_special_deal":false,"note":"租金總額含網路費；其他電視費；","lat":24.9347439,"lng":121.2507108,"geocode_src":"osm:exact"},{"serial_no":"RPROMLQJMHLGFEH98CC","county_code":"h","district":"蘆竹區","address":"桃園市蘆竹區大興八街９３號３樓之５","road":"蘆竹區大興八街","building_type":"住宅大樓(11層含以上有電梯)","total_floors":13.0,"transfer_floor_num":3.0,"age_years":16.9,"rooms":3.0,"halls":3.0,"baths":3.0,"building_area_sqm":24.13,"total_price":10000,"unit_price_per_ping":1368.59499,"deal_date":"2026-03-20","is_special_deal":false,"note":"租金總額含管理費；網路費；其他第四台；租賃建物部分範圍，且未計入共有部分面積；","lat":25.017542657534246,"lng":121.26034466712329,"geocode_src":"osm:exact"},{"serial_no":"RPQNMLKMLHLGFHH68CC","county_code":"h","district":"龜山區","address":"桃園市龜山區樂善二路１８１號五樓之６","road":"龜山區樂善二路","building_type":"住宅大樓(11層含以上有電梯)","total_floors":28.0,"transfer_floor_num":5.0,"age_years":5.2,"rooms":2.0,"halls":2.0,"baths":1.0,"building_area_sqm":118.25,"total_price":24000,"unit_price_per_ping":766.94212,"deal_date":"2026-03-20","is_special_deal":false,"note":"另有管理費2000元，由承租人負擔。","lat":25.0467215,"lng":121.3839172,"geocode_src":"osm:exact"},{"serial_no":"RPRNMLSJMHLGFAH78DC","county_code":"h","district":"桃園區","address":"桃園市桃園區莊敬路一段３７１號十二樓之三","road":"桃園區莊敬路一段","building_type":"住宅大樓(11層含以上有電梯)","total_floors":17.0,"transfer_floor_num":12.0,"age_years":30.7,"rooms":3.0,"halls":2.0,"baths":2.0,"building_area_sqm":113.25999999999999,"total_price":21000,"unit_price_per_ping":611.570225,"deal_date":"2026-03-20","is_special_deal":false,"note":"租金總額含管理費；","lat":25.02339976896552,"lng":121.29656644999999,"geocode_src":"osm:exact"},{"serial_no":"RPVOMLKMLHLGFAH58CC","county_code":"h","district":"桃園區","address":"桃園市桃園區龍泉六街１８０號十一樓","road":"桃園區龍泉六街","building_type":"住宅大樓(11層含以上有電梯)","total_floors":13.0,"transfer_floor_num":11.0,"age_years":12.8,"rooms":3.0,"halls":2.0,"baths":2.0,"building_area_sqm":159.76999999999998,"total_price":23200,"unit_price_per_ping":578.512375,"deal_date":"2026-03-20","is_special_deal":false,"note":"水電費/瓦斯費及管理費每月 2800 元 由承租人負擔","lat":24.983387000000004,"lng":121.2692159,"geocode_src":"osm:exact"},{"serial_no":"RPRNMLNLLHLGFCH48CC","county_code":"h","district":"龍潭區","address":"桃園市龍潭區中豐路４９１巷２弄２衖３１號","road":"龍潭區中豐路","building_type":"透天厝","total_floors":2.0,"transfer_floor_num":null,"age_years":47.6,"rooms":1.0,"halls":1.0,"baths":1.0,"building_area_sqm":74.8,"total_price":15000,"unit_price_per_ping":664.462785,"deal_date":"2026-03-20","is_special_deal":false,"note":null,"lat":24.8835612,"lng":121.2107168,"geocode_src":"osm:exact"},{"serial_no":"RPUNMLKMLHLGFAH38CC","county_code":"h","district":"桃園區","address":"桃園市桃園區延壽街１５４巷２８弄２號三樓之２","road":"桃園區延壽街","building_type":"華廈(10層含以下有電梯)","total_floors":5.0,"transfer_floor_num":3.0,"age_years":2.2,"rooms":1.0,"halls":1.0,"baths":1.0,"building_area_sqm":60.44,"total_price":19000,"unit_price_per_ping":1038.01649,"deal_date":"2026-03-20","is_special_deal":false,"note":"水電費及管理費每月   1000元 由承租人負擔","lat":24.9941002,"lng":121.2915437,"geocode_src":"osm:exact"},{"serial_no":"RPXNMLKMLHLGFGH66CC","county_code":"h","district":"平鎮區","address":"桃園市平鎮區平安南街２０巷５之４號","road":"平鎮區平安南街","building_type":"公寓(5樓含以下無電梯)","total_floors":5.0,"transfer_floor_num":5.0,"age_years":44.3,"rooms":3.0,"halls":1.0,"baths":1.0,"building_area_sqm":80.89,"total_price":12500,"unit_price_per_ping":512.3966750000001,"deal_date":"2026-03-20","is_special_deal":false,"note":null},{"serial_no":"RPWNMLPKMHLGFFH86CC","county_code":"h","district":"八德區","address":"桃園市八德區中正一路１６號十一樓","road":"八德區中正一路","building_type":"住宅大樓(11層含以上有電梯)","total_floors":24.0,"transfer_floor_num":11.0,"age_years":10.8,"rooms":3.0,"halls":1.0,"baths":2.0,"building_area_sqm":169.36,"total_price":21300,"unit_price_per_ping":456.19833,"deal_date":"2026-03-20","is_special_deal":false,"note":"社會住宅","lat":24.930338,"lng":121.2822895,"geocode_src":"osm:exact"},{"serial_no":"RPRNMLRLLHLGFEH09CC","county_code":"h","district":"大園區","address":"桃園市大園區南和路１４７之２號２樓","road":"大園區南和路","building_type":"華廈(10層含以下有電梯)","total_floors":5.0,"transfer_floor_num":2.0,"age_years":2.4,"rooms":2.0,"halls":1.0,"baths":1.0,"building_area_sqm":58.81,"total_price":14000,"unit_price_per_ping":786.77683,"deal_date":"2026-03-20","is_special_deal":false,"note":"管理費、水電費、瓦斯費由承租人負擔續租案件；","lat":25.0470142,"lng":121.1696999,"geocode_src":"osm:exact"},{"serial_no":"RPOQMLSJMHLGFBH78CC","county_code":"h","district":"中壢區","address":"桃園市中壢區領航南路一段７９號","road":"中壢區領航南路一段","building_type":"店面(店鋪)","total_floors":23.0,"transfer_floor_num":1.0,"age_years":10.0,"rooms":0.0,"halls":0.0,"baths":0.0,"building_area_sqm":183.48000000000002,"total_price":45000,"unit_price_per_ping":809.917325,"deal_date":"2026-03-20","is_special_deal":false,"note":"租金總額含稅；","lat":25.0010208,"lng":121.204649,"geocode_src":"osm:exact"},{"serial_no":"RPUNMLMKMHLGFAH48CC","county_code":"h","district":"桃園區","address":"桃園市桃園區安慶街１３３巷１３號十四樓","road":"桃園區安慶街","building_type":"住宅大樓(11層含以上有電梯)","total_floors":16.0,"transfer_floor_num":14.0,"age_years":31.9,"rooms":2.0,"halls":1.0,"baths":2.0,"building_area_sqm":93.52000000000001,"total_price":19500,"unit_price_per_ping":690.909065,"deal_date":"2026-03-20","is_special_deal":false,"note":"管理費2500元、水、電、瓦斯、網路費由承租人負擔。","lat":25.0177594,"lng":121.2913468,"geocode_src":"osm:exact"},{"serial_no":"RPTNMLPLLHLGFCH88CC","county_code":"h","district":"大溪區","address":"桃園市大溪區中華路７０巷２３號二樓","road":"大溪區中華路","building_type":"華廈(10層含以下有電梯)","total_floors":8.0,"transfer_floor_num":2.0,"age_years":31.6,"rooms":3.0,"halls":2.0,"baths":1.0,"building_area_sqm":96.25999999999999,"total_price":12700,"unit_price_per_ping":436.36362,"deal_date":"2026-03-20","is_special_deal":false,"note":"每個月管理費1300元由承租人負擔","lat":24.8830395,"lng":121.294077,"geocode_src":"osm:exact"},{"serial_no":"RPQQMLQKMHLGFAH78CC","county_code":"h","district":"桃園區","address":"桃園市桃園區永安北路４１６號十樓之５","road":"桃園區永安北路","building_type":"住宅大樓(11層含以上有電梯)","total_floors":15.0,"transfer_floor_num":10.0,"age_years":29.1,"rooms":1.0,"halls":1.0,"baths":1.0,"building_area_sqm":58.849999999999994,"total_price":15000,"unit_price_per_ping":842.975175,"deal_date":"2026-03-20","is_special_deal":false,"note":"社會住宅","lat":25.0170978,"lng":121.292774,"geocode_src":"osm:exact"},{"serial_no":"RPSNMLOLLHLGFGH09CC","county_code":"h","district":"平鎮區","address":"桃園市平鎮區廣泰路２１０巷２５弄１９號二樓","road":"平鎮區廣泰路","building_type":"公寓(5樓含以下無電梯)","total_floors":5.0,"transfer_floor_num":2.0,"age_years":30.7,"rooms":3.0,"halls":2.0,"baths":2.0,"building_area_sqm":94.73,"total_price":17000,"unit_price_per_ping":591.7355150000001,"deal_date":"2026-03-20","is_special_deal":false,"note":"續租案件；","lat":24.9462264,"lng":121.2046936,"geocode_src":"osm:road"},{"serial_no":"RPVRMLOLLHLGFBH66CC","county_code":"h","district":"中壢區","address":"桃園市中壢區龍岡路二段７３巷２０號七樓","road":"中壢區龍岡路二段","building_type":"華廈(10層含以下有電梯)","total_floors":7.0,"transfer_floor_num":7.0,"age_years":18.3,"rooms":1.0,"halls":1.0,"baths":1.0,"building_area_sqm":29.36,"total_price":5800,"unit_price_per_ping":654.54543,"deal_date":"2026-03-20","is_special_deal":false,"note":"每月管理費700元由承租人負擔，未計入租金。","lat":24.9465663,"lng":121.2296534,"geocode_src":"osm:exact"},{"serial_no":"RPXSMLMJMHLGFBH66CC","county_code":"h","district":"中壢區","address":"桃園市中壢區仁慈路１７６號十二樓之１","road":"中壢區仁慈路","building_type":"住宅大樓(11層含以上有電梯)","total_floors":12.0,"transfer_floor_num":12.0,"age_years":30.6,"rooms":1.0,"halls":1.0,"baths":1.0,"building_area_sqm":35.43,"total_price":6000,"unit_price_per_ping":558.677665,"deal_date":"2026-03-20","is_special_deal":false,"note":null,"lat":24.9453833,"lng":121.2525061,"geocode_src":"osm:exact"},{"serial_no":"RPXOMLKLLHLGFEH09CC","county_code":"h","district":"蘆竹區","address":"桃園市蘆竹區忠孝西路１８２巷４９號４樓","road":"蘆竹區忠孝西路","building_type":"住宅大樓(11層含以上有電梯)","total_floors":15.0,"transfer_floor_num":4.0,"age_years":13.9,"rooms":2.0,"halls":2.0,"baths":1.0,"building_area_sqm":105.82,"total_price":14606,"unit_price_per_ping":456.19833,"deal_date":"2026-03-20","is_special_deal":false,"note":null,"lat":25.0403169,"lng":121.2886225,"geocode_src":"osm:exact"},{"serial_no":"RPROMLRJMHLGFBH78CC","county_code":"h","district":"中壢區","address":"桃園市中壢區青商路１８號７樓","road":"中壢區青商路","building_type":"住宅大樓(11層含以上有電梯)","total_floors":14.0,"transfer_floor_num":7.0,"age_years":9.0,"rooms":2.0,"halls":2.0,"baths":1.0,"building_area_sqm":125.64,"total_price":16500,"unit_price_per_ping":472.727255,"deal_date":"2026-03-20","is_special_deal":false,"note":"管理費、停車費、水電費、瓦斯費由承租人負擔續租案件；","lat":25.004887400000005,"lng":121.2169052,"geocode_src":"osm:exact"},{"serial_no":"RPPRMLKMLHLGFBH38CC","county_code":"h","district":"觀音區","address":"桃園市觀音區文林路１０３８號二樓之２","road":"觀音區文林路","building_type":"華廈(10層含以下有電梯)","total_floors":5.0,"transfer_floor_num":2.0,"age_years":3.3,"rooms":2.0,"halls":1.0,"baths":1.0,"building_area_sqm":73.86,"total_price":13000,"unit_price_per_ping":581.81816,"deal_date":"2026-03-20","is_special_deal":false,"note":"水費、電費、瓦斯費、網路費及每月管理費1340元整由承租人負擔。","lat":25.033742666666665,"lng":121.11966556666668,"geocode_src":"osm:exact"},{"serial_no":"RPQNMLMJMHLGFAH97CC","county_code":"h","district":"桃園區","address":"桃園市桃園區吉安街５２號１１樓","road":"桃園區吉安街","building_type":"住宅大樓(11層含以上有電梯)","total_floors":23.0,"transfer_floor_num":11.0,"age_years":2.6,"rooms":2.0,"halls":2.0,"baths":2.0,"building_area_sqm":83.47,"total_price":26800,"unit_price_per_ping":1061.156985,"deal_date":"2026-03-20","is_special_deal":false,"note":"租金總額含管理費；","lat":25.005495863636362,"lng":121.29264520454545,"geocode_src":"osm:exact"},{"serial_no":"RPROMLOLLHLGFAH48CC","county_code":"h","district":"桃園區","address":"桃園市桃園區永安路２４９號六樓","road":"桃園區永安路","building_type":"住宅大樓(11層含以上有電梯)","total_floors":13.0,"transfer_floor_num":6.0,"age_years":30.7,"rooms":3.0,"halls":1.0,"baths":2.0,"building_area_sqm":105.29,"total_price":16000,"unit_price_per_ping":502.47932000000003,"deal_date":"2026-03-20","is_special_deal":false,"note":"每月管理費2000元由承租人負擔，未計入租金。續租案件；","lat":24.9986191,"lng":121.3029167,"geocode_src":"osm:exact"},{"serial_no":"RPOQMLOKMHLGFBH48CC","county_code":"h","district":"中壢區","address":"桃園市中壢區興仁路二段９９號六樓之２３","road":"中壢區興仁路二段","building_type":"華廈(10層含以下有電梯)","total_floors":10.0,"transfer_floor_num":4.0,"age_years":19.8,"rooms":1.0,"halls":0.0,"baths":1.0,"building_area_sqm":31.66,"total_price":6300,"unit_price_per_ping":657.851215,"deal_date":"2026-03-20","is_special_deal":false,"note":null,"lat":24.96681348751926,"lng":121.263478896302,"geocode_src":"osm:exact"},{"serial_no":"RPWNMLRJMHLGFBH56CC","county_code":"h","district":"中壢區","address":"桃園市中壢區新中二街５３號","road":"中壢區新中二街","building_type":"華廈(10層含以下有電梯)","total_floors":6.0,"transfer_floor_num":1.0,"age_years":31.5,"rooms":4.0,"halls":2.0,"baths":2.0,"building_area_sqm":150.83,"total_price":15000,"unit_price_per_ping":327.272715,"deal_date":"2026-03-20","is_special_deal":false,"note":"管理費、水電費、瓦斯費由承租人負擔續租案件；","lat":24.9581084,"lng":121.2421844,"geocode_src":"osm:exact"},{"serial_no":"RPQNMLRLLHLGFBH68CC","county_code":"h","district":"中壢區","address":"桃園市中壢區領航南路一段２２１號７樓","road":"中壢區領航南路一段","building_type":"住宅大樓(11層含以上有電梯)","total_floors":14.0,"transfer_floor_num":7.0,"age_years":7.4,"rooms":1.0,"halls":1.0,"baths":1.0,"building_area_sqm":81.81,"total_price":16000,"unit_price_per_ping":647.93386,"deal_date":"2026-03-20","is_special_deal":false,"note":"續租案件；","lat":25.0009926,"lng":121.2082706,"geocode_src":"osm:exact"},{"serial_no":"RPUNMLPLLHLGFEH56CC","county_code":"h","district":"大園區","address":"桃園市大園區拔子林三路４９號","road":"大園區拔子林三路","building_type":"透天厝","total_floors":4.0,"transfer_floor_num":null,"age_years":31.1,"rooms":5.0,"halls":1.0,"baths":4.0,"building_area_sqm":197.89999999999998,"total_price":34500,"unit_price_per_ping":575.20659,"deal_date":"2026-03-20","is_special_deal":false,"note":"水電費由承租人負擔","lat":25.0778382,"lng":121.2628494,"geocode_src":"osm:exact"},{"serial_no":"RPQNMLMLLHLGFAH08CC","county_code":"h","district":"桃園區","address":"桃園市桃園區向善街３３號９樓","road":"桃園區向善街","building_type":"住宅大樓(11層含以上有電梯)","total_floors":13.0,"transfer_floor_num":9.0,"age_years":30.7,"rooms":3.0,"halls":1.0,"baths":2.0,"building_area_sqm":111.9,"total_price":18000,"unit_price_per_ping":532.231385,"deal_date":"2026-03-20","is_special_deal":false,"note":null,"lat":25.0192054,"lng":121.30992815833332,"geocode_src":"osm:exact"},{"serial_no":"RPPNMLSJMHLGFFH98CC","county_code":"h","district":"八德區","address":"桃園市八德區廣興路３７號十二樓","road":"八德區廣興路","building_type":"住宅大樓(11層含以上有電梯)","total_floors":12.0,"transfer_floor_num":12.0,"age_years":11.1,"rooms":2.0,"halls":2.0,"baths":2.0,"building_area_sqm":140.55,"total_price":17700,"unit_price_per_ping":416.52891,"deal_date":"2026-03-20","is_special_deal":false,"note":"未租賃車位，建物登記含有車位面積；","lat":24.9320388,"lng":121.2842317,"geocode_src":"osm:exact"},{"serial_no":"RPVOMLKMLHLGFEH98CC","county_code":"h","district":"蘆竹區","address":"桃園市蘆竹區機捷路二段９８９號７樓B室","road":"蘆竹區機捷路二段","building_type":"華廈(10層含以下有電梯)","total_floors":8.0,"transfer_floor_num":7.0,"age_years":3.4,"rooms":2.0,"halls":2.0,"baths":2.0,"building_area_sqm":23.0,"total_price":12500,"unit_price_per_ping":1795.041255,"deal_date":"2026-03-20","is_special_deal":false,"note":"網路費500元社區管理費1000元續租案件；","lat":25.0804787,"lng":121.2819755,"geocode_src":"osm:exact"},{"serial_no":"RPVRMLMJMHLGFBH98CC","county_code":"h","district":"中壢區","address":"桃園市中壢區高鐵站前東路一段９９號５樓之３","road":"中壢區高鐵站前東路一段","building_type":"住宅大樓(11層含以上有電梯)","total_floors":17.0,"transfer_floor_num":5.0,"age_years":4.5,"rooms":1.0,"halls":1.0,"baths":1.0,"building_area_sqm":91.56,"total_price":21444,"unit_price_per_ping":773.5536900000001,"deal_date":"2026-03-20","is_special_deal":false,"note":"未租賃車位，建物登記含有車位面積；","lat":25.01221818108108,"lng":121.21820212072072,"geocode_src":"osm:exact"},{"serial_no":"RPWRMLOKMHLGFAH66CC","county_code":"h","district":"桃園區","address":"桃園市桃園區同安街１５號十二樓","road":"桃園區同安街","building_type":"住宅大樓(11層含以上有電梯)","total_floors":12.0,"transfer_floor_num":12.0,"age_years":17.9,"rooms":2.0,"halls":2.0,"baths":2.0,"building_area_sqm":162.53,"total_price":19000,"unit_price_per_ping":386.77684500000004,"deal_date":"2026-03-20","is_special_deal":false,"note":"管理費2550元、水、電、瓦斯、網路費由承租人負擔。未租賃車位，建物登記含有車位面積；","lat":25.0109484,"lng":121.3053793,"geocode_src":"osm:exact"},{"serial_no":"RPRQMLOKMHLGFBH78CC","county_code":"h","district":"中壢區","address":"桃園市中壢區興仁路二段９９號六樓之５９","road":"中壢區興仁路二段","building_type":"華廈(10層含以下有電梯)","total_floors":10.0,"transfer_floor_num":6.0,"age_years":19.8,"rooms":1.0,"halls":0.0,"baths":1.0,"building_area_sqm":31.66,"total_price":6300,"unit_price_per_ping":657.851215,"deal_date":"2026-03-20","is_special_deal":false,"note":null,"lat":24.96681348751926,"lng":121.263478896302,"geocode_src":"osm:exact"},{"serial_no":"RPTOMLPKMHLGFAH78CC","county_code":"h","district":"桃園區","address":"桃園市桃園區中平路１１５號十二樓","road":"桃園區中平路","building_type":"住宅大樓(11層含以上有電梯)","total_floors":20.0,"transfer_floor_num":12.0,"age_years":30.5,"rooms":3.0,"halls":1.0,"baths":2.0,"building_area_sqm":126.94,"total_price":11000,"unit_price_per_ping":287.603295,"deal_date":"2026-03-20","is_special_deal":false,"note":"每個月管理費1000元由承租人負擔","lat":24.9874069,"lng":121.29303320000001,"geocode_src":"osm:exact"},{"serial_no":"RPUOMLNLLHLGFBH78CC","county_code":"h","district":"觀音區","address":"桃園市觀音區樂群街６２號","road":"觀音區樂群街","building_type":"華廈(10層含以下有電梯)","total_floors":5.0,"transfer_floor_num":1.0,"age_years":0.8,"rooms":1.0,"halls":1.0,"baths":1.0,"building_area_sqm":29.400000000000002,"total_price":8000,"unit_price_per_ping":899.17352,"deal_date":"2026-03-20","is_special_deal":false,"note":"管理費500元由承租人負擔機車位1個0元由承租人負擔","lat":25.0524194,"lng":121.120276,"geocode_src":"osm:road"},{"serial_no":"RPOPMLLJMHLGFBH97CC","county_code":"h","district":"中壢區","address":"桃園市中壢區榮安十三街２３６巷３６號六樓","road":"中壢區榮安十三街","building_type":"華廈(10層含以下有電梯)","total_floors":9.0,"transfer_floor_num":6.0,"age_years":25.1,"rooms":2.0,"halls":2.0,"baths":1.0,"building_area_sqm":108.85,"total_price":10000,"unit_price_per_ping":304.13222,"deal_date":"2026-03-20","is_special_deal":false,"note":"管理費每個月1500元整、水費、電費、瓦斯費皆由承租人負擔","lat":24.9624688,"lng":121.2593395,"geocode_src":"osm:exact"},{"serial_no":"RPRNMLLMLHLGFFH68CC","county_code":"h","district":"八德區","address":"桃園市八德區豐田八街４７號六樓","road":"八德區豐田八街","building_type":"住宅大樓(11層含以上有電梯)","total_floors":11.0,"transfer_floor_num":6.0,"age_years":1.3,"rooms":2.0,"halls":2.0,"baths":2.0,"building_area_sqm":132.57,"total_price":19000,"unit_price_per_ping":472.727255,"deal_date":"2026-03-20","is_special_deal":false,"note":"管理費3000元，水電費 瓦斯費 由承租人負擔未租賃車位，建物登記含有車位面積；","lat":24.933407,"lng":121.288895,"geocode_src":"osm:road"},{"serial_no":"RPVPMLOKMHLGFBH09CC","county_code":"h","district":"中壢區","address":"桃園市中壢區興仁路二段９９號八樓之５９","road":"中壢區興仁路二段","building_type":"華廈(10層含以下有電梯)","total_floors":10.0,"transfer_floor_num":8.0,"age_years":19.8,"rooms":1.0,"halls":0.0,"baths":1.0,"building_area_sqm":31.66,"total_price":6300,"unit_price_per_ping":657.851215,"deal_date":"2026-03-20","is_special_deal":false,"note":null,"lat":24.96681348751926,"lng":121.263478896302,"geocode_src":"osm:exact"},{"serial_no":"RPPOMLQLLHLGFAH48CC","county_code":"h","district":"桃園區","address":"桃園市桃園區永安路６１７號７樓之６","road":"桃園區永安路","building_type":"住宅大樓(11層含以上有電梯)","total_floors":13.0,"transfer_floor_num":7.0,"age_years":4.3,"rooms":1.0,"halls":1.0,"baths":1.0,"building_area_sqm":113.81,"total_price":18000,"unit_price_per_ping":522.31403,"deal_date":"2026-03-20","is_special_deal":false,"note":"每月管理費3145由承租人自付未租賃車位，建物登記含有車位面積；續租案件；","lat":25.005592339215685,"lng":121.29433537843137,"geocode_src":"osm:exact"},{"serial_no":"RPQNMLNLLHLGFEH58CC","county_code":"h","district":"大園區","address":"桃園市大園區水源南路１０８３巷８號八樓之２","road":"大園區水源南路","building_type":"華廈(10層含以下有電梯)","total_floors":10.0,"transfer_floor_num":8.0,"age_years":0.9,"rooms":2.0,"halls":2.0,"baths":2.0,"building_area_sqm":164.1,"total_price":14000,"unit_price_per_ping":294.21486500000003,"deal_date":"2026-03-20","is_special_deal":false,"note":"每個月管理費3000元由承租人負擔"},{"serial_no":"RPXRMLNKMHLGFBH76CC","county_code":"h","district":"中壢區","address":"桃園市中壢區松信路３６號四樓之２","road":"中壢區松信路","building_type":"住宅大樓(11層含以上有電梯)","total_floors":15.0,"transfer_floor_num":4.0,"age_years":5.6,"rooms":2.0,"halls":1.0,"baths":1.0,"building_area_sqm":125.44,"total_price":15000,"unit_price_per_ping":396.6942,"deal_date":"2026-03-20","is_special_deal":false,"note":"未租賃車位，建物登記含有車位面積；","lat":24.96108418596491,"lng":121.16435364385964,"geocode_src":"osm:exact"},{"serial_no":"RPTNMLTJMHLGFCH56CC","county_code":"h","district":"大溪區","address":"桃園市大溪區僑愛一街７２巷１６弄６號五樓","road":"大溪區僑愛一街","building_type":"住宅大樓(11層含以上有電梯)","total_floors":11.0,"transfer_floor_num":5.0,"age_years":24.0,"rooms":4.0,"halls":2.0,"baths":2.0,"building_area_sqm":195.26999999999998,"total_price":19000,"unit_price_per_ping":320.66114500000003,"deal_date":"2026-03-20","is_special_deal":false,"note":"續租案件；","lat":24.9223384,"lng":121.2938226,"geocode_src":"osm:exact"},{"serial_no":"RPQNMLSJMHLGFAH68DC","county_code":"h","district":"桃園區","address":"桃園市桃園區龍安街１６５之５號十四樓","road":"桃園區龍安街","building_type":"住宅大樓(11層含以上有電梯)","total_floors":14.0,"transfer_floor_num":14.0,"age_years":23.2,"rooms":2.0,"halls":2.0,"baths":1.0,"building_area_sqm":79.59,"total_price":18000,"unit_price_per_ping":747.1074100000001,"deal_date":"2026-03-20","is_special_deal":false,"note":"租金總額含管理費；含增建或未登記建物；","lat":24.991692199999996,"lng":121.2785798,"geocode_src":"osm:exact"},{"serial_no":"RPSOMLTJMHLGFFH86CC","county_code":"h","district":"八德區","address":"桃園市八德區仁德一路２９號三樓","road":"八德區仁德一路","building_type":"住宅大樓(11層含以上有電梯)","total_floors":12.0,"transfer_floor_num":3.0,"age_years":8.4,"rooms":2.0,"halls":1.0,"baths":1.0,"building_area_sqm":116.75999999999999,"total_price":18000,"unit_price_per_ping":532.231385,"deal_date":"2026-03-20","is_special_deal":false,"note":"承租人負擔管理費2000元","lat":24.936662346153845,"lng":121.28614670769231,"geocode_src":"osm:exact"},{"serial_no":"RPUPMLQKMHLGFBH56CC","county_code":"h","district":"中壢區","address":"桃園市中壢區興仁路二段２９７巷６號６樓","road":"中壢區興仁路二段","building_type":"華廈(10層含以下有電梯)","total_floors":9.0,"transfer_floor_num":6.0,"age_years":32.1,"rooms":3.0,"halls":2.0,"baths":2.0,"building_area_sqm":124.58,"total_price":17300,"unit_price_per_ping":459.504115,"deal_date":"2026-03-20","is_special_deal":false,"note":"續租案件；","lat":24.9636291,"lng":121.26486440000001,"geocode_src":"osm:exact"},{"serial_no":"RPPOMLPLLHLGFEH78CC","county_code":"h","district":"蘆竹區","address":"桃園市蘆竹區南昌路８之３號十一樓","road":"蘆竹區南昌路","building_type":"住宅大樓(11層含以上有電梯)","total_floors":14.0,"transfer_floor_num":11.0,"age_years":31.1,"rooms":3.0,"halls":2.0,"baths":2.0,"building_area_sqm":145.4,"total_price":21000,"unit_price_per_ping":476.03304,"deal_date":"2026-03-20","is_special_deal":false,"note":"水費、電費、瓦斯費、網路費及每月管理費2000元整由承租人負擔。 無法區分車位面積。","lat":25.0420996,"lng":121.2869082,"geocode_src":"osm:exact"},{"serial_no":"RPQOMLMJMHLGFEH48CC","county_code":"h","district":"大園區","address":"桃園市大園區科三街８號六樓","road":"大園區科三街","building_type":"住宅大樓(11層含以上有電梯)","total_floors":11.0,"transfer_floor_num":6.0,"age_years":3.1,"rooms":2.0,"halls":1.0,"baths":2.0,"building_area_sqm":146.91000000000003,"total_price":18500,"unit_price_per_ping":561.9834500000001,"deal_date":"2026-03-20","is_special_deal":false,"note":"出租機車位一個、承租人每月負擔管理費2500元","lat":25.0556859,"lng":121.1708815,"geocode_src":"osm:exact"},{"serial_no":"RPVPMLRLLHLGFBH76CC","county_code":"h","district":"中壢區","address":"桃園市中壢區成章三街１４３巷３８號五樓","road":"中壢區成章三街","building_type":"華廈(10層含以下有電梯)","total_floors":8.0,"transfer_floor_num":5.0,"age_years":27.8,"rooms":3.0,"halls":2.0,"baths":2.0,"building_area_sqm":135.77,"total_price":11800,"unit_price_per_ping":287.603295,"deal_date":"2026-03-20","is_special_deal":false,"note":"未租賃車位，建物登記含有車位面積；續租案件；","lat":24.9819166,"lng":121.2555101,"geocode_src":"osm:exact"},{"serial_no":"RPXPMLRKMHLGFAH86CC","county_code":"h","district":"桃園區","address":"桃園市桃園區民有三街１１號４樓","road":"桃園區民有三街","building_type":"華廈(10層含以下有電梯)","total_floors":7.0,"transfer_floor_num":4.0,"age_years":25.7,"rooms":2.0,"halls":1.0,"baths":1.0,"building_area_sqm":99.13,"total_price":15500,"unit_price_per_ping":515.7024600000001,"deal_date":"2026-03-20","is_special_deal":false,"note":"續租案件；","lat":25.0049401,"lng":121.3192634,"geocode_src":"osm:exact"},{"serial_no":"RPQNMLMLLHLGFEH48CC","county_code":"h","district":"蘆竹區","address":"桃園市蘆竹區南山路一段３１號十一樓之１０","road":"蘆竹區南山路一段","building_type":"住宅大樓(11層含以上有電梯)","total_floors":20.0,"transfer_floor_num":11.0,"age_years":30.5,"rooms":1.0,"halls":0.0,"baths":1.0,"building_area_sqm":44.72,"total_price":8000,"unit_price_per_ping":591.7355150000001,"deal_date":"2026-03-20","is_special_deal":false,"note":null,"lat":25.051872611999997,"lng":121.29189998199999,"geocode_src":"osm:exact"},{"serial_no":"RPWNMLOLLHLGFFH76CC","county_code":"h","district":"八德區","address":"桃園市八德區中華路３３８號三樓之３","road":"八德區中華路","building_type":"住宅大樓(11層含以上有電梯)","total_floors":17.0,"transfer_floor_num":3.0,"age_years":29.6,"rooms":3.0,"halls":2.0,"baths":2.0,"building_area_sqm":99.9,"total_price":17300,"unit_price_per_ping":571.900805,"deal_date":"2026-03-20","is_special_deal":false,"note":"管理費1500元由承租人負擔續租案件；","lat":24.980954500000003,"lng":121.27492650000002,"geocode_src":"osm:exact"},{"serial_no":"RPPNMLPJMHLGFHH88CC","county_code":"h","district":"龜山區","address":"桃園市龜山區樂善二路４４３號４樓","road":"龜山區樂善二路","building_type":"住宅大樓(11層含以上有電梯)","total_floors":24.0,"transfer_floor_num":4.0,"age_years":2.3,"rooms":2.0,"halls":1.0,"baths":1.0,"building_area_sqm":92.09,"total_price":19000,"unit_price_per_ping":680.99171,"deal_date":"2026-03-20","is_special_deal":false,"note":null,"lat":25.046371999999998,"lng":121.3906235,"geocode_src":"osm:exact"},{"serial_no":"RPTNMLOLLHLGFHH66CC","county_code":"h","district":"龜山區","address":"桃園市龜山區文昌一街５號七樓","road":"龜山區文昌一街","building_type":"華廈(10層含以下有電梯)","total_floors":7.0,"transfer_floor_num":7.0,"age_years":32.5,"rooms":3.0,"halls":2.0,"baths":2.0,"building_area_sqm":130.8,"total_price":22000,"unit_price_per_ping":555.37188,"deal_date":"2026-03-20","is_special_deal":false,"note":"未租賃車位，建物登記含有車位面積；","lat":25.0574246,"lng":121.3674629,"geocode_src":"osm:exact"},{"serial_no":"RPUOMLQLLHLGFFH86CC","county_code":"h","district":"八德區","address":"桃園市八德區中正路１４８號九樓","road":"八德區中正路","building_type":"住宅大樓(11層含以上有電梯)","total_floors":15.0,"transfer_floor_num":9.0,"age_years":11.7,"rooms":3.0,"halls":1.0,"baths":1.0,"building_area_sqm":134.22,"total_price":15000,"unit_price_per_ping":370.24792,"deal_date":"2026-03-20","is_special_deal":false,"note":"社會住宅 管理費1900元，水電費 瓦斯費 由承租人負擔未租賃車位，建物登記含有車位面積；","lat":24.9282179,"lng":121.2821268,"geocode_src":"osm:exact"},{"serial_no":"RPQOMLQKMHLGFBH68CC","county_code":"h","district":"中壢區","address":"桃園市中壢區興仁路二段９９號四樓之７２","road":"中壢區興仁路二段","building_type":"華廈(10層含以下有電梯)","total_floors":10.0,"transfer_floor_num":4.0,"age_years":19.8,"rooms":1.0,"halls":0.0,"baths":1.0,"building_area_sqm":31.66,"total_price":6300,"unit_price_per_ping":657.851215,"deal_date":"2026-03-20","is_special_deal":false,"note":null,"lat":24.96681348751926,"lng":121.263478896302,"geocode_src":"osm:exact"},{"serial_no":"RPOSMLTJMHLGFBH09CC","county_code":"h","district":"中壢區","address":"桃園市中壢區榮安十街１２號六樓","road":"中壢區榮安十街","building_type":"華廈(10層含以下有電梯)","total_floors":7.0,"transfer_floor_num":6.0,"age_years":28.4,"rooms":3.0,"halls":2.0,"baths":1.0,"building_area_sqm":112.30000000000001,"total_price":20000,"unit_price_per_ping":588.4297300000001,"deal_date":"2026-03-20","is_special_deal":false,"note":"續租案件；","lat":24.961939,"lng":121.25778520000001,"geocode_src":"osm:exact"},{"serial_no":"RPUNMLKLLHLGFDH58CC","county_code":"h","district":"楊梅區","address":"桃園市楊梅區秀才路１０４巷１號二樓","road":"楊梅區秀才路","building_type":"華廈(10層含以下有電梯)","total_floors":7.0,"transfer_floor_num":2.0,"age_years":33.8,"rooms":2.0,"halls":1.0,"baths":1.0,"building_area_sqm":114.55,"total_price":15000,"unit_price_per_ping":433.057835,"deal_date":"2026-03-20","is_special_deal":false,"note":"社會住宅    管理費800  水電費  由承租人負擔續租案件；","lat":24.9044482,"lng":121.142292,"geocode_src":"osm:exact"},{"serial_no":"RPOPMLLMLHLGFHH78CC","county_code":"h","district":"龜山區","address":"桃園市龜山區文學路３號１５樓","road":"龜山區文學路","building_type":"住宅大樓(11層含以上有電梯)","total_floors":27.0,"transfer_floor_num":15.0,"age_years":0.6,"rooms":2.0,"halls":0.0,"baths":2.0,"building_area_sqm":29.5,"total_price":18500,"unit_price_per_ping":2072.727195,"deal_date":"2026-03-20","is_special_deal":false,"note":"多人共同承租2；租金總額含管理費；水費；租賃建物部分範圍，且未計入共有部分面積；","lat":25.0423569,"lng":121.3839605,"geocode_src":"osm:exact"},{"serial_no":"RPXPMLQLLHLGFBH86CC","county_code":"h","district":"中壢區","address":"桃園市中壢區華美一路１６１巷１５號","road":"中壢區華美一路","building_type":"公寓(5樓含以下無電梯)","total_floors":4.0,"transfer_floor_num":1.0,"age_years":45.2,"rooms":3.0,"halls":2.0,"baths":1.0,"building_area_sqm":66.48,"total_price":12000,"unit_price_per_ping":598.347085,"deal_date":"2026-03-20","is_special_deal":false,"note":"水費、電費由承租人負擔。","lat":24.952541,"lng":121.2615302,"geocode_src":"osm:exact"},{"serial_no":"RPPOMLPKMHLGFFH88CC","county_code":"h","district":"八德區","address":"桃園市八德區重慶街１７７巷３９之１號","road":"八德區重慶街","building_type":"公寓(5樓含以下無電梯)","total_floors":5.0,"transfer_floor_num":2.0,"age_years":36.3,"rooms":3.0,"halls":1.0,"baths":2.0,"building_area_sqm":129.29,"total_price":12000,"unit_price_per_ping":307.43800500000003,"deal_date":"2026-03-20","is_special_deal":false,"note":"社會住宅","lat":24.9570815,"lng":121.3039804,"geocode_src":"osm:exact"},{"serial_no":"RPXRMLKMLHLGFAH09CC","county_code":"h","district":"桃園區","address":"桃園市桃園區大興西路二段２６７號十九樓之一","road":"桃園區大興西路二段","building_type":"住宅大樓(11層含以上有電梯)","total_floors":20.0,"transfer_floor_num":19.0,"age_years":30.4,"rooms":3.0,"halls":1.0,"baths":2.0,"building_area_sqm":117.0,"total_price":20000,"unit_price_per_ping":565.2892350000001,"deal_date":"2026-03-20","is_special_deal":false,"note":"每月管理費2000由承租人負擔","lat":25.0078426,"lng":121.29378570000002,"geocode_src":"osm:exact"},{"serial_no":"RPTNMLTJMHLGFEH76CC","county_code":"h","district":"蘆竹區","address":"桃園市蘆竹區奉化路２５８巷１９號三樓","road":"蘆竹區奉化路","building_type":"住宅大樓(11層含以上有電梯)","total_floors":13.0,"transfer_floor_num":3.0,"age_years":20.1,"rooms":2.0,"halls":1.0,"baths":1.0,"building_area_sqm":118.88,"total_price":22000,"unit_price_per_ping":611.570225,"deal_date":"2026-03-20","is_special_deal":false,"note":"承租人負擔管理費2000元","lat":25.036430100000004,"lng":121.2914028,"geocode_src":"osm:exact"},{"serial_no":"RPRNMLOLLHLGFGH98CC","county_code":"h","district":"平鎮區","address":"桃園市平鎮區中庸路１２０號五樓","road":"平鎮區中庸路","building_type":"住宅大樓(11層含以上有電梯)","total_floors":13.0,"transfer_floor_num":5.0,"age_years":20.5,"rooms":3.0,"halls":2.0,"baths":2.0,"building_area_sqm":101.16,"total_price":16300,"unit_price_per_ping":532.231385,"deal_date":"2026-03-20","is_special_deal":false,"note":"管理費1700元由承租人負擔機車位1個0元由承租人負擔續租案件；","lat":24.913384,"lng":121.208603,"geocode_src":"osm:road"},{"serial_no":"RPRQMLSJMHLGFBH09CC","county_code":"h","district":"中壢區","address":"桃園市中壢區環西路二段２２６巷８號五樓","road":"中壢區環西路二段","building_type":"華廈(10層含以下有電梯)","total_floors":10.0,"transfer_floor_num":5.0,"age_years":11.4,"rooms":2.0,"halls":2.0,"baths":1.0,"building_area_sqm":124.29,"total_price":18200,"unit_price_per_ping":482.64461000000006,"deal_date":"2026-03-20","is_special_deal":false,"note":"管理費2800元，水電費 瓦斯費 由承租人負擔未租賃車位，建物登記含有車位面積；","lat":24.9641216,"lng":121.21141210000002,"geocode_src":"osm:exact"},{"serial_no":"RPOUMLMJMHLGFBH58CC","county_code":"h","district":"中壢區","address":"桃園市中壢區領航南路二段３７６號十三樓","road":"中壢區領航南路二段","building_type":"住宅大樓(11層含以上有電梯)","total_floors":20.0,"transfer_floor_num":13.0,"age_years":3.5,"rooms":2.0,"halls":1.0,"baths":1.0,"building_area_sqm":71.02,"total_price":19800,"unit_price_per_ping":922.314015,"deal_date":"2026-03-20","is_special_deal":false,"note":"承租人每月負擔管理費2200元、出租機車位一個","lat":25.0060607,"lng":121.21644079999999,"geocode_src":"osm:exact"},{"serial_no":"RPQNMLMJMHLGFBH08CC","county_code":"h","district":"中壢區","address":"桃園市中壢區華勛街２９７巷１２號","road":"中壢區華勛街","building_type":"公寓(5樓含以下無電梯)","total_floors":5.0,"transfer_floor_num":1.0,"age_years":33.3,"rooms":3.0,"halls":2.0,"baths":2.0,"building_area_sqm":92.0,"total_price":15500,"unit_price_per_ping":555.37188,"deal_date":"2026-03-20","is_special_deal":false,"note":"水費、電費皆由承租人負擔","lat":24.9478806,"lng":121.2609788,"geocode_src":"osm:exact"},{"serial_no":"RPXNMLKLLHLGFFH09CC","county_code":"h","district":"八德區","address":"桃園市八德區和平路２７６巷１５號十一樓","road":"八德區和平路","building_type":"住宅大樓(11層含以上有電梯)","total_floors":15.0,"transfer_floor_num":11.0,"age_years":2.4,"rooms":3.0,"halls":2.0,"baths":2.0,"building_area_sqm":155.64,"total_price":18000,"unit_price_per_ping":383.47106,"deal_date":"2026-03-20","is_special_deal":false,"note":"每月管理費3000元由承租人負擔，未計入租金。未租賃車位，建物登記含有車位面積；續租案件；","lat":24.9562018,"lng":121.3062677,"geocode_src":"osm:exact"},{"serial_no":"RPVPMLRKMHLGFAH66CC","county_code":"h","district":"桃園區","address":"桃園市桃園區蓮埔街５１號５樓","road":"桃園區蓮埔街","building_type":"華廈(10層含以下有電梯)","total_floors":6.0,"transfer_floor_num":5.0,"age_years":32.8,"rooms":3.0,"halls":2.0,"baths":2.0,"building_area_sqm":102.22999999999999,"total_price":16000,"unit_price_per_ping":519.008245,"deal_date":"2026-03-20","is_special_deal":false,"note":"續租案件；","lat":25.0058822,"lng":121.2975187,"geocode_src":"osm:exact"},{"serial_no":"RPTPMLQLLHLGFAH98CC","county_code":"h","district":"桃園區","address":"桃園市桃園區莊敬路一段１５６之１號十樓","road":"桃園區莊敬路一段","building_type":"住宅大樓(11層含以上有電梯)","total_floors":12.0,"transfer_floor_num":10.0,"age_years":32.0,"rooms":2.0,"halls":2.0,"baths":1.0,"building_area_sqm":88.36,"total_price":20500,"unit_price_per_ping":766.94212,"deal_date":"2026-03-20","is_special_deal":false,"note":"水電費/瓦斯費及管理費每月 1770 元 由承租人負擔","lat":25.0256118,"lng":121.3002336,"geocode_src":"osm:exact"},{"serial_no":"RPPNMLPLLHLGFHH98CC","county_code":"h","district":"龜山區","address":"桃園市龜山區文化一路２２８號六樓","road":"龜山區文化一路","building_type":"住宅大樓(11層含以上有電梯)","total_floors":24.0,"transfer_floor_num":6.0,"age_years":4.3,"rooms":2.0,"halls":1.0,"baths":1.0,"building_area_sqm":89.21000000000001,"total_price":21000,"unit_price_per_ping":776.8594750000001,"deal_date":"2026-03-20","is_special_deal":false,"note":"多人共同承租2；續租案件；","lat":25.0485395,"lng":121.3848331,"geocode_src":"osm:exact"},{"serial_no":"RPPNMLRLLHLGFBH68DC","county_code":"h","district":"觀音區","address":"桃園市觀音區福興街２８９號二樓","road":"觀音區福興街","building_type":"華廈(10層含以下有電梯)","total_floors":5.0,"transfer_floor_num":2.0,"age_years":7.2,"rooms":2.0,"halls":2.0,"baths":1.0,"building_area_sqm":62.620000000000005,"total_price":16667,"unit_price_per_ping":879.3388100000001,"deal_date":"2026-03-20","is_special_deal":false,"note":"115/03/20-115/03/31提供給房客搬遷整理期間；起算日：115/04/01起租金總額含稅；管理費；","lat":25.0429199,"lng":121.135817,"geocode_src":"osm:exact"},{"serial_no":"RPQRMLKMLHLGFBH48CC","county_code":"h","district":"中壢區","address":"桃園市中壢區中央西路一段７６巷２３弄８號七樓之７","road":"中壢區中央西路一段","building_type":"華廈(10層含以下有電梯)","total_floors":8.0,"transfer_floor_num":7.0,"age_years":44.1,"rooms":1.0,"halls":1.0,"baths":1.0,"building_area_sqm":33.3,"total_price":9000,"unit_price_per_ping":892.56195,"deal_date":"2026-03-20","is_special_deal":false,"note":"水費、電費、瓦斯費、網路費由承租人負擔。","lat":24.958823699999996,"lng":121.22136720000002,"geocode_src":"osm:exact"},{"serial_no":"RPOPMLMJMHLGFFH48CC","county_code":"h","district":"八德區","address":"桃園市八德區忠勇街２２７巷９號６樓","road":"八德區忠勇街","building_type":"華廈(10層含以下有電梯)","total_floors":7.0,"transfer_floor_num":6.0,"age_years":27.7,"rooms":3.0,"halls":2.0,"baths":2.0,"building_area_sqm":100.02000000000001,"total_price":15300,"unit_price_per_ping":505.78510500000004,"deal_date":"2026-03-20","is_special_deal":false,"note":"管理費、水電費、瓦斯費由承租人負擔","lat":24.963249,"lng":121.3035053,"geocode_src":"osm:exact"},{"serial_no":"RPROMLNLLHLGFBH48CC","county_code":"h","district":"中壢區","address":"桃園市中壢區執信一街５６號二樓","road":"中壢區執信一街","building_type":"華廈(10層含以下有電梯)","total_floors":7.0,"transfer_floor_num":2.0,"age_years":2.2,"rooms":2.0,"halls":1.0,"baths":1.0,"building_area_sqm":71.24000000000001,"total_price":15000,"unit_price_per_ping":697.5206350000001,"deal_date":"2026-03-20","is_special_deal":false,"note":"社會住宅 管理費2000元，水電費 瓦斯費 由承租人負擔續租案件；","lat":24.9456399,"lng":121.2279343,"geocode_src":"osm:road"},{"serial_no":"RPUOMLRJMHLGFBH09CC","county_code":"h","district":"中壢區","address":"桃園市中壢區新中二街２５號五樓之１９","road":"中壢區新中二街","building_type":"華廈(10層含以下有電梯)","total_floors":9.0,"transfer_floor_num":5.0,"age_years":19.4,"rooms":1.0,"halls":1.0,"baths":1.0,"building_area_sqm":33.13,"total_price":8300,"unit_price_per_ping":829.7520350000001,"deal_date":"2026-03-20","is_special_deal":false,"note":"管理費、水電費、瓦斯費由承租人負擔續租案件；","lat":24.9581517,"lng":121.2431519,"geocode_src":"osm:exact"},{"serial_no":"RPTNMLKMLHLGFAH28CC","county_code":"h","district":"桃園區","address":"桃園市桃園區雙?路１７０號八樓之２","road":null,"building_type":"華廈(10層含以下有電梯)","total_floors":9.0,"transfer_floor_num":8.0,"age_years":23.8,"rooms":2.0,"halls":1.0,"baths":1.0,"building_area_sqm":83.69,"total_price":16400,"unit_price_per_ping":647.93386,"deal_date":"2026-03-20","is_special_deal":false,"note":"水電費及管理費每月   1600元 由承租人負擔"},{"serial_no":"RPTNMLRLLHLGFEH66CC","county_code":"h","district":"蘆竹區","address":"桃園市蘆竹區南山路一段７１號十樓之７","road":"蘆竹區南山路一段","building_type":"住宅大樓(11層含以上有電梯)","total_floors":20.0,"transfer_floor_num":10.0,"age_years":30.6,"rooms":1.0,"halls":0.0,"baths":1.0,"building_area_sqm":36.03,"total_price":7500,"unit_price_per_ping":687.60328,"deal_date":"2026-03-20","is_special_deal":false,"note":"社會住宅，管理費500元由承租人負擔。","lat":25.0522148,"lng":121.29114219999998,"geocode_src":"osm:exact"},{"serial_no":"RPWNMLTJMHLGFDH96CC","county_code":"h","district":"楊梅區","address":"桃園市楊梅區中山北路一段１２８號八樓","road":"楊梅區中山北路一段","building_type":"住宅大樓(11層含以上有電梯)","total_floors":14.0,"transfer_floor_num":8.0,"age_years":2.7,"rooms":3.0,"halls":1.0,"baths":2.0,"building_area_sqm":152.32,"total_price":19300,"unit_price_per_ping":433.057835,"deal_date":"2026-03-20","is_special_deal":false,"note":"承租人負擔管理費2700元","lat":24.908164,"lng":121.1526488,"geocode_src":"osm:exact"},{"serial_no":"RPUPMLKMLHLGFAH58CC","county_code":"h","district":"桃園區","address":"桃園市桃園區博愛路１７０號六樓之３","road":"桃園區博愛路","building_type":"華廈(10層含以下有電梯)","total_floors":8.0,"transfer_floor_num":6.0,"age_years":37.9,"rooms":1.0,"halls":0.0,"baths":1.0,"building_area_sqm":50.96,"total_price":6500,"unit_price_per_ping":423.14048,"deal_date":"2026-03-20","is_special_deal":false,"note":"水電費由承租人負擔管理費  500元 由出租人負擔","lat":24.993887718181817,"lng":121.3079391909091,"geocode_src":"osm:exact"},{"serial_no":"RPOSMLKMLHLGFAH28CC","county_code":"h","district":"桃園區","address":"桃園市桃園區莊敬路一段３４２之５號九樓之２","road":"桃園區莊敬路一段","building_type":"住宅大樓(11層含以上有電梯)","total_floors":14.0,"transfer_floor_num":9.0,"age_years":25.1,"rooms":1.0,"halls":1.0,"baths":1.0,"building_area_sqm":63.379999999999995,"total_price":13000,"unit_price_per_ping":677.685925,"deal_date":"2026-03-20","is_special_deal":false,"note":"續租案件；","lat":25.02410280821918,"lng":121.29637701506849,"geocode_src":"osm:exact"},{"serial_no":"RPSPMLPKMHLGFHH86CC","county_code":"h","district":"龜山區","address":"桃園市龜山區文桃路４２９號四樓","road":"龜山區文桃路","building_type":"住宅大樓(11層含以上有電梯)","total_floors":24.0,"transfer_floor_num":4.0,"age_years":2.3,"rooms":2.0,"halls":1.0,"baths":1.0,"building_area_sqm":100.77000000000001,"total_price":22000,"unit_price_per_ping":720.6611300000001,"deal_date":"2026-03-20","is_special_deal":false,"note":"多人共同承租2；未租賃車位，建物登記含有車位面積；","lat":25.046984399999996,"lng":121.3908037,"geocode_src":"osm:exact"},{"serial_no":"RPPPMLRLLHLGFAH68CC","county_code":"h","district":"桃園區","address":"桃園市桃園區中埔二街９８號四樓","road":"桃園區中埔二街","building_type":"住宅大樓(11層含以上有電梯)","total_floors":14.0,"transfer_floor_num":4.0,"age_years":22.3,"rooms":1.0,"halls":1.0,"baths":1.0,"building_area_sqm":65.03999999999999,"total_price":17000,"unit_price_per_ping":862.809885,"deal_date":"2026-03-20","is_special_deal":false,"note":null,"lat":25.011637100000005,"lng":121.2964323,"geocode_src":"osm:exact"},{"serial_no":"RPVPMLKMLHLGFAH68CC","county_code":"h","district":"桃園區","address":"桃園市桃園區金門三街７號七樓","road":"桃園區金門三街","building_type":"華廈(10層含以下有電梯)","total_floors":7.0,"transfer_floor_num":7.0,"age_years":11.6,"rooms":2.0,"halls":2.0,"baths":1.0,"building_area_sqm":107.05000000000001,"total_price":18000,"unit_price_per_ping":555.37188,"deal_date":"2026-03-20","is_special_deal":false,"note":"管理費每個月1500元整，水費、電費、瓦斯費皆由承租人負擔","lat":24.9820292,"lng":121.3143835,"geocode_src":"osm:exact"},{"serial_no":"RPSOMLRJMHLGFDH09CC","county_code":"h","district":"楊梅區","address":"桃園市楊梅區裕成南路３５４號１１樓","road":"楊梅區裕成南路","building_type":"住宅大樓(11層含以上有電梯)","total_floors":13.0,"transfer_floor_num":11.0,"age_years":28.2,"rooms":3.0,"halls":1.0,"baths":2.0,"building_area_sqm":111.35999999999999,"total_price":13500,"unit_price_per_ping":399.99998500000004,"deal_date":"2026-03-20","is_special_deal":false,"note":"出租人負擔每月管理費1500元","lat":24.8988578,"lng":121.15707369999998,"geocode_src":"osm:exact"},{"serial_no":"RPOOMLNLLHLGFEH48CC","county_code":"h","district":"大園區","address":"桃園市大園區科七街７２之１號十二樓","road":"大園區科七街","building_type":"住宅大樓(11層含以上有電梯)","total_floors":12.0,"transfer_floor_num":12.0,"age_years":0.6,"rooms":2.0,"halls":2.0,"baths":2.0,"building_area_sqm":127.49000000000001,"total_price":17000,"unit_price_per_ping":532.231385,"deal_date":"2026-03-20","is_special_deal":false,"note":"每個月管理費1500元由承租人負擔","lat":25.0535892,"lng":121.1678742,"geocode_src":"osm:road"},{"serial_no":"RPTNMLQLLHLGFGH76CC","county_code":"h","district":"平鎮區","address":"桃園市平鎮區榮興街２０號四樓","road":"平鎮區榮興街","building_type":"住宅大樓(11層含以上有電梯)","total_floors":16.0,"transfer_floor_num":4.0,"age_years":31.1,"rooms":2.0,"halls":2.0,"baths":1.0,"building_area_sqm":76.69,"total_price":9300,"unit_price_per_ping":399.99998500000004,"deal_date":"2026-03-20","is_special_deal":false,"note":"社會住宅 管理費700元，水電費  由承租人負擔續租案件；"},{"serial_no":"RPRNMLMLLHLGFAH18CC","county_code":"h","district":"桃園區","address":"桃園市桃園區民有東路２６之３號十二樓","road":"桃園區民有東路","building_type":"住宅大樓(11層含以上有電梯)","total_floors":14.0,"transfer_floor_num":12.0,"age_years":31.6,"rooms":3.0,"halls":1.0,"baths":2.0,"building_area_sqm":146.51999999999998,"total_price":23000,"unit_price_per_ping":519.008245,"deal_date":"2026-03-20","is_special_deal":false,"note":null,"lat":25.0148012,"lng":121.3182386,"geocode_src":"osm:exact"},{"serial_no":"RPTOMLRJMHLGFDH56CC","county_code":"h","district":"楊梅區","address":"桃園市楊梅區三民北路１６３巷１０號八樓","road":"楊梅區三民北路","building_type":"華廈(10層含以下有電梯)","total_floors":8.0,"transfer_floor_num":8.0,"age_years":12.1,"rooms":2.0,"halls":1.0,"baths":1.0,"building_area_sqm":101.9,"total_price":17800,"unit_price_per_ping":578.512375,"deal_date":"2026-03-20","is_special_deal":false,"note":"承租人負擔每月管理費3200元","lat":24.9123581,"lng":121.1687418,"geocode_src":"osm:exact"},{"serial_no":"RPQOMLNLLHLGFBH38CC","county_code":"h","district":"中壢區","address":"桃園市中壢區中華路二段３３０號十一樓之３","road":"中壢區中華路二段","building_type":"住宅大樓(11層含以上有電梯)","total_floors":16.0,"transfer_floor_num":11.0,"age_years":31.5,"rooms":3.0,"halls":2.0,"baths":2.0,"building_area_sqm":119.11000000000001,"total_price":15500,"unit_price_per_ping":429.75205000000005,"deal_date":"2026-03-20","is_special_deal":false,"note":"管理費1441元，水電費 瓦斯費 由承租人負擔","lat":24.9645375,"lng":121.23582129999998,"geocode_src":"osm:exact"},{"serial_no":"RPQNMLNJMHLGFBH18CC","county_code":"h","district":"中壢區","address":"桃園市中壢區中央西路一段９０號五樓","road":"中壢區中央西路一段","building_type":"華廈(10層含以下有電梯)","total_floors":5.0,"transfer_floor_num":5.0,"age_years":41.7,"rooms":8.0,"halls":0.0,"baths":8.0,"building_area_sqm":22.11,"total_price":11500,"unit_price_per_ping":1719.0082,"deal_date":"2026-03-20","is_special_deal":false,"note":null,"lat":24.9581156,"lng":121.2211574,"geocode_src":"osm:exact"},{"serial_no":"RPPNMLMJMHLGFDH18CC","county_code":"h","district":"楊梅區","address":"桃園市楊梅區梅獅路二段２３２巷３７號５樓之１","road":"楊梅區梅獅路二段","building_type":"華廈(10層含以下有電梯)","total_floors":8.0,"transfer_floor_num":5.0,"age_years":25.2,"rooms":3.0,"halls":2.0,"baths":2.0,"building_area_sqm":128.7,"total_price":21000,"unit_price_per_ping":538.8429550000001,"deal_date":"2026-03-20","is_special_deal":false,"note":"管理費、停車費、水電費、瓦斯費由承租人負擔","lat":24.9053873,"lng":121.1762947,"geocode_src":"osm:exact"},{"serial_no":"RPROMLRLLHLGFEH56CC","county_code":"h","district":"蘆竹區","address":"桃園市蘆竹區安中街３６巷８號２樓","road":"蘆竹區安中街","building_type":"廠辦","total_floors":4.0,"transfer_floor_num":2.0,"age_years":9.8,"rooms":0.0,"halls":0.0,"baths":0.0,"building_area_sqm":23.81,"total_price":25000,"unit_price_per_ping":3471.07425,"deal_date":"2026-03-20","is_special_deal":false,"note":"設立營業用辦理工廠登記","lat":25.0653021,"lng":121.2809078,"geocode_src":"osm:exact"},{"serial_no":"RPQSMLMJMHLGFBH58CC","county_code":"h","district":"中壢區","address":"桃園市中壢區民族路五段２２２號二樓之５","road":"中壢區民族路五段","building_type":"住宅大樓(11層含以上有電梯)","total_floors":14.0,"transfer_floor_num":2.0,"age_years":1.6,"rooms":2.0,"halls":1.0,"baths":1.0,"building_area_sqm":109.00999999999999,"total_price":17000,"unit_price_per_ping":677.685925,"deal_date":"2026-03-20","is_special_deal":false,"note":null,"lat":24.9590906,"lng":121.1747151,"geocode_src":"osm:road"},{"serial_no":"RPXNMLNLLHLGFDH56CC","county_code":"h","district":"楊梅區","address":"桃園市楊梅區梅獅路二段１６６巷３１號五樓","road":"楊梅區梅獅路二段","building_type":"華廈(10層含以下有電梯)","total_floors":10.0,"transfer_floor_num":5.0,"age_years":19.2,"rooms":1.0,"halls":0.0,"baths":1.0,"building_area_sqm":85.03999999999999,"total_price":10200,"unit_price_per_ping":505.78510500000004,"deal_date":"2026-03-19","is_special_deal":false,"note":"管理費800元，水電費 由承租人負擔","lat":24.9062866,"lng":121.1769012,"geocode_src":"osm:exact"},{"serial_no":"RPPNMLKLLHLGFDH08CC","county_code":"h","district":"楊梅區","address":"桃園市楊梅區梅獅路二段２４９巷１６之１號三樓","road":"楊梅區梅獅路二段","building_type":"華廈(10層含以下有電梯)","total_floors":7.0,"transfer_floor_num":3.0,"age_years":32.3,"rooms":3.0,"halls":2.0,"baths":2.0,"building_area_sqm":180.5,"total_price":12000,"unit_price_per_ping":218.18181,"deal_date":"2026-03-19","is_special_deal":false,"note":"每月管理費1000元由承租人負擔，未計入租金。續租案件；","lat":24.905900300000003,"lng":121.1788772,"geocode_src":"osm:exact"},{"serial_no":"RPTNMLLJMHLGFGH78CC","county_code":"h","district":"平鎮區","address":"桃園市平鎮區龍德路３６巷６弄１８號","road":"平鎮區龍德路","building_type":"透天厝","total_floors":2.0,"transfer_floor_num":null,"age_years":44.0,"rooms":3.0,"halls":2.0,"baths":2.0,"building_area_sqm":113.12,"total_price":18000,"unit_price_per_ping":525.619815,"deal_date":"2026-03-19","is_special_deal":false,"note":null,"lat":24.9252026,"lng":121.25009,"geocode_src":"osm:road"},{"serial_no":"RPOPMLNLLHLGFFH68CC","county_code":"h","district":"八德區","address":"桃園市八德區富榮街３６巷４５號八樓之３","road":"八德區富榮街","building_type":"住宅大樓(11層含以上有電梯)","total_floors":14.0,"transfer_floor_num":8.0,"age_years":2.0,"rooms":2.0,"halls":2.0,"baths":2.0,"building_area_sqm":112.86,"total_price":21500,"unit_price_per_ping":852.8925300000001,"deal_date":"2026-03-19","is_special_deal":false,"note":"管理費3000元，水電費 瓦斯費 由承租人負擔","lat":24.9571396,"lng":121.3200052,"geocode_src":"osm:lane"},{"serial_no":"RPRPMLTKLHLGFFH86CC","county_code":"h","district":"八德區","address":"桃園市八德區介壽路一段６４５巷１１弄１９之１號","road":"八德區介壽路一段","building_type":"公寓(5樓含以下無電梯)","total_floors":5.0,"transfer_floor_num":2.0,"age_years":45.5,"rooms":3.0,"halls":1.0,"baths":1.0,"building_area_sqm":82.51,"total_price":11000,"unit_price_per_ping":439.66940500000004,"deal_date":"2026-03-19","is_special_deal":false,"note":"社會住宅 ，水電費 由承租人負擔","lat":24.9672608,"lng":121.3030904,"geocode_src":"osm:exact"},{"serial_no":"RPQOMLSJMHLGFGH66CC","county_code":"h","district":"平鎮區","address":"桃園市平鎮區東豐路１４５巷１２號十一樓之１","road":"平鎮區東豐路","building_type":"住宅大樓(11層含以上有電梯)","total_floors":14.0,"transfer_floor_num":11.0,"age_years":5.0,"rooms":2.0,"halls":2.0,"baths":1.0,"building_area_sqm":124.66,"total_price":18000,"unit_price_per_ping":476.03304,"deal_date":"2026-03-19","is_special_deal":false,"note":"未租賃車位，建物登記含有車位面積；","lat":24.9011029,"lng":121.2143163,"geocode_src":"osm:road"},{"serial_no":"RPPRMLTKLHLGFAH98CC","county_code":"h","district":"桃園區","address":"桃園市桃園區中埔一街３６１巷１０號二樓","road":"桃園區中埔一街","building_type":"華廈(10層含以下有電梯)","total_floors":9.0,"transfer_floor_num":2.0,"age_years":28.2,"rooms":3.0,"halls":2.0,"baths":2.0,"building_area_sqm":95.1,"total_price":18500,"unit_price_per_ping":644.6280750000001,"deal_date":"2026-03-19","is_special_deal":false,"note":"社會住宅  管理費1500  水電費 由承租人負擔續租案件；","lat":25.0189677,"lng":121.2927464,"geocode_src":"osm:exact"},{"serial_no":"RPRNMLOLLHLGFFH88CC","county_code":"h","district":"八德區","address":"桃園市八德區中華路５巷２６號十樓","road":"八德區中華路","building_type":"住宅大樓(11層含以上有電梯)","total_floors":15.0,"transfer_floor_num":10.0,"age_years":12.4,"rooms":2.0,"halls":2.0,"baths":1.0,"building_area_sqm":121.75999999999999,"total_price":19100,"unit_price_per_ping":631.404935,"deal_date":"2026-03-19","is_special_deal":false,"note":"每月管理費1925由承租人自付。","lat":24.9858513,"lng":121.2824911,"geocode_src":"osm:exact"},{"serial_no":"RPROMLKLLHLGFHH78CC","county_code":"h","district":"龜山區","address":"桃園市龜山區文昌五街７８號五樓之３","road":"龜山區文昌五街","building_type":"華廈(10層含以下有電梯)","total_floors":10.0,"transfer_floor_num":5.0,"age_years":25.6,"rooms":3.0,"halls":2.0,"baths":2.0,"building_area_sqm":82.34,"total_price":20800,"unit_price_per_ping":836.363605,"deal_date":"2026-03-19","is_special_deal":false,"note":"管理費2200元，水電費 瓦斯費 由承租人負擔續租案件；","lat":25.0565557,"lng":121.371473,"geocode_src":"osm:exact"},