[{"serial_no":"RPRNMLKKMHLGFDK48DA","county_code":"k","district":"竹南鎮","address":"苗栗縣竹南鎮營盤里７鄰大營路３１６之２號","road":null,"building_type":"透天厝","total_floors":4.0,"transfer_floor_num":null,"age_years":25.0,"rooms":4.0,"halls":2.0,"baths":4.0,"building_area_sqm":283.16,"total_price":9500000,"unit_price_per_ping":110909.08675,"deal_date":"2026-04-08","is_special_deal":true,"note":"建物坐落地號：中興段博愛小段159地號；親友、員工、共有人或其他特殊關係間之交易；","lat":24.6898509,"lng":120.8739056,"geocode_src":"osm:exact"},{"serial_no":"RPPNMLKKMHLGFCK18DA","county_code":"k","district":"通霄鎮","address":"苗栗縣通霄鎮梅南里４鄰南和路二段１６５巷９號","road":null,"building_type":"透天厝","total_floors":3.0,"transfer_floor_num":null,"age_years":null,"rooms":5.0,"halls":2.0,"baths":4.0,"building_area_sqm":181.19,"total_price":5700000,"unit_price_per_ping":103996.690315,"deal_date":"2026-03-31","is_special_deal":false,"note":"頂樓加蓋；","lat":24.4810872,"lng":120.6849635,"geocode_src":"osm:exact"},{"serial_no":"RPRNMLKKMHLGFCK38DA","county_code":"k","district":"苑裡鎮","address":"苗栗縣苑裡鎮山里５鄰山１１３號","road":null,"building_type":"透天厝","total_floors":3.0,"transfer_floor_num":null,"age_years":62.2,"rooms":4.0,"halls":3.0,"baths":2.0,"building_area_sqm":108.6,"total_price":3900000,"unit_price_per_ping":118717.35092000001,"deal_date":"2026-03-25","is_special_deal":false,"note":"頂樓加蓋；未登記建物；"},{"serial_no":"RPSQMLKMLHLGFDK98DA","county_code":"k","district":"後龍鎮","address":"苗栗縣後龍鎮秀水里１０鄰秀水１１７號","road":null,"building_type":"透天厝","total_floors":2.0,"transfer_floor_num":null,"age_years":43.7,"rooms":0.0,"halls":0.0,"baths":0.0,"building_area_sqm":89.2,"total_price":700000,"unit_price_per_ping":25943.80068,"deal_date":"2026-03-24","is_special_deal":false,"note":null,"lat":24.6351824,"lng":120.7626294,"geocode_src":"osm:exact"},{"serial_no":"RPRNMLNLLHLGFCK68DA","county_code":"k","district":"通霄鎮","address":"苗栗縣通霄鎮五南里６鄰中山路６１６號","road":null,"building_type":"透天厝","total_floors":3.0,"transfer_floor_num":null,"age_years":null,"rooms":0.0,"halls":0.0,"baths":0.0,"building_area_sqm":539.86,"total_price":10100000,"unit_price_per_ping":61847.931565000006,"deal_date":"2026-03-23","is_special_deal":false,"note":null,"lat":24.4674568,"lng":120.6654521,"geocode_src":"osm:exact"},{"serial_no":"RPTNMLSJMHLGFDK76DA","county_code":"k","district":"後龍鎮","address":"苗栗縣後龍鎮豐富里１６鄰豐富八街１４６號","road":null,"building_type":"透天厝","total_floors":5.0,"transfer_floor_num":null,"age_years":0.4,"rooms":5.0,"halls":2.0,"baths":7.0,"building_area_sqm":320.02,"total_price":23680000,"unit_price_per_ping":244611.561075,"deal_date":"2026-03-17","is_special_deal":false,"note":"土地交易價款：新台幣7104000元；建物交易價款：新台幣16576000元","lat":24.607532,"lng":120.8150185,"geocode_src":"osm:road"},{"serial_no":"RPRNMLLJMHLGFFK68DA","county_code":"k","district":"頭份市","address":"苗栗縣頭份市成功里３鄰成功路６８號三樓","road":null,"building_type":"華廈(10層含以下有電梯)","total_floors":5.0,"transfer_floor_num":3.0,"age_years":15.5,"rooms":3.0,"halls":2.0,"baths":2.0,"building_area_sqm":90.74,"total_price":9600000,"unit_price_per_ping":349742.13564500003,"deal_date":"2026-03-17","is_special_deal":false,"note":null,"lat":24.6944023,"lng":120.90959870000002,"geocode_src":"osm:exact"},{"serial_no":"RPQNMLNJMHLGFBK38DA","county_code":"k","district":"苗栗市","address":"苗栗縣苗栗市上苗里１６鄰站前１號九樓之六","road":null,"building_type":"住宅大樓(11層含以上有電梯)","total_floors":22.0,"transfer_floor_num":9.0,"age_years":34.8,"rooms":0.0,"halls":1.0,"baths":0.0,"building_area_sqm":103.4,"total_price":2750000,"unit_price_per_ping":87920.65786,"deal_date":"2026-03-15","is_special_deal":false,"note":null,"lat":24.569885700000004,"lng":120.8232659,"geocode_src":"osm:exact"},{"serial_no":"RPSNMLTJMHLGFCK66DA","county_code":"k","district":"苑裡鎮","address":"苗栗縣苑裡鎮田心里８鄰田心８１之４０號","road":null,"building_type":"透天厝","total_floors":3.0,"transfer_floor_num":null,"age_years":0.9,"rooms":4.0,"halls":2.0,"baths":3.0,"building_area_sqm":167.65,"total_price":11950000,"unit_price_per_ping":235633.04901500003,"deal_date":"2026-03-10","is_special_deal":false,"note":null},{"serial_no":"RPPNMLSJMHLGFDK98DA","county_code":"k","district":"竹南鎮","address":"苗栗縣竹南鎮海口里４鄰育才路２３巷３６弄８號","road":null,"building_type":"透天厝","total_floors":3.0,"transfer_floor_num":null,"age_years":21.5,"rooms":4.0,"halls":2.0,"baths":3.0,"building_area_sqm":205.6,"total_price":13950000,"unit_price_per_ping":224297.51225,"deal_date":"2026-03-09","is_special_deal":false,"note":null},{"serial_no":"RPQNMLLKLHLGFEK48DA","county_code":"k","district":"三義鄉","address":"苗栗縣三義鄉勝興村歐香新城３之１號","road":null,"building_type":"透天厝","total_floors":3.0,"transfer_floor_num":null,"age_years":32.2,"rooms":4.0,"halls":2.0,"baths":3.0,"building_area_sqm":174.6,"total_price":6220000,"unit_price_per_ping":117765.28484000001,"deal_date":"2026-03-09","is_special_deal":false,"note":"其他增建；","lat":24.4012166,"lng":120.7615218,"geocode_src":"osm:exact"},{"serial_no":"RPRNMLMJMHLGFDK58DA","county_code":"k","district":"竹南鎮","address":"苗栗縣竹南鎮龍山里５鄰龍山路二段４１６巷２２弄１５號","road":null,"building_type":"透天厝","total_floors":4.0,"transfer_floor_num":null,"age_years":20.1,"rooms":3.0,"halls":2.0,"baths":5.0,"building_area_sqm":190.4,"total_price":13800000,"unit_price_per_ping":239599.991015,"deal_date":"2026-03-08","is_special_deal":false,"note":"一樓防火巷、頂樓採光罩、鐵窗增建","lat":24.7004423,"lng":120.8762114,"geocode_src":"osm:exact"},{"serial_no":"RPRQMLKMLHLGFDK88DA","county_code":"k","district":"竹南鎮","address":"苗栗縣竹南鎮山佳里５鄰龍山路三段１５０號十四樓之六","road":null,"building_type":"住宅大樓(11層含以上有電梯)","total_floors":15.0,"transfer_floor_num":14.0,"age_years":9.2,"rooms":3.0,"halls":2.0,"baths":2.0,"building_area_sqm":170.07999999999998,"total_price":14500000,"unit_price_per_ping":281831.39439000003,"deal_date":"2026-03-06","is_special_deal":false,"note":"車位編號158號","lat":24.7021013,"lng":120.8803355,"geocode_src":"osm:exact"},{"serial_no":"RPTNMLOJLHLGFBK68DA","county_code":"k","district":"苗栗市","address":"苗栗縣苗栗市南勢里２０鄰國馨６６號","road":null,"building_type":"透天厝","total_floors":4.0,"transfer_floor_num":null,"age_years":33.1,"rooms":3.0,"halls":2.0,"baths":4.0,"building_area_sqm":66.55,"total_price":2000000,"unit_price_per_ping":99348.756605,"deal_date":"2026-03-04","is_special_deal":false,"note":null,"lat":24.5255178,"lng":120.7891717,"geocode_src":"osm:exact"},{"serial_no":"RPSNMLQLLHLGFDK56DA","county_code":"k","district":"竹南鎮","address":"苗栗縣竹南鎮新南里１２鄰維新路３０９號二樓","road":null,"building_type":"住宅大樓(11層含以上有電梯)","total_floors":15.0,"transfer_floor_num":2.0,"age_years":4.3,"rooms":3.0,"halls":2.0,"baths":2.0,"building_area_sqm":149.13,"total_price":12800000,"unit_price_per_ping":283738.83233500004,"deal_date":"2026-03-03","is_special_deal":false,"note":null,"lat":24.6901095,"lng":120.8817141,"geocode_src":"osm:exact"},{"serial_no":"RPSNMLTJMHLGFFK96DA","county_code":"k","district":"頭份市","address":"苗栗縣頭份市斗煥里１５鄰培德新３巷１０號","road":null,"building_type":"透天厝","total_floors":2.0,"transfer_floor_num":null,"age_years":44.8,"rooms":3.0,"halls":2.0,"baths":2.0,"building_area_sqm":84.4,"total_price":4000000,"unit_price_per_ping":156671.068505,"deal_date":"2026-03-03","is_special_deal":false,"note":null,"lat":24.6792117,"lng":120.9452233,"geocode_src":"osm:exact"},{"serial_no":"RPQOMLTKLHLGFBK09DA","county_code":"k","district":"苗栗市","address":"苗栗縣苗栗市玉華里５鄰玉清街９９號","road":null,"building_type":"透天厝","total_floors":3.0,"transfer_floor_num":null,"age_years":26.3,"rooms":4.0,"halls":2.0,"baths":3.0,"building_area_sqm":349.54,"total_price":50000000,"unit_price_per_ping":472876.01532500004,"deal_date":"2026-02-27","is_special_deal":false,"note":null,"lat":24.5621653,"lng":120.8296716,"geocode_src":"osm:exact"},{"serial_no":"RPRNMLNJMHLGFBK48DA","county_code":"k","district":"苗栗市","address":"苗栗縣苗栗市福麗里２１鄰饒平街７８號四樓","road":null,"building_type":"公寓(5樓含以下無電梯)","total_floors":4.0,"transfer_floor_num":4.0,"age_years":44.2,"rooms":2.0,"halls":2.0,"baths":1.0,"building_area_sqm":118.35,"total_price":4200000,"unit_price_per_ping":117315.69808,"deal_date":"2026-02-26","is_special_deal":false,"note":"頂樓加蓋；","lat":24.5615256,"lng":120.8163237,"geocode_src":"osm:exact"},{"serial_no":"RPSNMLNKLHLGFBK58DA","county_code":"k","district":"苗栗市","address":"苗栗縣苗栗市新川里龍岡２０號","road":null,"building_type":"透天厝","total_floors":2.0,"transfer_floor_num":null,"age_years":null,"rooms":6.0,"halls":2.0,"baths":2.0,"building_area_sqm":164.06,"total_price":3200000,"unit_price_per_ping":64479.336425,"deal_date":"2026-02-26","is_special_deal":false,"note":"夾層；","lat":24.5670899,"lng":120.8055998,"geocode_src":"osm:exact"},{"serial_no":"RPRNMLNLLHLGFFK98DA","county_code":"k","district":"頭份市","address":"苗栗縣頭份市後庄里２１鄰公北一路９６號十五樓","road":null,"building_type":"住宅大樓(11層含以上有電梯)","total_floors":18.0,"transfer_floor_num":15.0,"age_years":1.5,"rooms":2.0,"halls":2.0,"baths":1.0,"building_area_sqm":105.92,"total_price":12500000,"unit_price_per_ping":390128.91099,"deal_date":"2026-02-25","is_special_deal":false,"note":"車位編號B3-70","lat":24.6920191,"lng":120.89254,"geocode_src":"osm:road"},{"serial_no":"RPQNMLSLKHLGFFK66DA","county_code":"k","district":"頭份市","address":"苗栗縣頭份市建國里５鄰力行街２９巷３號二樓","road":null,"building_type":"華廈(10層含以下有電梯)","total_floors":5.0,"transfer_floor_num":2.0,"age_years":18.5,"rooms":1.0,"halls":0.0,"baths":1.0,"building_area_sqm":25.3,"total_price":2720000,"unit_price_per_ping":355404.94535,"deal_date":"2026-02-14","is_special_deal":false,"note":null,"lat":24.6963492,"lng":120.9134454,"geocode_src":"osm:exact"},{"serial_no":"RPPNMLNKLHLGFDK48DA","county_code":"k","district":"竹南鎮","address":"苗栗縣竹南鎮龍山里９鄰龍山路二段２８７號三樓","road":null,"building_type":"華廈(10層含以下有電梯)","total_floors":7.0,"transfer_floor_num":3.0,"age_years":30.5,"rooms":3.0,"halls":2.0,"baths":2.0,"building_area_sqm":148.18,"total_price":6300000,"unit_price_per_ping":140548.75506,"deal_date":"2026-02-13","is_special_deal":false,"note":null,"lat":24.700559600000002,"lng":120.87410519999999,"geocode_src":"osm:exact"},{"serial_no":"RPROMLMJMHLGFFK88DA","county_code":"k","district":"頭份市","address":"苗栗縣頭份市信義里９鄰和平路４０巷５號二樓","road":null,"building_type":"公寓(5樓含以下無電梯)","total_floors":5.0,"transfer_floor_num":2.0,"age_years":45.1,"rooms":5.0,"halls":0.0,"baths":1.0,"building_area_sqm":68.85,"total_price":2680000,"unit_price_per_ping":128677.681125,"deal_date":"2026-02-11","is_special_deal":false,"note":null,"lat":24.6843552,"lng":120.90810730000001,"geocode_src":"osm:exact"},{"serial_no":"RPSNMLNJLHLGFDK68DA","county_code":"k","district":"竹南鎮","address":"苗栗縣竹南鎮中華里３鄰新生路２４５巷３３號五樓之一","road":null,"building_type":"華廈(10層含以下有電梯)","total_floors":5.0,"transfer_floor_num":5.0,"age_years":10.8,"rooms":3.0,"halls":2.0,"baths":2.0,"building_area_sqm":120.9,"total_price":9200000,"unit_price_per_ping":251557.01536000002,"deal_date":"2026-02-11","is_special_deal":false,"note":null,"lat":24.6853172,"lng":120.8662332,"geocode_src":"osm:exact"},{"serial_no":"RPPNMLSLKHLGFFK56DA","county_code":"k","district":"頭份市","address":"苗栗縣頭份市頭份里２２鄰武昌街５１號","road":null,"building_type":"住宅大樓(11層含以上有電梯)","total_floors":11.0,"transfer_floor_num":null,"age_years":31.1,"rooms":3.0,"halls":2.0,"baths":2.0,"building_area_sqm":145.64,"total_price":8470000,"unit_price_per_ping":192254.538245,"deal_date":"2026-02-11","is_special_deal":false,"note":null,"lat":24.6942812,"lng":120.9174006,"geocode_src":"osm:exact"},{"serial_no":"RPUNMLQLKHLGFFK86DA","county_code":"k","district":"頭份市","address":"苗栗縣頭份市上興里２３鄰永昌街７巷６號四樓","road":null,"building_type":"華廈(10層含以下有電梯)","total_floors":7.0,"transfer_floor_num":4.0,"age_years":28.5,"rooms":3.0,"halls":2.0,"baths":2.0,"building_area_sqm":93.71,"total_price":3700000,"unit_price_per_ping":130525.61494000001,"deal_date":"2026-02-10","is_special_deal":false,"note":"其他增建；","lat":24.6694731,"lng":120.9235973,"geocode_src":"osm:exact"},{"serial_no":"RPQNMLPLKHLGFFK98DA","county_code":"k","district":"頭份市","address":"苗栗縣頭份市文化里１５鄰八德二路２００巷２２號四樓","road":null,"building_type":"華廈(10層含以下有電梯)","total_floors":5.0,"transfer_floor_num":4.0,"age_years":8.3,"rooms":3.0,"halls":2.0,"baths":2.0,"building_area_sqm":140.76999999999998,"total_price":12300000,"unit_price_per_ping":288849.575945,"deal_date":"2026-02-08","is_special_deal":false,"note":null,"lat":24.7003716,"lng":120.8978736,"geocode_src":"osm:exact"},{"serial_no":"RPRNMLRJMHLGFEK56DA","county_code":"k","district":"三義鄉","address":"苗栗縣三義鄉勝興村歐香新城１３號","road":null,"building_type":"透天厝","total_floors":3.0,"transfer_floor_num":null,"age_years":32.1,"rooms":6.0,"halls":2.0,"baths":4.0,"building_area_sqm":161.6,"total_price":5380000,"unit_price_per_ping":110056.19422,"deal_date":"2026-02-07","is_special_deal":false,"note":"土地增值稅由買方支付土地增值稅金額為 0 元.含土地增值稅或其他稅費；頂樓加蓋；其他增建；","lat":24.4015586,"lng":120.7609328,"geocode_src":"osm:exact"},{"serial_no":"RPQPMLTJKHLGFFK76DA","county_code":"k","district":"頭份市","address":"苗栗縣頭份市學府路５６巷３之１號三樓","road":"頭份市學府路","building_type":"公寓(5樓含以下無電梯)","total_floors":4.0,"transfer_floor_num":3.0,"age_years":33.4,"rooms":4.0,"halls":1.0,"baths":4.0,"building_area_sqm":106.71,"total_price":1000000,"unit_price_per_ping":30978.511235,"deal_date":"2026-02-02","is_special_deal":false,"note":null,"lat":24.6834022,"lng":120.9664662,"geocode_src":"osm:exact"},{"serial_no":"RPWQMLKKKHLGFDK09DA","county_code":"k","district":"竹南鎮","address":"苗栗縣竹南鎮大埔里８鄰科學路２７７號十二樓之一","road":null,"building_type":"住宅大樓(11層含以上有電梯)","total_floors":15.0,"transfer_floor_num":12.0,"age_years":0.9,"rooms":3.0,"halls":2.0,"baths":2.0,"building_area_sqm":153.54000000000002,"total_price":14520000,"unit_price_per_ping":312621.47588000004,"deal_date":"2026-02-01","is_special_deal":false,"note":null,"lat":24.714113,"lng":120.9189197,"geocode_src":"osm:road"},{"serial_no":"RPRNMLPKMHLGFBK78DA","county_code":"k","district":"苗栗市","address":"苗栗縣苗栗市文山里２７鄰自治路４２６巷２號五樓之一","road":null,"building_type":"住宅大樓(11層含以上有電梯)","total_floors":13.0,"transfer_floor_num":5.0,"age_years":5.8,"rooms":3.0,"halls":2.0,"baths":2.0,"building_area_sqm":173.76999999999998,"total_price":13300000,"unit_price_per_ping":253018.17233,"deal_date":"2026-02-01","is_special_deal":false,"note":"其他增建；","lat":24.570129,"lng":120.8164913,"geocode_src":"osm:exact"},{"serial_no":"RPPNMLPJKHLGFEK58DA","county_code":"k","district":"三義鄉","address":"苗栗縣三義鄉西湖村１７鄰伯公坑２５８號","road":null,"building_type":"透天厝","total_floors":2.0,"transfer_floor_num":null,"age_years":44.1,"rooms":1.0,"halls":1.0,"baths":2.0,"building_area_sqm":110.5,"total_price":3730000,"unit_price_per_ping":111590.07846,"deal_date":"2026-02-01","is_special_deal":false,"note":null,"lat":24.3847049,"lng":120.7531258,"geocode_src":"osm:exact"},{"serial_no":"RPWNMLOLLHLGFBK56DA","county_code":"k","district":"苗栗市","address":"苗栗縣苗栗市新英里１４鄰南龍岡４０號","road":null,"building_type":"透天厝","total_floors":5.0,"transfer_floor_num":null,"age_years":29.6,"rooms":8.0,"halls":4.0,"baths":5.0,"building_area_sqm":422.56,"total_price":16000000,"unit_price_per_ping":125170.24324000001,"deal_date":"2026-01-31","is_special_deal":false,"note":null,"lat":24.5526865,"lng":120.8074476,"geocode_src":"osm:exact"},{"serial_no":"RPQOMLOJKHLGFFK78DA","county_code":"k","district":"頭份市","address":"苗栗縣頭份市成功里６鄰信東路３０６之１號六樓","road":null,"building_type":"華廈(10層含以下有電梯)","total_floors":7.0,"transfer_floor_num":6.0,"age_years":31.1,"rooms":1.0,"halls":1.0,"baths":1.0,"building_area_sqm":45.35,"total_price":1550000,"unit_price_per_ping":112988.42551500001,"deal_date":"2026-01-31","is_special_deal":false,"note":null,"lat":24.6937335,"lng":120.9067185,"geocode_src":"osm:exact"},{"serial_no":"RPSNMLOLKHLGFAK58DA","county_code":"k","district":"大湖鄉","address":"苗栗縣大湖鄉南湖村４鄰南昌路９７號","road":null,"building_type":"透天厝","total_floors":2.0,"transfer_floor_num":null,"age_years":29.4,"rooms":3.0,"halls":2.0,"baths":2.0,"building_area_sqm":48.41,"total_price":2450000,"unit_price_per_ping":167302.473065,"deal_date":"2026-01-30","is_special_deal":false,"note":"頂樓加蓋；","lat":24.4007833,"lng":120.867047,"geocode_src":"osm:exact"},{"serial_no":"RPRPMLTJKHLGFFK86DA","county_code":"k","district":"頭份市","address":"苗栗縣頭份市後庄里２３鄰公北三路１８６號十三樓","road":null,"building_type":"住宅大樓(11層含以上有電梯)","total_floors":15.0,"transfer_floor_num":13.0,"age_years":2.7,"rooms":2.0,"halls":2.0,"baths":1.0,"building_area_sqm":120.28,"total_price":10500000,"unit_price_per_ping":288581.80736000004,"deal_date":"2026-01-30","is_special_deal":true,"note":"親友、員工、共有人或其他特殊關係間之交易；","lat":24.6932905,"lng":120.8874067,"geocode_src":"osm:exact"},{"serial_no":"RPUPMLMJMHLGFFK66DA","county_code":"k","district":"頭份市","address":"苗栗縣頭份市民生里６鄰富貴街１４巷１１號六樓","road":null,"building_type":"華廈(10層含以下有電梯)","total_floors":7.0,"transfer_floor_num":6.0,"age_years":32.4,"rooms":3.0,"halls":2.0,"baths":2.0,"building_area_sqm":124.59,"total_price":7300000,"unit_price_per_ping":193692.55472000001,"deal_date":"2026-01-29","is_special_deal":false,"note":"其他增建；","lat":24.6799943,"lng":120.9001697,"geocode_src":"osm:exact"},{"serial_no":"RPPNMLLKMHLGFDK38DA","county_code":"k","district":"竹南鎮","address":"苗栗縣竹南鎮大埔里２鄰大埔六街１３１號","road":null,"building_type":"透天厝","total_floors":5.0,"transfer_floor_num":null,"age_years":10.1,"rooms":6.0,"halls":2.0,"baths":7.0,"building_area_sqm":424.3,"total_price":35880000,"unit_price_per_ping":279547.096955,"deal_date":"2026-01-29","is_special_deal":false,"note":null,"lat":24.7063106,"lng":120.8982991,"geocode_src":"osm:exact"},{"serial_no":"RPXNMLMJLHLGFDK09DA","county_code":"k","district":"竹南鎮","address":"苗栗縣竹南鎮竹興里１３鄰竹圍街３１２巷１號","road":null,"building_type":"透天厝","total_floors":2.0,"transfer_floor_num":null,"age_years":43.8,"rooms":3.0,"halls":2.0,"baths":2.0,"building_area_sqm":99.96,"total_price":8200000,"unit_price_per_ping":271183.46090500004,"deal_date":"2026-01-28","is_special_deal":false,"note":null,"lat":24.6922617,"lng":120.8596008,"geocode_src":"osm:exact"},{"serial_no":"RPPNMLQLKHLGFDK78DA","county_code":"k","district":"竹南鎮","address":"苗栗縣竹南鎮大埔里２鄰科專六路３６２巷１０號","road":null,"building_type":"透天厝","total_floors":4.0,"transfer_floor_num":null,"age_years":1.4,"rooms":4.0,"halls":2.0,"baths":4.0,"building_area_sqm":251.94,"total_price":24300000,"unit_price_per_ping":318849.57482000004,"deal_date":"2026-01-28","is_special_deal":false,"note":null,"lat":24.7072106,"lng":120.9038255,"geocode_src":"osm:road"},{"serial_no":"RPOOMLRJMHLGFFK09DA","county_code":"k","district":"頭份市","address":"苗栗縣頭份市山下里９鄰永忠街４０號十二樓","road":null,"building_type":"住宅大樓(11層含以上有電梯)","total_floors":15.0,"transfer_floor_num":12.0,"age_years":8.5,"rooms":3.0,"halls":2.0,"baths":2.0,"building_area_sqm":165.23000000000002,"total_price":14200000,"unit_price_per_ping":284102.468685,"deal_date":"2026-01-28","is_special_deal":false,"note":"車位編號自B1-139","lat":24.6981299,"lng":120.90293570000001,"geocode_src":"osm:exact"},{"serial_no":"RPPNMLNKMHLGFBK38DA","county_code":"k","district":"苗栗市","address":"苗栗縣苗栗市北苗里２２鄰嘉慶４８號","road":null,"building_type":"透天厝","total_floors":2.0,"transfer_floor_num":null,"age_years":48.4,"rooms":3.0,"halls":1.0,"baths":2.0,"building_area_sqm":95.92,"total_price":5000000,"unit_price_per_ping":172320.654695,"deal_date":"2026-01-28","is_special_deal":true,"note":"親友、員工、共有人或其他特殊關係間之交易；","lat":24.5719102,"lng":120.8209913,"geocode_src":"osm:exact"},{"serial_no":"RPXNMLOKMHLGFBK66DA","county_code":"k","district":"苗栗市","address":"苗栗縣苗栗市綠苗里１７鄰博愛街１０９號六樓","road":null,"building_type":"華廈(10層含以下有電梯)","total_floors":10.0,"transfer_floor_num":6.0,"age_years":31.7,"rooms":3.0,"halls":1.0,"baths":2.0,"building_area_sqm":127.76,"total_price":5320000,"unit_price_per_ping":137656.193185,"deal_date":"2026-01-27","is_special_deal":false,"note":null,"lat":24.5543725,"lng":120.81586539999999,"geocode_src":"osm:exact"},{"serial_no":"RPSNMLRJMHLGFEK66DA","county_code":"k","district":"銅鑼鄉","address":"苗栗縣銅鑼鄉朝陽村７鄰朝西８５之１號","road":null,"building_type":"透天厝","total_floors":2.0,"transfer_floor_num":null,"age_years":37.0,"rooms":5.0,"halls":3.0,"baths":2.0,"building_area_sqm":186.35,"total_price":17700000,"unit_price_per_ping":313993.37665500003,"deal_date":"2026-01-26","is_special_deal":false,"note":null},{"serial_no":"RPPNMLMJLHLGFBK08DA","county_code":"k","district":"苗栗市","address":"苗栗縣苗栗市玉華里２２鄰莒光街２０巷５號","road":null,"building_type":"透天厝","total_floors":2.0,"transfer_floor_num":null,"age_years":null,"rooms":4.0,"halls":2.0,"baths":2.0,"building_area_sqm":105.44,"total_price":3700000,"unit_price_per_ping":116003.301435,"deal_date":"2026-01-26","is_special_deal":false,"note":"其他增建；","lat":24.5604466,"lng":120.8265717,"geocode_src":"osm:exact"},{"serial_no":"RPPNMLMKKHLGFFK48DA","county_code":"k","district":"頭份市","address":"苗栗縣頭份市成功里３鄰成功路７０號三樓","road":null,"building_type":"華廈(10層含以下有電梯)","total_floors":5.0,"transfer_floor_num":3.0,"age_years":15.4,"rooms":3.0,"halls":2.0,"baths":2.0,"building_area_sqm":91.24,"total_price":8800000,"unit_price_per_ping":318839.657465,"deal_date":"2026-01-26","is_special_deal":false,"note":null,"lat":24.6944579,"lng":120.9096352,"geocode_src":"osm:exact"},{"serial_no":"RPSNMLMJKHLGFFK68DA","county_code":"k","district":"頭份市","address":"苗栗縣頭份市中興里８鄰大亨街１６７巷２之３號五樓","road":null,"building_type":"華廈(10層含以下有電梯)","total_floors":5.0,"transfer_floor_num":5.0,"age_years":6.8,"rooms":3.0,"halls":2.0,"baths":2.0,"building_area_sqm":147.72,"total_price":10000000,"unit_price_per_ping":223788.42136,"deal_date":"2026-01-26","is_special_deal":true,"note":"親友、員工、共有人或其他特殊關係間之交易；","lat":24.6926072,"lng":120.901903,"geocode_src":"osm:exact"},{"serial_no":"RPRNMLQLJHLGFFK09DA","county_code":"k","district":"頭份市","address":"苗栗縣頭份市蟠桃里１２鄰上庄路６４號","road":null,"building_type":"透天厝","total_floors":2.0,"transfer_floor_num":null,"age_years":45.4,"rooms":2.0,"halls":3.0,"baths":3.0,"building_area_sqm":113.9,"total_price":3172915,"unit_price_per_ping":92089.252745,"deal_date":"2026-01-26","is_special_deal":true,"note":"親友、員工、共有人或其他特殊關係間之交易；","lat":24.6911492,"lng":120.8943666,"geocode_src":"osm:exact"},{"serial_no":"RPUNMLNJKHLGFBK58DA","county_code":"k","district":"公館鄉","address":"苗栗縣公館鄉玉谷村１２鄰向陽４８號六樓","road":null,"building_type":"華廈(10層含以下有電梯)","total_floors":10.0,"transfer_floor_num":6.0,"age_years":32.1,"rooms":4.0,"halls":2.0,"baths":2.0,"building_area_sqm":138.39,"total_price":4250000,"unit_price_per_ping":101520.65735000001,"deal_date":"2026-01-25","is_special_deal":false,"note":null,"lat":24.5183662,"lng":120.82168219999998,"geocode_src":"osm:exact"},{"serial_no":"RPUNMLNLKHLGFDK98DA","county_code":"k","district":"竹南鎮","address":"苗栗縣竹南鎮新南里２４鄰維新路４１２號十樓之三","road":null,"building_type":"住宅大樓(11層含以上有電梯)","total_floors":14.0,"transfer_floor_num":10.0,"age_years":8.3,"rooms":3.0,"halls":2.0,"baths":2.0,"building_area_sqm":269.65,"total_price":23500000,"unit_price_per_ping":288099.16275,"deal_date":"2026-01-25","is_special_deal":false,"note":"買賣總價含機車位二位","lat":24.6925062,"lng":120.8827892,"geocode_src":"osm:exact"},{"serial_no":"RPTNMLRKLHLGFFK86DA","county_code":"k","district":"頭份市","address":"苗栗縣頭份市中興里３鄰自立街３１巷９號七樓","road":null,"building_type":"華廈(10層含以下有電梯)","total_floors":7.0,"transfer_floor_num":7.0,"age_years":12.1,"rooms":3.0,"halls":2.0,"baths":2.0,"building_area_sqm":178.48,"total_price":13000000,"unit_price_per_ping":240783.46204500002,"deal_date":"2026-01-23","is_special_deal":false,"note":"車位編號法B2-16","lat":24.6908786,"lng":120.9045704,"geocode_src":"osm:exact"},{"serial_no":"RPPNMLPLKHLGFBK58EA","county_code":"k","district":"苗栗市","address":"苗栗縣苗栗市玉清里４鄰玉清街８７號","road":null,"building_type":"透天厝","total_floors":2.0,"transfer_floor_num":null,"age_years":54.2,"rooms":9.0,"halls":4.0,"baths":2.0,"building_area_sqm":181.22,"total_price":8600000,"unit_price_per_ping":156879.33296,"deal_date":"2026-01-23","is_special_deal":false,"note":null,"lat":24.5622176,"lng":120.8291499,"geocode_src":"osm:exact"},{"serial_no":"RPQNMLLKKHLGFDK28DA","county_code":"k","district":"竹南鎮","address":"苗栗縣竹南鎮天文里５鄰龍山路二段１３０號十二樓","road":null,"building_type":"住宅大樓(11層含以上有電梯)","total_floors":12.0,"transfer_floor_num":12.0,"age_years":30.4,"rooms":2.0,"halls":2.0,"baths":2.0,"building_area_sqm":86.55,"total_price":6800000,"unit_price_per_ping":259725.610095,"deal_date":"2026-01-21","is_special_deal":false,"note":"陽台外推；","lat":24.697827200000003,"lng":120.87041999999998,"geocode_src":"osm:exact"},{"serial_no":"RPPNMLLJKHLGFFK28DA","county_code":"k","district":"頭份市","address":"苗栗縣頭份市中興里３鄰自立街３１巷５號二樓","road":null,"building_type":"華廈(10層含以下有電梯)","total_floors":7.0,"transfer_floor_num":2.0,"age_years":12.1,"rooms":3.0,"halls":2.0,"baths":2.0,"building_area_sqm":174.75,"total_price":13200000,"unit_price_per_ping":249705.77576000002,"deal_date":"2026-01-21","is_special_deal":false,"note":"其他增建；","lat":24.690652,"lng":120.9045904,"geocode_src":"osm:exact"},{"serial_no":"RPPNMLRLJHLGFCK68DA","county_code":"k","district":"苑裡鎮","address":"苗栗縣苑裡鎮舊社里１５鄰舊社１７０之１２號","road":null,"building_type":"透天厝","total_floors":3.0,"transfer_floor_num":null,"age_years":29.9,"rooms":5.0,"halls":2.0,"baths":4.0,"building_area_sqm":131.48,"total_price":8800000,"unit_price_per_ping":221256.19005,"deal_date":"2026-01-20","is_special_deal":true,"note":"親友、員工、共有人或其他特殊關係間之交易；","lat":24.4176947,"lng":120.6754861,"geocode_src":"osm:exact"},{"serial_no":"RPRNMLLLJHLGFBK18DA","county_code":"k","district":"苗栗市","address":"苗栗縣苗栗市建功里２７鄰府東路１０號五樓","road":null,"building_type":"公寓(5樓含以下無電梯)","total_floors":5.0,"transfer_floor_num":5.0,"age_years":44.9,"rooms":2.0,"halls":2.0,"baths":1.0,"building_area_sqm":62.28,"total_price":1610000,"unit_price_per_ping":85457.848035,"deal_date":"2026-01-19","is_special_deal":false,"note":"陽台加裝玻璃窗","lat":24.5646688,"lng":120.82166179999999,"geocode_src":"osm:exact"},{"serial_no":"RPWNMLPLKHLGFDK76DA","county_code":"k","district":"竹南鎮","address":"苗栗縣竹南鎮公義里１２鄰公義路１４９７巷４弄９號","road":null,"building_type":"透天厝","total_floors":3.0,"transfer_floor_num":null,"age_years":32.7,"rooms":8.0,"halls":0.0,"baths":7.0,"building_area_sqm":165.3,"total_price":10080000,"unit_price_per_ping":201586.7693,"deal_date":"2026-01-19","is_special_deal":false,"note":"頂樓加蓋；其他增建；","lat":24.7180744,"lng":120.9047973,"geocode_src":"osm:exact"},{"serial_no":"RPRNMLKLJHLGFDK28DA","county_code":"k","district":"竹南鎮","address":"苗栗縣竹南鎮竹興里１９鄰復興路４１０巷４２號","road":null,"building_type":"透天厝","total_floors":2.0,"transfer_floor_num":null,"age_years":45.6,"rooms":4.0,"halls":2.0,"baths":2.0,"building_area_sqm":115.2,"total_price":7800000,"unit_price_per_ping":223828.09078000003,"deal_date":"2026-01-19","is_special_deal":false,"note":"屋況有重新整理","lat":24.6893238,"lng":120.8606528,"geocode_src":"osm:exact"},{"serial_no":"RPSNMLNJLHLGFFK88DA","county_code":"k","district":"頭份市","address":"苗栗縣頭份市上興里１７鄰永愛街６４巷２３號","road":null,"building_type":"透天厝","total_floors":3.0,"transfer_floor_num":null,"age_years":28.4,"rooms":4.0,"halls":2.0,"baths":3.0,"building_area_sqm":141.71,"total_price":6600000,"unit_price_per_ping":153963.63059000002,"deal_date":"2026-01-19","is_special_deal":false,"note":"陽台外推；","lat":24.6691473,"lng":120.9213347,"geocode_src":"osm:exact"},{"serial_no":"RPTOMLRLJHLGFDK66DA","county_code":"k","district":"造橋鄉","address":"苗栗縣造橋鄉豐湖村４鄰全家福２５號","road":null,"building_type":"透天厝","total_floors":1.0,"transfer_floor_num":null,"age_years":53.9,"rooms":0.0,"halls":0.0,"baths":0.0,"building_area_sqm":61.59,"total_price":2400000,"unit_price_per_ping":128816.524095,"deal_date":"2026-01-19","is_special_deal":false,"note":null,"lat":24.6103078,"lng":120.8338693,"geocode_src":"osm:exact"},{"serial_no":"RPSNMLQJKHLGFFK09DA","county_code":"k","district":"南庄鄉","address":"苗栗縣南庄鄉東村２０鄰中正路１５１號","road":null,"building_type":"透天厝","total_floors":3.0,"transfer_floor_num":null,"age_years":54.0,"rooms":5.0,"halls":3.0,"baths":4.0,"building_area_sqm":130.75,"total_price":761800,"unit_price_per_ping":19259.50341,"deal_date":"2026-01-19","is_special_deal":true,"note":"親友、員工、共有人或其他特殊關係間之交易；","lat":24.6028826,"lng":121.000018,"geocode_src":"osm:exact"},{"serial_no":"RPQNMLQLJHLGFBK58DA","county_code":"k","district":"苗栗市","address":"苗栗縣苗栗市嘉新里２１鄰為民街４５７號五樓","road":null,"building_type":"華廈(10層含以下有電梯)","total_floors":7.0,"transfer_floor_num":5.0,"age_years":0.1,"rooms":4.0,"halls":2.0,"baths":2.0,"building_area_sqm":191.3,"total_price":13368000,"unit_price_per_ping":231008.2558,"deal_date":"2026-01-19","is_special_deal":false,"note":null,"lat":24.5736852,"lng":120.8300211,"geocode_src":"osm:exact"},{"serial_no":"RPSNMLKLJHLGFDK38DA","county_code":"k","district":"竹南鎮","address":"苗栗縣竹南鎮照南里７鄰華東街３６號之９","road":null,"building_type":"透天厝","total_floors":5.0,"transfer_floor_num":null,"age_years":0.2,"rooms":4.0,"halls":2.0,"baths":4.0,"building_area_sqm":250.48,"total_price":28580000,"unit_price_per_ping":377193.374285,"deal_date":"2026-01-18","is_special_deal":false,"note":null,"lat":24.6896672,"lng":120.8803242,"geocode_src":"osm:exact"},{"serial_no":"RPUNMLMLJHLGFDK78DA","county_code":"k","district":"竹南鎮","address":"苗栗縣竹南鎮頂埔里１５鄰中華路１３７巷８弄８之６號二樓","road":null,"building_type":"華廈(10層含以下有電梯)","total_floors":10.0,"transfer_floor_num":2.0,"age_years":31.0,"rooms":3.0,"halls":1.0,"baths":2.0,"building_area_sqm":94.43,"total_price":6800000,"unit_price_per_ping":238052.883635,"deal_date":"2026-01-17","is_special_deal":false,"note":"其他增建；","lat":24.7099848,"lng":120.923345,"geocode_src":"osm:exact"},{"serial_no":"RPQNMLPLLHLGFBK68DA","county_code":"k","district":"苗栗市","address":"苗栗縣苗栗市建功里１１鄰中正路３１３巷３號","road":null,"building_type":"透天厝","total_floors":3.0,"transfer_floor_num":null,"age_years":44.0,"rooms":5.0,"halls":2.0,"baths":4.0,"building_area_sqm":249.54,"total_price":8900000,"unit_price_per_ping":117904.12781,"deal_date":"2026-01-17","is_special_deal":false,"note":null,"lat":24.5627188,"lng":120.8239637,"geocode_src":"osm:exact"},{"serial_no":"RPUNMLLMLHLGFBK78DA","county_code":"k","district":"苗栗市","address":"苗栗縣苗栗市２１鄰玉維路１７號","road":null,"building_type":"透天厝","total_floors":2.0,"transfer_floor_num":null,"age_years":null,"rooms":0.0,"halls":0.0,"baths":0.0,"building_area_sqm":143.56,"total_price":6980000,"unit_price_per_ping":160730.572485,"deal_date":"2026-01-17","is_special_deal":false,"note":null,"lat":24.5599578,"lng":120.8248842,"geocode_src":"osm:exact"},{"serial_no":"RPQNMLNJLHLGFBK28DA","county_code":"k","district":"苗栗市","address":"苗栗縣苗栗市福星里１０鄰福園街８２號","road":null,"building_type":"華廈(10層含以下有電梯)","total_floors":7.0,"transfer_floor_num":1.0,"age_years":32.0,"rooms":2.0,"halls":2.0,"baths":2.0,"building_area_sqm":101.29,"total_price":2800000,"unit_price_per_ping":91381.814755,"deal_date":"2026-01-17","is_special_deal":false,"note":"含仲介費112000元；含地政士服務費15000元；其他增建；","lat":24.5767707,"lng":120.8269819,"geocode_src":"osm:exact"},{"serial_no":"RPRNMLRLJHLGFFK56DA","county_code":"k","district":"頭份市","address":"苗栗縣頭份市土牛里７鄰中正路３９１號四樓","road":null,"building_type":"華廈(10層含以下有電梯)","total_floors":5.0,"transfer_floor_num":4.0,"age_years":5.1,"rooms":3.0,"halls":2.0,"baths":2.0,"building_area_sqm":119.75,"total_price":10800000,"unit_price_per_ping":298142.13758000004,"deal_date":"2026-01-16","is_special_deal":false,"note":null,"lat":24.6881545,"lng":120.9210084,"geocode_src":"osm:exact"},{"serial_no":"RPQNMLSKJHLGFFK09DA","county_code":"k","district":"頭份市","address":"苗栗縣頭份市花園東路１３０號七樓","road":"頭份市花園東路","building_type":"華廈(10層含以下有電梯)","total_floors":7.0,"transfer_floor_num":7.0,"age_years":9.1,"rooms":2.0,"halls":2.0,"baths":1.0,"building_area_sqm":120.32,"total_price":7600000,"unit_price_per_ping":208809.90952500002,"deal_date":"2026-01-16","is_special_deal":false,"note":null,"lat":24.6906419,"lng":120.9442566,"geocode_src":"osm:exact"},{"serial_no":"RPXOMLSLJHLGFBK96DA","county_code":"k","district":"苗栗市","address":"苗栗縣苗栗市玉清里１６鄰育英街南苑５３之１號","road":null,"building_type":"透天厝","total_floors":4.0,"transfer_floor_num":null,"age_years":0.4,"rooms":5.0,"halls":3.0,"baths":6.0,"building_area_sqm":343.05,"total_price":32280000,"unit_price_per_ping":311064.451145,"deal_date":"2026-01-16","is_special_deal":false,"note":null,"lat":24.5715555,"lng":120.8326328,"geocode_src":"osm:road"},{"serial_no":"RPVNMLRLJHLGFFK96DA","county_code":"k","district":"頭份市","address":"苗栗縣頭份市仁愛里銀河北路１３鄰１５號三樓之１３","road":"頭份市仁愛里銀河北路","building_type":"華廈(10層含以下有電梯)","total_floors":8.0,"transfer_floor_num":3.0,"age_years":28.6,"rooms":1.0,"halls":0.0,"baths":1.0,"building_area_sqm":65.83,"total_price":3650000,"unit_price_per_ping":183292.55511000002,"deal_date":"2026-01-16","is_special_deal":false,"note":"含土地增值稅或其他稅費8800元；含地政士服務費14500元；","lat":24.684970000000003,"lng":120.9119563,"geocode_src":"osm:exact"},{"serial_no":"RPPNMLRLJHLGFDK78DA","county_code":"k","district":"竹南鎮","address":"苗栗縣竹南鎮新南里２０鄰新南街３６號十二樓","road":null,"building_type":"住宅大樓(11層含以上有電梯)","total_floors":14.0,"transfer_floor_num":12.0,"age_years":12.3,"rooms":3.0,"halls":2.0,"baths":2.0,"building_area_sqm":155.63,"total_price":12500000,"unit_price_per_ping":265517.345415,"deal_date":"2026-01-16","is_special_deal":false,"note":null,"lat":24.685642000000005,"lng":120.8840654,"geocode_src":"osm:exact"},{"serial_no":"RPRNMLRJMHLGFFK66DA","county_code":"k","district":"頭份市","address":"苗栗縣頭份市花園東路１２６號","road":"頭份市花園東路","building_type":"華廈(10層含以下有電梯)","total_floors":7.0,"transfer_floor_num":1.0,"age_years":9.1,"rooms":3.0,"halls":2.0,"baths":2.0,"building_area_sqm":148.12,"total_price":9000000,"unit_price_per_ping":200866.10817000002,"deal_date":"2026-01-14","is_special_deal":false,"note":null,"lat":24.690716,"lng":120.94428789999999,"geocode_src":"osm:exact"},{"serial_no":"RPPNMLMJLHLGFDK28DA","county_code":"k","district":"竹南鎮","address":"苗栗縣竹南鎮正南里２５鄰福德路１７８號三樓","road":null,"building_type":"華廈(10層含以下有電梯)","total_floors":7.0,"transfer_floor_num":3.0,"age_years":32.4,"rooms":2.0,"halls":1.0,"baths":1.0,"building_area_sqm":81.07,"total_price":5500000,"unit_price_per_ping":224274.371755,"deal_date":"2026-01-14","is_special_deal":false,"note":null,"lat":24.6830167,"lng":120.8745667,"geocode_src":"osm:exact"},{"serial_no":"RPPNMLQLKHLGFCK68DA","county_code":"k","district":"苑裡鎮","address":"苗栗縣苑裡鎮玉田里６鄰國光巷４３號二樓","road":null,"building_type":"公寓(5樓含以下無電梯)","total_floors":5.0,"transfer_floor_num":2.0,"age_years":28.8,"rooms":3.0,"halls":2.0,"baths":2.0,"building_area_sqm":106.57000000000001,"total_price":560501,"unit_price_per_ping":17385.123315,"deal_date":"2026-01-14","is_special_deal":true,"note":"親友、員工、共有人或其他特殊關係間之交易；","lat":24.38831,"lng":120.6797205,"geocode_src":"osm:exact"},{"serial_no":"RPPNMLPKJHLGFCK38DA","county_code":"k","district":"苑裡鎮","address":"苗栗縣苑裡鎮泰田里２鄰泰田２２之６號二樓之１","road":null,"building_type":"華廈(10層含以下有電梯)","total_floors":5.0,"transfer_floor_num":2.0,"age_years":0.9,"rooms":3.0,"halls":2.0,"baths":2.0,"building_area_sqm":125.65,"total_price":7300000,"unit_price_per_ping":192059.49693000002,"deal_date":"2026-01-13","is_special_deal":false,"note":null},{"serial_no":"RPROMLTKJHLGFBK98DA","county_code":"k","district":"公館鄉","address":"苗栗縣公館鄉玉谷村５鄰１０２號","road":null,"building_type":"透天厝","total_floors":4.0,"transfer_floor_num":null,"age_years":31.8,"rooms":3.0,"halls":2.0,"baths":3.0,"building_area_sqm":249.36,"total_price":7000000,"unit_price_per_ping":92799.99652,"deal_date":"2026-01-13","is_special_deal":true,"note":"親友、員工、共有人或其他特殊關係間之交易；"},{"serial_no":"RPPNMLTLJHLGFEK56EA","county_code":"k","district":"銅鑼鄉","address":"苗栗縣銅鑼鄉銅鑼村７鄰中正路１６４號","road":null,"building_type":"公寓(5樓含以下無電梯)","total_floors":5.0,"transfer_floor_num":null,"age_years":30.8,"rooms":1.0,"halls":1.0,"baths":1.0,"building_area_sqm":26.34,"total_price":4200000,"unit_price_per_ping":527117.335605,"deal_date":"2026-01-13","is_special_deal":false,"note":null,"lat":24.4882421,"lng":120.7874141,"geocode_src":"osm:exact"},{"serial_no":"RPQNMLTLJHLGFEK56DA","county_code":"k","district":"三義鄉","address":"苗栗縣三義鄉２６鄰新生路６號","road":null,"building_type":"透天厝","total_floors":1.0,"transfer_floor_num":null,"age_years":null,"rooms":0.0,"halls":0.0,"baths":0.0,"building_area_sqm":175.94,"total_price":8700000,"unit_price_per_ping":163467.762465,"deal_date":"2026-01-13","is_special_deal":false,"note":"其他增建；"},{"serial_no":"RPRNMLMLJHLGFCK38DA","county_code":"k","district":"苑裡鎮","address":"苗栗縣苑裡鎮山里２０鄰錦山７１之７號","road":null,"building_type":"透天厝","total_floors":3.0,"transfer_floor_num":null,"age_years":42.9,"rooms":9.0,"halls":3.0,"baths":2.0,"building_area_sqm":140.25,"total_price":4300000,"unit_price_per_ping":101355.3681,"deal_date":"2026-01-13","is_special_deal":false,"note":"頂樓加蓋；畸零地或有合併使用效益；","lat":24.420481,"lng":120.6904784,"geocode_src":"osm:exact"},{"serial_no":"RPRNMLOJKHLGFBK38DA","county_code":"k","district":"頭屋鄉","address":"苗栗縣頭屋鄉象山路７８巷１２號","road":"頭屋鄉象山路","building_type":"透天厝","total_floors":2.0,"transfer_floor_num":null,"age_years":44.6,"rooms":4.0,"halls":2.0,"baths":2.0,"building_area_sqm":113.68,"total_price":1200000,"unit_price_per_ping":34895.866460000005,"deal_date":"2026-01-12","is_special_deal":true,"note":"親友、員工、共有人或其他特殊關係間之交易；"},{"serial_no":"RPQNMLMJKHLGFCK18DA","county_code":"k","district":"苑裡鎮","address":"苗栗縣苑裡鎮苑南里１鄰南興路１１號","road":null,"building_type":"透天厝","total_floors":2.0,"transfer_floor_num":null,"age_years":50.0,"rooms":4.0,"halls":3.0,"baths":3.0,"building_area_sqm":118.38,"total_price":11000000,"unit_price_per_ping":307176.847985,"deal_date":"2026-01-12","is_special_deal":false,"note":"頂樓加蓋；其他增建；","lat":24.4397912,"lng":120.6559012,"geocode_src":"osm:exact"},{"serial_no":"RPUOMLLLJHLGFBK58DA","county_code":"k","district":"公館鄉","address":"苗栗縣公館鄉玉谷村１２鄰向陽４６號八樓","road":null,"building_type":"華廈(10層含以下有電梯)","total_floors":10.0,"transfer_floor_num":8.0,"age_years":32.1,"rooms":5.0,"halls":1.0,"baths":2.0,"building_area_sqm":137.47,"total_price":3800000,"unit_price_per_ping":91378.50897000001,"deal_date":"2026-01-12","is_special_deal":false,"note":null,"lat":24.518278,"lng":120.82180560000002,"geocode_src":"osm:exact"},{"serial_no":"RPUTMLNKMHLGFFK27DA","county_code":"k","district":"頭份市","address":"苗栗縣頭份市民族里３鄰自強路２５３號十樓","road":null,"building_type":"華廈(10層含以下有電梯)","total_floors":10.0,"transfer_floor_num":10.0,"age_years":13.6,"rooms":3.0,"halls":2.0,"baths":2.0,"building_area_sqm":103.13,"total_price":8000000,"unit_price_per_ping":256436.35402000003,"deal_date":"2026-01-11","is_special_deal":true,"note":"親友、員工、共有人或其他特殊關係間之交易；","lat":24.6855033,"lng":120.9045015,"geocode_src":"osm:exact"},{"serial_no":"RPPNMLQKJHLGFDK58DA","county_code":"k","district":"造橋鄉","address":"苗栗縣造橋鄉談文村５鄰育英三街５號一樓之三","road":null,"building_type":"公寓(5樓含以下無電梯)","total_floors":4.0,"transfer_floor_num":1.0,"age_years":22.5,"rooms":1.0,"halls":0.0,"baths":1.0,"building_area_sqm":20.2,"total_price":1000000,"unit_price_per_ping":163652.886425,"deal_date":"2026-01-11","is_special_deal":false,"note":null,"lat":24.6473397,"lng":120.8439638,"geocode_src":"osm:exact"},{"serial_no":"RPPNMLQKMHLGFCK88EA","county_code":"k","district":"通霄鎮","address":"苗栗縣通霄鎮通西里２０鄰中正路８７號","road":null,"building_type":"透天厝","total_floors":1.0,"transfer_floor_num":null,"age_years":null,"rooms":0.0,"halls":0.0,"baths":0.0,"building_area_sqm":113.43,"total_price":5000000,"unit_price_per_ping":145719.00280000002,"deal_date":"2026-01-11","is_special_deal":false,"note":null,"lat":24.4903643,"lng":120.6790763,"geocode_src":"osm:exact"},{"serial_no":"RPRNMLPJKHLGFFK88DA","county_code":"k","district":"頭份市","address":"苗栗縣頭份市興隆里１３鄰華興街１２巷２３號","road":null,"building_type":"透天厝","total_floors":2.0,"transfer_floor_num":null,"age_years":44.1,"rooms":2.0,"halls":2.0,"baths":2.0,"building_area_sqm":88.8,"total_price":6080000,"unit_price_per_ping":226340.48738,"deal_date":"2026-01-11","is_special_deal":false,"note":"頂樓加蓋；其他增建；","lat":24.7117643,"lng":120.9357742,"geocode_src":"osm:exact"},{"serial_no":"RPOOMLQKJHLGFFK78DA","county_code":"k","district":"頭份市","address":"苗栗縣頭份市民族里１２鄰東興路１７４號","road":null,"building_type":"透天厝","total_floors":3.0,"transfer_floor_num":null,"age_years":37.8,"rooms":5.0,"halls":2.0,"baths":5.0,"building_area_sqm":271.06,"total_price":15000000,"unit_price_per_ping":182935.53033,"deal_date":"2026-01-11","is_special_deal":false,"note":null,"lat":24.6838055,"lng":120.9023039,"geocode_src":"osm:exact"},{"serial_no":"RPVNMLOKJHLGFDK98DA","county_code":"k","district":"後龍鎮","address":"苗栗縣後龍鎮豐富里１６鄰高鐵五路３１巷１６號","road":null,"building_type":"透天厝","total_floors":4.0,"transfer_floor_num":null,"age_years":1.2,"rooms":5.0,"halls":2.0,"baths":5.0,"building_area_sqm":200.34,"total_price":16280000,"unit_price_per_ping":268634.70067,"deal_date":"2026-01-11","is_special_deal":false,"note":"土地交易總價：新台幣4884000元；建物交易總價：新台幣11396000元","lat":24.6054596,"lng":120.8177793,"geocode_src":"osm:road"},{"serial_no":"RPRNMLMJKHLGFFK58DA","county_code":"k","district":"南庄鄉","address":"苗栗縣南庄鄉南江村１６鄰１０號","road":null,"building_type":"透天厝","total_floors":1.0,"transfer_floor_num":null,"age_years":59.0,"rooms":3.0,"halls":2.0,"baths":1.0,"building_area_sqm":96.32,"total_price":7400000,"unit_price_per_ping":253973.54419500002,"deal_date":"2026-01-11","is_special_deal":false,"note":null},{"serial_no":"RPQNMLNKKHLGFBK28DA","county_code":"k","district":"苗栗市","address":"苗栗縣苗栗市玉華里１９鄰勵志街２７巷３號","road":null,"building_type":"透天厝","total_floors":1.0,"transfer_floor_num":null,"age_years":50.2,"rooms":2.0,"halls":2.0,"baths":1.0,"building_area_sqm":59.61,"total_price":5200000,"unit_price_per_ping":288376.84869,"deal_date":"2026-01-10","is_special_deal":false,"note":"頂樓加蓋；其他增建；","lat":24.561219,"lng":120.8248762,"geocode_src":"osm:exact"},{"serial_no":"RPSNMLRLJHLGFFK66DA","county_code":"k","district":"頭份市","address":"苗栗縣頭份市民權里４鄰銀河路２５８號六樓","road":null,"building_type":"住宅大樓(11層含以上有電梯)","total_floors":13.0,"transfer_floor_num":6.0,"age_years":7.4,"rooms":2.0,"halls":2.0,"baths":1.0,"building_area_sqm":122.13999999999999,"total_price":9390000,"unit_price_per_ping":254145.445015,"deal_date":"2026-01-09","is_special_deal":false,"note":null,"lat":24.6800278,"lng":120.9037773,"geocode_src":"osm:exact"},{"serial_no":"RPSNMLOKJHLGFFK88DA","county_code":"k","district":"頭份市","address":"苗栗縣頭份市東庄里１９鄰富強二街５２號十四樓","road":null,"building_type":"住宅大樓(11層含以上有電梯)","total_floors":15.0,"transfer_floor_num":14.0,"age_years":6.4,"rooms":3.0,"halls":2.0,"baths":2.0,"building_area_sqm":170.64,"total_price":13900000,"unit_price_per_ping":269282.63453000004,"deal_date":"2026-01-09","is_special_deal":false,"note":null,"lat":24.6872718,"lng":120.8986404,"geocode_src":"osm:exact"},{"serial_no":"RPPNMLNJKHLGFDK38EA","county_code":"k","district":"竹南鎮","address":"苗栗縣竹南鎮新南里１３鄰崁頂街４６巷１３號","road":null,"building_type":"透天厝","total_floors":2.0,"transfer_floor_num":null,"age_years":51.7,"rooms":5.0,"halls":2.0,"baths":3.0,"building_area_sqm":105.74,"total_price":3300000,"unit_price_per_ping":103170.244065,"deal_date":"2026-01-09","is_special_deal":true,"note":"親友、員工、共有人或其他特殊關係間之交易；","lat":24.691141,"lng":120.8842105,"geocode_src":"osm:exact"},{"serial_no":"RPXNMLQKJHLGFFK96DA","county_code":"k","district":"頭份市","address":"苗栗縣頭份市廣興里４鄰１０２之１號","road":null,"building_type":"透天厝","total_floors":2.0,"transfer_floor_num":null,"age_years":48.7,"rooms":3.0,"halls":2.0,"baths":2.0,"building_area_sqm":171.34,"total_price":4900000,"unit_price_per_ping":94538.83943,"deal_date":"2026-01-09","is_special_deal":false,"note":"契稅、印花稅、規費由賣方負擔"},{"serial_no":"RPWNMLNLKHLGFDK56DA","county_code":"k","district":"竹南鎮","address":"苗栗縣竹南鎮營盤里１６鄰環市路三段３３巷２９號三樓","road":null,"building_type":"華廈(10層含以下有電梯)","total_floors":5.0,"transfer_floor_num":3.0,"age_years":1.1,"rooms":3.0,"halls":2.0,"baths":2.0,"building_area_sqm":161.31,"total_price":15200000,"unit_price_per_ping":311500.814765,"deal_date":"2026-01-08","is_special_deal":false,"note":null,"lat":24.6890371,"lng":120.8695032,"geocode_src":"osm:exact"},{"serial_no":"RPUNMLTJJHLGFFK86DA","county_code":"k","district":"頭份市","address":"苗栗縣頭份市珊湖里２鄰學府路２４巷２３號四樓","road":null,"building_type":"公寓(5樓含以下無電梯)","total_floors":4.0,"transfer_floor_num":4.0,"age_years":28.6,"rooms":6.0,"halls":1.0,"baths":6.0,"building_area_sqm":124.5,"total_price":3000000,"unit_price_per_ping":79656.19536,"deal_date":"2026-01-08","is_special_deal":false,"note":null,"lat":24.6835098,"lng":120.9656684,"geocode_src":"osm:exact"},{"serial_no":"RPPNMLTJJHLGFAK48DA","county_code":"k","district":"大湖鄉","address":"苗栗縣大湖鄉中原路１巷１３之２號","road":"大湖鄉中原路","building_type":"透天厝","total_floors":3.0,"transfer_floor_num":null,"age_years":40.9,"rooms":5.0,"halls":2.0,"baths":4.0,"building_area_sqm":200.37,"total_price":5500000,"unit_price_per_ping":90740.492465,"deal_date":"2026-01-08","is_special_deal":false,"note":null,"lat":24.4232949,"lng":120.8657713,"geocode_src":"osm:road"},{"serial_no":"RPRNMLNKJHLGFDK48DA","county_code":"k","district":"竹南鎮","address":"苗栗縣竹南鎮大埔里２鄰大埔七街２２１號","road":null,"building_type":"透天厝","total_floors":3.0,"transfer_floor_num":null,"age_years":1.3,"rooms":7.0,"halls":8.0,"baths":2.0,"building_area_sqm":261.1,"total_price":32000000,"unit_price_per_ping":405150.39803000004,"deal_date":"2026-01-07","is_special_deal":false,"note":"土地金額為2031萬房屋金額為1169萬頂樓加蓋；夾層；","lat":24.7044107,"lng":120.9011553,"geocode_src":"osm:road"},{"serial_no":"RPWNMLPKJHLGFBK98DA","county_code":"k","district":"苗栗市","address":"苗栗縣苗栗市恭敬里８鄰中正路１０９０號七樓之十五","road":null,"building_type":"華廈(10層含以下有電梯)","total_floors":10.0,"transfer_floor_num":7.0,"age_years":18.5,"rooms":1.0,"halls":1.0,"baths":1.0,"building_area_sqm":37.22,"total_price":2060000,"unit_price_per_ping":182965.28239500002,"deal_date":"2026-01-07","is_special_deal":false,"note":null,"lat":24.547405,"lng":120.816082,"geocode_src":"osm:exact"},{"serial_no":"RPRWMLRJJHLGFDK07DA","county_code":"k","district":"竹南鎮","address":"苗栗縣竹南鎮大埔里１９鄰五福新村１２４號","road":null,"building_type":"透天厝","total_floors":2.0,"transfer_floor_num":null,"age_years":44.4,"rooms":4.0,"halls":2.0,"baths":2.0,"building_area_sqm":83.27,"total_price":5500000,"unit_price_per_ping":218347.09925,"deal_date":"2026-01-07","is_special_deal":false,"note":"其他增建；","lat":24.7162135,"lng":120.9045319,"geocode_src":"osm:exact"},{"serial_no":"RPSNMLOLLHLGFFK56DA","county_code":"k","district":"頭份市","address":"苗栗縣頭份市建國里６鄰大同路１２５巷７號","road":null,"building_type":"透天厝","total_floors":2.0,"transfer_floor_num":null,"age_years":38.7,"rooms":5.0,"halls":2.0,"baths":2.0,"building_area_sqm":109.85,"total_price":10500000,"unit_price_per_ping":315983.459225,"deal_date":"2026-01-07","is_special_deal":false,"note":null,"lat":24.6961498,"lng":120.9148255,"geocode_src":"osm:exact"},{"serial_no":"RPQNMLTLJHLGFAK78DA","county_code":"k","district":"大湖鄉","address":"苗栗縣大湖鄉富興村９鄰八寮灣１之５１號","road":null,"building_type":"透天厝","total_floors":2.0,"transfer_floor_num":null,"age_years":24.4,"rooms":6.0,"halls":1.0,"baths":1.0,"building_area_sqm":207.36,"total_price":1580000,"unit_price_per_ping":25190.081700000002,"deal_date":"2026-01-07","is_special_deal":false,"note":"建物坐落地號：富興段168地號；","lat":24.4295648,"lng":120.8699026,"geocode_src":"osm:exact"},{"serial_no":"RPRNMLSLJHLGFBK88DA","county_code":"k","district":"苗栗市","address":"苗栗縣苗栗市上苗里１６鄰站前１號九樓之三","road":null,"building_type":"住宅大樓(11層含以上有電梯)","total_floors":22.0,"transfer_floor_num":9.0,"age_years":34.6,"rooms":2.0,"halls":1.0,"baths":0.0,"building_area_sqm":105.71,"total_price":2220000,"unit_price_per_ping":69424.790785,"deal_date":"2026-01-07","is_special_deal":false,"note":null,"lat":24.569885700000004,"lng":120.8232659,"geocode_src":"osm:exact"},{"serial_no":"RPPNMLRJMHLGFBK68DA","county_code":"k","district":"苗栗市","address":"苗栗縣苗栗市維祥里２３鄰維祥街１巷１５弄２號十三樓之六","road":null,"building_type":"住宅大樓(11層含以上有電梯)","total_floors":15.0,"transfer_floor_num":13.0,"age_years":1.6,"rooms":3.0,"halls":2.0,"baths":2.0,"building_area_sqm":161.11,"total_price":12500000,"unit_price_per_ping":276985.11358,"deal_date":"2026-01-07","is_special_deal":false,"note":"買賣總價款新台幣1250萬元整，土地價款：新台幣200.6萬元整、房屋價款：新台幣919.4萬元整、車位價款：新台幣130萬元整。","lat":24.5572179,"lng":120.8223761,"geocode_src":"osm:exact"},{"serial_no":"RPQNMLTJMHLGFBK98DA","county_code":"k","district":"苗栗市","address":"苗栗縣苗栗市勝利里１６鄰勝利路２２１巷２０號","road":null,"building_type":"透天厝","total_floors":2.0,"transfer_floor_num":null,"age_years":21.4,"rooms":7.0,"halls":2.0,"baths":4.0,"building_area_sqm":180.3,"total_price":30000000,"unit_price_per_ping":550046.260365,"deal_date":"2026-01-07","is_special_deal":false,"note":"頂樓加蓋；其他增建；","lat":24.5463014,"lng":120.8200185,"geocode_src":"osm:exact"},{"serial_no":"RPQNMLSJJHLGFDK78DA","county_code":"k","district":"造橋鄉","address":"苗栗縣造橋鄉大西村１３鄰龍門街６６巷２８號","road":null,"building_type":"透天厝","total_floors":3.0,"transfer_floor_num":null,"age_years":27.3,"rooms":4.0,"halls":2.0,"baths":3.0,"building_area_sqm":139.93,"total_price":4000000,"unit_price_per_ping":94499.17001,"deal_date":"2026-01-06","is_special_deal":false,"note":"其他增建；","lat":24.6224022,"lng":120.8952773,"geocode_src":"osm:exact"},{"serial_no":"RPPNMLSJJHLGFBK48DA","county_code":"k","district":"苗栗市","address":"苗栗縣苗栗市恭敬里６鄰中正路１０１６巷３號","road":null,"building_type":"透天厝","total_floors":2.0,"transfer_floor_num":null,"age_years":51.2,"rooms":6.0,"halls":2.0,"baths":2.0,"building_area_sqm":116.06,"total_price":5100000,"unit_price_per_ping":145266.110255,"deal_date":"2026-01-06","is_special_deal":false,"note":null,"lat":24.5488962,"lng":120.8158204,"geocode_src":"osm:exact"},{"serial_no":"RPPNMLQLKHLGFFK98DA","county_code":"k","district":"頭份市","address":"苗栗縣頭份市自強里２鄰五福街２６巷１０號二樓","road":null,"building_type":"公寓(5樓含以下無電梯)","total_floors":4.0,"transfer_floor_num":2.0,"age_years":43.9,"rooms":3.0,"halls":2.0,"baths":1.0,"building_area_sqm":84.03,"total_price":3800000,"unit_price_per_ping":149494.20927000002,"deal_date":"2026-01-06","is_special_deal":false,"note":null,"lat":24.6920643,"lng":120.9130552,"geocode_src":"osm:exact"},{"serial_no":"RPPNMLQJKHLGFCK58EA","county_code":"k","district":"苑裡鎮","address":"苗栗縣苑裡鎮山柑里６鄰山柑６５之６２號","road":null,"building_type":"透天厝","total_floors":3.0,"transfer_floor_num":null,"age_years":26.9,"rooms":4.0,"halls":1.0,"baths":4.0,"building_area_sqm":251.11,"total_price":7300000,"unit_price_per_ping":96102.475735,"deal_date":"2026-01-06","is_special_deal":false,"note":null,"lat":24.3975502,"lng":120.67302,"geocode_src":"osm:exact"},{"serial_no":"RPTNMLQJKHLGFFK56DA","county_code":"k","district":"頭份市","address":"苗栗縣頭份市成功里１５鄰永安街４００號","road":null,"building_type":"透天厝","total_floors":2.0,"transfer_floor_num":null,"age_years":46.1,"rooms":4.0,"halls":2.0,"baths":2.0,"building_area_sqm":74.88,"total_price":5680000,"unit_price_per_ping":250760.32117500002,"deal_date":"2026-01-06","is_special_deal":false,"note":"遮雨棚頂樓加蓋；其他增建；","lat":24.698536,"lng":120.9102203,"geocode_src":"osm:exact"},{"serial_no":"RPVNMLOKJHLGFBK78DA","county_code":"k","district":"苗栗市","address":"苗栗縣苗栗市建功里２５鄰民族路６６巷６號五樓之二","road":null,"building_type":"華廈(10層含以下有電梯)","total_floors":10.0,"transfer_floor_num":null,"age_years":27.6,"rooms":3.0,"halls":1.0,"baths":1.0,"building_area_sqm":53.44,"total_price":2758000,"unit_price_per_ping":170608.258065,"deal_date":"2026-01-05","is_special_deal":true,"note":"親友、員工、共有人或其他特殊關係間之交易；夾層；","lat":24.5634873,"lng":120.8191278,"geocode_src":"osm:exact"},{"serial_no":"RPPNMLSJJHLGFDK68DA","county_code":"k","district":"後龍鎮","address":"苗栗縣後龍鎮豐富里１６鄰高鐵五路３１巷７號","road":null,"building_type":"透天厝","total_floors":4.0,"transfer_floor_num":null,"age_years":1.2,"rooms":4.0,"halls":2.0,"baths":5.0,"building_area_sqm":198.91,"total_price":16080000,"unit_price_per_ping":267242.96518500004,"deal_date":"2026-01-05","is_special_deal":false,"note":"土地交易總價：新台幣4824000元；建物交易總價：新台幣11256000元","lat":24.6054596,"lng":120.8177793,"geocode_src":"osm:road"},{"serial_no":"RPUNMLKLJHLGFBK38DA","county_code":"k","district":"苗栗市","address":"苗栗縣苗栗市高苗里１３鄰中山路１００６號","road":null,"building_type":"透天厝","total_floors":1.0,"transfer_floor_num":null,"age_years":77.2,"rooms":4.0,"halls":2.0,"baths":2.0,"building_area_sqm":33.0,"total_price":8125000,"unit_price_per_ping":813923.93642,"deal_date":"2026-01-05","is_special_deal":false,"note":null,"lat":24.551287,"lng":120.8135182,"geocode_src":"osm:exact"},{"serial_no":"RPTNMLOJKHLGFAK48DA","county_code":"k","district":"大湖鄉","address":"苗栗縣大湖鄉大湖村１鄰民生路７７號","road":null,"building_type":"透天厝","total_floors":4.0,"transfer_floor_num":null,"age_years":32.6,"rooms":5.0,"halls":2.0,"baths":6.0,"building_area_sqm":400.8,"total_price":12000000,"unit_price_per_ping":98975.2029,"deal_date":"2026-01-05","is_special_deal":false,"note":"其他增建；","lat":24.4244056,"lng":120.8673483,"geocode_src":"osm:exact"},{"serial_no":"RPPOMLQJJHLGFFK78DA","county_code":"k","district":"頭份市","address":"苗栗縣頭份市東庄里１９鄰和平路３５２號","road":null,"building_type":"住宅大樓(11層含以上有電梯)","total_floors":15.0,"transfer_floor_num":1.0,"age_years":6.4,"rooms":0.0,"halls":0.0,"baths":0.0,"building_area_sqm":133.82999999999998,"total_price":13000000,"unit_price_per_ping":321117.34333,"deal_date":"2026-01-05","is_special_deal":false,"note":null,"lat":24.6866746,"lng":120.8986304,"geocode_src":"osm:exact"},{"serial_no":"RPXNMLKMJHLGFFK56DA","county_code":"k","district":"頭份市","address":"苗栗縣頭份市土牛里７鄰中正路３９５號二樓","road":null,"building_type":"華廈(10層含以下有電梯)","total_floors":5.0,"transfer_floor_num":2.0,"age_years":5.1,"rooms":3.0,"halls":2.0,"baths":2.0,"building_area_sqm":126.85,"total_price":11500000,"unit_price_per_ping":299695.85653,"deal_date":"2026-01-04","is_special_deal":false,"note":"其他增建；","lat":24.6882835,"lng":120.9210382,"geocode_src":"osm:exact"},{"serial_no":"RPSNMLSLJHLGFFK76DA","county_code":"k","district":"頭份市","address":"苗栗縣頭份市合興里１０鄰幼英街１１６巷５號","road":null,"building_type":"透天厝","total_floors":3.0,"transfer_floor_num":null,"age_years":13.9,"rooms":4.0,"halls":2.0,"baths":3.0,"building_area_sqm":190.44,"total_price":16280000,"unit_price_per_ping":282598.33651,"deal_date":"2026-01-04","is_special_deal":false,"note":null,"lat":24.6995933,"lng":120.8952459,"geocode_src":"osm:exact"},{"serial_no":"RPVNMLTJJHLGFFK96DA","county_code":"k","district":"頭份市","address":"苗栗縣頭份市珊湖里２鄰學府路７３巷２０號三樓","road":null,"building_type":"公寓(5樓含以下無電梯)","total_floors":4.0,"transfer_floor_num":3.0,"age_years":32.5,"rooms":6.0,"halls":0.0,"baths":6.0,"building_area_sqm":117.75,"total_price":1400000,"unit_price_per_ping":39305.783650000005,"deal_date":"2026-01-03","is_special_deal":false,"note":null,"lat":24.6841039,"lng":120.9670626,"geocode_src":"osm:exact"},{"serial_no":"RPQOMLSLJHLGFBK88DA","county_code":"k","district":"苗栗市","address":"苗栗縣苗栗市文聖里１０鄰文發路３５７號二樓","road":null,"building_type":"華廈(10層含以下有電梯)","total_floors":5.0,"transfer_floor_num":2.0,"age_years":5.4,"rooms":3.0,"halls":2.0,"baths":2.0,"building_area_sqm":127.98,"total_price":7400000,"unit_price_per_ping":191147.10027000002,"deal_date":"2026-01-03","is_special_deal":false,"note":"陽台外推；","lat":24.5761096,"lng":120.8120066,"geocode_src":"osm:exact"},{"serial_no":"RPQOMLPJKHLGFEK78DA","county_code":"k","district":"三義鄉","address":"苗栗縣三義鄉勝興村歐香新城６２之１號","road":null,"building_type":"透天厝","total_floors":3.0,"transfer_floor_num":null,"age_years":32.0,"rooms":4.0,"halls":2.0,"baths":3.0,"building_area_sqm":161.6,"total_price":6000000,"unit_price_per_ping":122740.491265,"deal_date":"2026-01-03","is_special_deal":false,"note":"陽台外推；其他增建；","lat":24.4021345,"lng":120.7606326,"geocode_src":"osm:exact"},{"serial_no":"RPROMLRLJHLGFDK09DA","county_code":"k","district":"竹南鎮","address":"苗栗縣竹南鎮海口里１鄰迎薰南路８３號五樓之一","road":null,"building_type":"華廈(10層含以下有電梯)","total_floors":5.0,"transfer_floor_num":5.0,"age_years":1.1,"rooms":4.0,"halls":2.0,"baths":2.0,"building_area_sqm":142.34,"total_price":10500000,"unit_price_per_ping":243857.842095,"deal_date":"2026-01-03","is_special_deal":false,"note":null,"lat":24.6773797,"lng":120.865316,"geocode_src":"osm:road"},{"serial_no":"RPSNMLNJKHLGFCK48DA","county_code":"k","district":"苑裡鎮","address":"苗栗縣苑裡鎮海岸里８鄰海岸６１之４號","road":null,"building_type":"透天厝","total_floors":3.0,"transfer_floor_num":null,"age_years":44.6,"rooms":2.0,"halls":2.0,"baths":3.0,"building_area_sqm":104.91,"total_price":5300000,"unit_price_per_ping":167004.952415,"deal_date":"2026-01-02","is_special_deal":true,"note":"親友、員工、共有人或其他特殊關係間之交易；","lat":24.4460124,"lng":120.6378864,"geocode_src":"osm:exact"},{"serial_no":"RPQNMLQLKHLGFBK68DA","county_code":"k","district":"苗栗市","address":"苗栗縣苗栗市水源里８鄰育民街５７巷８號","road":null,"building_type":"透天厝","total_floors":2.0,"transfer_floor_num":null,"age_years":33.7,"rooms":9.0,"halls":2.0,"baths":3.0,"building_area_sqm":163.58,"total_price":8380000,"unit_price_per_ping":169352.059765,"deal_date":"2026-01-02","is_special_deal":false,"note":"其他增建；","lat":24.5396601,"lng":120.8155415,"geocode_src":"osm:exact"},{"serial_no":"RPSQMLKKKHLGFDK68DA","county_code":"k","district":"造橋鄉","address":"苗栗縣造橋鄉談文村５鄰學府路４９號四樓之二","road":null,"building_type":"公寓(5樓含以下無電梯)","total_floors":4.0,"transfer_floor_num":4.0,"age_years":23.7,"rooms":1.0,"halls":0.0,"baths":1.0,"building_area_sqm":31.270000000000003,"total_price":1280000,"unit_price_per_ping":135319.00319000002,"deal_date":"2026-01-02","is_special_deal":false,"note":"陽台外推；","lat":24.6476771,"lng":120.8442612,"geocode_src":"osm:exact"},{"serial_no":"RPRNMLNJLHLGFDK58DA","county_code":"k","district":"竹南鎮","address":"苗栗縣竹南鎮山佳里１３鄰正義街１１５巷３號","road":null,"building_type":"透天厝","total_floors":3.0,"transfer_floor_num":null,"age_years":17.0,"rooms":4.0,"halls":2.0,"baths":3.0,"building_area_sqm":172.91,"total_price":16500000,"unit_price_per_ping":315454.53362500004,"deal_date":"2026-01-02","is_special_deal":false,"note":null,"lat":24.7012957,"lng":120.8803234,"geocode_src":"osm:exact"},{"serial_no":"RPWNMLQJJHLGFFK76DA","county_code":"k","district":"頭份市","address":"苗栗縣頭份市東庄里６鄰昌隆一街３５６號十四樓","road":null,"building_type":"住宅大樓(11層含以上有電梯)","total_floors":14.0,"transfer_floor_num":14.0,"age_years":8.1,"rooms":3.0,"halls":2.0,"baths":2.0,"building_area_sqm":160.76,"total_price":13200000,"unit_price_per_ping":317940.48394500004,"deal_date":"2026-01-02","is_special_deal":false,"note":null,"lat":24.6873173,"lng":120.8957212,"geocode_src":"osm:exact"},{"serial_no":"RPPNMLQLJHLGFDK68DA","county_code":"k","district":"竹南鎮","address":"苗栗縣竹南鎮和平街９０號","road":"竹南鎮和平街","building_type":"透天厝","total_floors":4.0,"transfer_floor_num":null,"age_years":50.8,"rooms":5.0,"halls":2.0,"baths":6.0,"building_area_sqm":99.58,"total_price":7000000,"unit_price_per_ping":232380.156575,"deal_date":"2026-01-02","is_special_deal":true,"note":"親友、員工、共有人或其他特殊關係間之交易；","lat":24.6862918,"lng":120.8777537,"geocode_src":"osm:exact"},{"serial_no":"RPOPMLTJKHLGFFK56DA","county_code":"k","district":"頭份市","address":"苗栗縣頭份市中興里５鄰中興路４３６巷２８號五樓","road":null,"building_type":"華廈(10層含以下有電梯)","total_floors":10.0,"transfer_floor_num":5.0,"age_years":10.2,"rooms":3.0,"halls":2.0,"baths":2.0,"building_area_sqm":167.25,"total_price":13600000,"unit_price_per_ping":268809.907275,"deal_date":"2026-01-02","is_special_deal":false,"note":null,"lat":24.6921334,"lng":120.9053805,"geocode_src":"osm:exact"},{"serial_no":"RPXNMLNLJHLGFBK98DA","county_code":"k","district":"苗栗市","address":"苗栗縣苗栗市中正路５８６號三樓","road":"苗栗市中正路","building_type":"公寓(5樓含以下無電梯)","total_floors":3.0,"transfer_floor_num":3.0,"age_years":46.6,"rooms":3.0,"halls":2.0,"baths":1.0,"building_area_sqm":88.4,"total_price":4200000,"unit_price_per_ping":157061.15113500002,"deal_date":"2026-01-02","is_special_deal":false,"note":null,"lat":24.5572461,"lng":120.8202888,"geocode_src":"osm:exact"},{"serial_no":"RPQNMLQLJHLGFFK98DA","county_code":"k","district":"頭份市","address":"苗栗縣頭份市下興里１３鄰新興街５３巷５弄６號","road":null,"building_type":"透天厝","total_floors":4.0,"transfer_floor_num":null,"age_years":30.1,"rooms":5.0,"halls":3.0,"baths":3.0,"building_area_sqm":158.89,"total_price":6500000,"unit_price_per_ping":135236.358565,"deal_date":"2026-01-01","is_special_deal":false,"note":"其他增建；","lat":24.6702263,"lng":120.9158667,"geocode_src":"osm:exact"},{"serial_no":"RPVNMLKMJHLGFFK98DA","county_code":"k","district":"頭份市","address":"苗栗縣頭份市上埔里２０鄰興隆路５３９號二樓之一","road":null,"building_type":"華廈(10層含以下有電梯)","total_floors":5.0,"transfer_floor_num":2.0,"age_years":1.0,"rooms":3.0,"halls":2.0,"baths":2.0,"building_area_sqm":107.08,"total_price":10980000,"unit_price_per_ping":338975.1939,"deal_date":"2026-01-01","is_special_deal":false,"note":null,"lat":24.6908655,"lng":120.9194875,"geocode_src":"osm:road"},{"serial_no":"RPOPMLSLJHLGFBK78DA","county_code":"k","district":"公館鄉","address":"苗栗縣公館鄉館中村１４鄰大同路１９５號","road":null,"building_type":"透天厝","total_floors":2.0,"transfer_floor_num":null,"age_years":57.3,"rooms":5.0,"halls":2.0,"baths":2.0,"building_area_sqm":179.93,"total_price":15500000,"unit_price_per_ping":284776.848825,"deal_date":"2025-12-31","is_special_deal":false,"note":null,"lat":24.5039909,"lng":120.8271318,"geocode_src":"osm:exact"},{"serial_no":"RPQNMLPKJHLGFCK48DA","county_code":"k","district":"苑裡鎮","address":"苗栗縣苑裡鎮社苓里８鄰９１之６號","road":null,"building_type":"透天厝","total_floors":3.0,"transfer_floor_num":null,"age_years":null,"rooms":4.0,"halls":2.0,"baths":2.0,"building_area_sqm":29.17,"total_price":912604,"unit_price_per_ping":103424.78951,"deal_date":"2025-12-31","is_special_deal":true,"note":"親友、員工、共有人或其他特殊關係間之交易；"},{"serial_no":"RPXNMLQJJHLGFDK66DA","county_code":"k","district":"竹南鎮","address":"苗栗縣竹南鎮海口里５鄰光德路３１７巷５號","road":null,"building_type":"透天厝","total_floors":3.0,"transfer_floor_num":null,"age_years":27.3,"rooms":4.0,"halls":2.0,"baths":2.0,"building_area_sqm":133.76,"total_price":8980000,"unit_price_per_ping":221933.875975,"deal_date":"2025-12-31","is_special_deal":false,"note":"陽台外推；","lat":24.6763888,"lng":120.8647571,"geocode_src":"osm:exact"},{"serial_no":"RPPNMLPKJHLGFDK48DA","county_code":"k","district":"竹南鎮","address":"苗栗縣竹南鎮新南里１３鄰崁頂街４６巷３１號","road":null,"building_type":"透天厝","total_floors":2.0,"transfer_floor_num":null,"age_years":51.7,"rooms":4.0,"halls":3.0,"baths":3.0,"building_area_sqm":89.24,"total_price":6500000,"unit_price_per_ping":240783.46204500002,"deal_date":"2025-12-31","is_special_deal":true,"note":"親友、員工、共有人或其他特殊關係間之交易；","lat":24.6914337,"lng":120.8839413,"geocode_src":"osm:exact"},{"serial_no":"RPROMLRJJHLGFFK09DA","county_code":"k","district":"頭份市","address":"苗栗縣頭份市山下里１７鄰山下街１５５巷１０號","road":null,"building_type":"透天厝","total_floors":3.0,"transfer_floor_num":null,"age_years":31.5,"rooms":5.0,"halls":2.0,"baths":3.0,"building_area_sqm":186.01,"total_price":12000000,"unit_price_per_ping":213266.107705,"deal_date":"2025-12-30","is_special_deal":false,"note":"頂樓加蓋；其他增建；","lat":24.6984957,"lng":120.9086234,"geocode_src":"osm:exact"},{"serial_no":"RPPNMLTJKHLGFBK68DA","county_code":"k","district":"苗栗市","address":"苗栗縣苗栗市北苗里３９鄰蕉嶺街１２８號","road":null,"building_type":"透天厝","total_floors":4.0,"transfer_floor_num":null,"age_years":20.3,"rooms":6.0,"halls":2.0,"baths":3.0,"building_area_sqm":202.91,"total_price":16800000,"unit_price_per_ping":273702.46907500003,"deal_date":"2025-12-30","is_special_deal":false,"note":null,"lat":24.5686489,"lng":120.8186035,"geocode_src":"osm:exact"},{"serial_no":"RPVPMLRLJHLGFDK96DA","county_code":"k","district":"竹南鎮","address":"苗栗縣竹南鎮龍山里８鄰龍山路二段３０９號六樓","road":null,"building_type":"華廈(10層含以下有電梯)","total_floors":7.0,"transfer_floor_num":6.0,"age_years":30.3,"rooms":3.0,"halls":2.0,"baths":2.0,"building_area_sqm":131.15,"total_price":5920000,"unit_price_per_ping":149219.829115,"deal_date":"2025-12-30","is_special_deal":false,"note":"前後陽台加裝採光罩","lat":24.7007266,"lng":120.87461699999999,"geocode_src":"osm:exact"},{"serial_no":"RPPNMLLKJHLGFFK28DA","county_code":"k","district":"頭份市","address":"苗栗縣頭份市興隆里５鄰花園東路１００巷１０７號六樓","road":null,"building_type":"華廈(10層含以下有電梯)","total_floors":7.0,"transfer_floor_num":6.0,"age_years":5.4,"rooms":2.0,"halls":2.0,"baths":1.0,"building_area_sqm":129.5,"total_price":8380000,"unit_price_per_ping":213917.34735000003,"deal_date":"2025-12-29","is_special_deal":false,"note":null,"lat":24.6905032,"lng":120.9437233,"geocode_src":"osm:lane"},{"serial_no":"RPQNMLNJKHLGFBK18DA","county_code":"k","district":"公館鄉","address":"苗栗縣公館鄉館南村５鄰弘南街７２號五樓之二","road":null,"building_type":"華廈(10層含以下有電梯)","total_floors":7.0,"transfer_floor_num":5.0,"age_years":0.2,"rooms":3.0,"halls":2.0,"baths":2.0,"building_area_sqm":151.23000000000002,"total_price":8400000,"unit_price_per_ping":183619.82782500001,"deal_date":"2025-12-29","is_special_deal":false,"note":"土地:新台幣294萬元，房屋:新台幣546萬元","lat":24.5016181,"lng":120.8236066,"geocode_src":"osm:road"},{"serial_no":"RPPNMLLKJHLGFDK08DA","county_code":"k","district":"竹南鎮","address":"苗栗縣竹南鎮大埔里２鄰大埔六街２６２號","road":null,"building_type":"透天厝","total_floors":4.0,"transfer_floor_num":null,"age_years":1.1,"rooms":4.0,"halls":3.0,"baths":6.0,"building_area_sqm":256.45,"total_price":32500000,"unit_price_per_ping":418942.13305,"deal_date":"2025-12-29","is_special_deal":false,"note":null,"lat":24.7064601,"lng":120.8999537,"geocode_src":"osm:road"},{"serial_no":"RPUNMLQJKHLGFCK98DA","county_code":"k","district":"苑裡鎮","address":"苗栗縣苑裡鎮泰田里２鄰泰田２２之６號二樓之２","road":null,"building_type":"華廈(10層含以下有電梯)","total_floors":5.0,"transfer_floor_num":2.0,"age_years":0.9,"rooms":3.0,"halls":2.0,"baths":2.0,"building_area_sqm":177.7,"total_price":10000000,"unit_price_per_ping":206641.314565,"deal_date":"2025-12-29","is_special_deal":false,"note":null},{"serial_no":"RPQNMLRLJHLGFBK68DA","county_code":"k","district":"苗栗市","address":"苗栗縣苗栗市文聖里１７鄰文發路５７９巷１弄３號","road":null,"building_type":"透天厝","total_floors":4.0,"transfer_floor_num":null,"age_years":29.1,"rooms":4.0,"halls":2.0,"baths":3.0,"building_area_sqm":153.58,"total_price":8000000,"unit_price_per_ping":172198.34065,"deal_date":"2025-12-28","is_special_deal":false,"note":"其他增建；","lat":24.5810309,"lng":120.8143563,"geocode_src":"osm:exact"},{"serial_no":"RPQNMLTJJHLGFBK68DA","county_code":"k","district":"苗栗市","address":"苗栗縣苗栗市維祥里１２鄰光華街合園二巷１２號","road":null,"building_type":"透天厝","total_floors":2.0,"transfer_floor_num":null,"age_years":null,"rooms":3.0,"halls":2.0,"baths":2.0,"building_area_sqm":98.18,"total_price":3400000,"unit_price_per_ping":114479.33455,"deal_date":"2025-12-28","is_special_deal":false,"note":"其他增建部分:三樓增建其他增建；","lat":24.5585744,"lng":120.8259398,"geocode_src":"osm:exact"},{"serial_no":"RPPNMLSLKIKGFDK98DA","county_code":"k","district":"竹南鎮","address":"苗栗縣竹南鎮山佳里５鄰龍山路三段１５０號八樓之五","road":null,"building_type":"住宅大樓(11層含以上有電梯)","total_floors":15.0,"transfer_floor_num":8.0,"age_years":9.1,"rooms":3.0,"halls":2.0,"baths":2.0,"building_area_sqm":173.65,"total_price":13400000,"unit_price_per_ping":255097.51109500002,"deal_date":"2025-12-28","is_special_deal":false,"note":null,"lat":24.7021013,"lng":120.8803355,"geocode_src":"osm:exact"},{"serial_no":"RPRNMLNJKHLGFFK68DA","county_code":"k","district":"頭份市","address":"苗栗縣頭份市東庄里１９鄰和平路３１２號九樓","road":null,"building_type":"住宅大樓(11層含以上有電梯)","total_floors":14.0,"transfer_floor_num":9.0,"age_years":7.7,"rooms":3.0,"halls":2.0,"baths":2.0,"building_area_sqm":197.35,"total_price":18800000,"unit_price_per_ping":314915.69067000004,"deal_date":"2025-12-28","is_special_deal":false,"note":null,"lat":24.6873672,"lng":120.90025090000002,"geocode_src":"osm:exact"},{"serial_no":"RPTNMLSLJHLGFAK98DA","county_code":"k","district":"大湖鄉","address":"苗栗縣大湖鄉南昌路４３號","road":"大湖鄉南昌路","building_type":"透天厝","total_floors":3.0,"transfer_floor_num":null,"age_years":null,"rooms":4.0,"halls":2.0,"baths":3.0,"building_area_sqm":188.55,"total_price":3600000,"unit_price_per_ping":63117.353005000004,"deal_date":"2025-12-27","is_special_deal":false,"note":null},{"serial_no":"RPQNMLOLKHLGFFK88DA","county_code":"k","district":"頭份市","address":"苗栗縣頭份市東庄里６鄰昌隆一街６９號九樓","road":null,"building_type":"住宅大樓(11層含以上有電梯)","total_floors":12.0,"transfer_floor_num":9.0,"age_years":5.4,"rooms":3.0,"halls":2.0,"baths":2.0,"building_area_sqm":148.68,"total_price":13200000,"unit_price_per_ping":293490.898085,"deal_date":"2025-12-27","is_special_deal":false,"note":null,"lat":24.6864558,"lng":120.8971978,"geocode_src":"osm:exact"},{"serial_no":"RPSNMLKMJHLGFDK48DA","county_code":"k","district":"竹南鎮","address":"苗栗縣竹南鎮龍山里９鄰龍泉街６號三樓","road":null,"building_type":"華廈(10層含以下有電梯)","total_floors":7.0,"transfer_floor_num":3.0,"age_years":30.3,"rooms":3.0,"halls":1.0,"baths":2.0,"building_area_sqm":130.4,"total_price":7100000,"unit_price_per_ping":179993.38168000002,"deal_date":"2025-12-27","is_special_deal":false,"note":null,"lat":24.7006993,"lng":120.8740536,"geocode_src":"osm:exact"},{"serial_no":"RPPNMLRLKIKGFFK09DA","county_code":"k","district":"頭份市","address":"苗栗縣頭份市興隆里１３鄰華興街２巷１７號","road":null,"building_type":"透天厝","total_floors":2.0,"transfer_floor_num":null,"age_years":44.1,"rooms":5.0,"halls":2.0,"baths":2.0,"building_area_sqm":93.6,"total_price":4500000,"unit_price_per_ping":158932.22544500002,"deal_date":"2025-12-26","is_special_deal":false,"note":"頂樓加蓋；","lat":24.7102459,"lng":120.9363427,"geocode_src":"osm:exact"},{"serial_no":"RPTNMLTJKHLGFBK09DA","county_code":"k","district":"苗栗市","address":"苗栗縣苗栗市福麗里３１鄰文發路６６號","road":null,"building_type":"透天厝","total_floors":2.0,"transfer_floor_num":null,"age_years":5.0,"rooms":2.0,"halls":1.0,"baths":2.0,"building_area_sqm":125.4,"total_price":9340000,"unit_price_per_ping":246221.47837000003,"deal_date":"2025-12-26","is_special_deal":true,"note":"親友、員工、共有人或其他特殊關係間之交易；","lat":24.5667482,"lng":120.8118683,"geocode_src":"osm:exact"},{"serial_no":"RPQNMLMLJHLGFCK28DA","county_code":"k","district":"苑裡鎮","address":"苗栗縣苑裡鎮山里２０鄰錦山７１之７號","road":null,"building_type":"透天厝","total_floors":3.0,"transfer_floor_num":null,"age_years":42.8,"rooms":9.0,"halls":3.0,"baths":2.0,"building_area_sqm":140.25,"total_price":4100000,"unit_price_per_ping":96641.31869,"deal_date":"2025-12-26","is_special_deal":false,"note":"頂樓加蓋；","lat":24.420481,"lng":120.6904784,"geocode_src":"osm:exact"},{"serial_no":"RPQNMLOKJHLGFCK38DA","county_code":"k","district":"苑裡鎮","address":"田心段1005-17地號","road":null,"building_type":"其他","total_floors":4.0,"transfer_floor_num":null,"age_years":12.4,"rooms":4.0,"halls":2.0,"baths":3.0,"building_area_sqm":170.72,"total_price":8500000,"unit_price_per_ping":252872.71779000002,"deal_date":"2025-12-26","is_special_deal":false,"note":null},{"serial_no":"RPQNMLNJJHLGFFK48DA","county_code":"k","district":"頭份市","address":"苗栗縣頭份市興隆里５鄰花園東路１００巷９２號三樓","road":null,"building_type":"華廈(10層含以下有電梯)","total_floors":7.0,"transfer_floor_num":3.0,"age_years":1.1,"rooms":3.0,"halls":2.0,"baths":2.0,"building_area_sqm":163.81,"total_price":11400000,"unit_price_per_ping":239143.79268500002,"deal_date":"2025-12-26","is_special_deal":false,"note":null,"lat":24.6905032,"lng":120.9437233,"geocode_src":"osm:lane"},{"serial_no":"RPRNMLKLJHLGFCK18DA","county_code":"k","district":"苑裡鎮","address":"苗栗縣苑裡鎮客庄里４鄰中正路１５２號","road":null,"building_type":"透天厝","total_floors":4.0,"transfer_floor_num":null,"age_years":12.3,"rooms":4.0,"halls":3.0,"baths":4.0,"building_area_sqm":212.93,"total_price":15080000,"unit_price_per_ping":234118.999485,"deal_date":"2025-12-25","is_special_deal":false,"note":null,"lat":24.4368979,"lng":120.6589341,"geocode_src":"osm:exact"},{"serial_no":"RPSTMLSLJHLGFDK17DA","county_code":"k","district":"竹南鎮","address":"苗栗縣竹南鎮大厝里２３鄰國昌街２１５巷３２號","road":null,"building_type":"透天厝","total_floors":3.0,"transfer_floor_num":null,"age_years":17.6,"rooms":4.0,"halls":2.0,"baths":4.0,"building_area_sqm":181.79,"total_price":16890000,"unit_price_per_ping":307137.178565,"deal_date":"2025-12-25","is_special_deal":false,"note":"頂樓加蓋；其他增建；","lat":24.6753617,"lng":120.869327,"geocode_src":"osm:exact"},{"serial_no":"RPPNMLTLJHLGFEK09DA","county_code":"k","district":"三義鄉","address":"苗栗縣三義鄉勝興村１８鄰二十份３４７之４號","road":null,"building_type":"透天厝","total_floors":1.0,"transfer_floor_num":null,"age_years":41.8,"rooms":0.0,"halls":0.0,"baths":0.0,"building_area_sqm":118.09,"total_price":10000000,"unit_price_per_ping":279937.17958500003,"deal_date":"2025-12-25","is_special_deal":false,"note":"二樓整層其他增建；","lat":24.3988427,"lng":120.7630501,"geocode_src":"osm:exact"},{"serial_no":"RPTNMLPKJHLGFDK88DA","county_code":"k","district":"竹南鎮","address":"苗栗縣竹南鎮大埔里２鄰大埔六街１９號","road":null,"building_type":"透天厝","total_floors":4.0,"transfer_floor_num":null,"age_years":0.3,"rooms":3.0,"halls":3.0,"baths":4.0,"building_area_sqm":241.96,"total_price":27580000,"unit_price_per_ping":376813.20901000005,"deal_date":"2025-12-25","is_special_deal":false,"note":null,"lat":24.7064601,"lng":120.8999537,"geocode_src":"osm:road"},{"serial_no":"RPUNMLKLJHLGFDK58DA","county_code":"k","district":"竹南鎮","address":"苗栗縣竹南鎮大埔里２鄰科專六路３１８號","road":null,"building_type":"透天厝","total_floors":4.0,"transfer_floor_num":null,"age_years":10.8,"rooms":13.0,"halls":1.0,"baths":14.0,"building_area_sqm":316.53,"total_price":27000000,"unit_price_per_ping":281983.46050000004,"deal_date":"2025-12-25","is_special_deal":false,"note":"頂樓加蓋；","lat":24.7074461,"lng":120.8984205,"geocode_src":"osm:exact"},{"serial_no":"RPRNMLNJKHLGFCK38DA","county_code":"k","district":"苑裡鎮","address":"苗栗縣苑裡鎮客庄里９鄰客庄１２５之４３號","road":null,"building_type":"透天厝","total_floors":3.0,"transfer_floor_num":null,"age_years":0.7,"rooms":5.0,"halls":3.0,"baths":6.0,"building_area_sqm":368.7,"total_price":21400000,"unit_price_per_ping":191874.37297000003,"deal_date":"2025-12-25","is_special_deal":false,"note":"土地價款：4813000元整。房屋價款：16587000元整。"},{"serial_no":"RPQNMLOLKIKGFBK48DA","county_code":"k","district":"苗栗市","address":"苗栗縣苗栗市清華里４鄰福星街７４巷１７號","road":null,"building_type":"透天厝","total_floors":2.0,"transfer_floor_num":null,"age_years":null,"rooms":4.0,"halls":3.0,"baths":2.0,"building_area_sqm":179.31,"total_price":6880000,"unit_price_per_ping":126839.664665,"deal_date":"2025-12-25","is_special_deal":false,"note":null,"lat":24.5717478,"lng":120.8264998,"geocode_src":"osm:exact"},{"serial_no":"RPPNMLKMKIKGFFK48DA","county_code":"k","district":"頭份市","address":"苗栗縣頭份市東庄里６鄰昌隆一街７１號十一樓","road":null,"building_type":"住宅大樓(11層含以上有電梯)","total_floors":12.0,"transfer_floor_num":11.0,"age_years":5.4,"rooms":2.0,"halls":1.0,"baths":1.0,"building_area_sqm":117.53,"total_price":9800000,"unit_price_per_ping":275646.270655,"deal_date":"2025-12-24","is_special_deal":false,"note":null,"lat":24.686439899999996,"lng":120.89709310000002,"geocode_src":"osm:exact"},{"serial_no":"RPVNMLQLKHLGFFK96DA","county_code":"k","district":"頭份市","address":"苗栗縣頭份市蟠桃里１６鄰中央路５０３號十一樓","road":null,"building_type":"住宅大樓(11層含以上有電梯)","total_floors":14.0,"transfer_floor_num":11.0,"age_years":8.7,"rooms":2.0,"halls":2.0,"baths":1.0,"building_area_sqm":142.44,"total_price":12000000,"unit_price_per_ping":278499.16311,"deal_date":"2025-12-24","is_special_deal":false,"note":null,"lat":24.6938654,"lng":120.8959646,"geocode_src":"osm:exact"},{"serial_no":"RPOOMLNLKIKGFFK68DA","county_code":"k","district":"頭份市","address":"苗栗縣頭份市東民路４６號","road":"頭份市東民路","building_type":"透天厝","total_floors":2.0,"transfer_floor_num":null,"age_years":50.9,"rooms":3.0,"halls":1.0,"baths":2.0,"building_area_sqm":192.0,"total_price":181400,"unit_price_per_ping":3123.966825,"deal_date":"2025-12-23","is_special_deal":true,"note":"建物坐落地號：東民段403地號；親友、員工、共有人或其他特殊關係間之交易；頂樓加蓋；","lat":24.6828811,"lng":120.9029766,"geocode_src":"osm:exact"},{"serial_no":"RPUNMLNLJHLGFBK68DA","county_code":"k","district":"公館鄉","address":"苗栗縣公館鄉玉泉村１０鄰文公街５３號","road":null,"building_type":"透天厝","total_floors":2.0,"transfer_floor_num":null,"age_years":45.3,"rooms":4.0,"halls":3.0,"baths":2.0,"building_area_sqm":130.34,"total_price":4500000,"unit_price_per_ping":114132.227125,"deal_date":"2025-12-23","is_special_deal":false,"note":"頂樓加蓋；","lat":24.5072669,"lng":120.8296027,"geocode_src":"osm:exact"},{"serial_no":"RPTNMLQLKHLGFFK76DA","county_code":"k","district":"頭份市","address":"苗栗縣頭份市華夏路８１號","road":"頭份市華夏路","building_type":"透天厝","total_floors":2.0,"transfer_floor_num":null,"age_years":47.0,"rooms":4.0,"halls":2.0,"baths":3.0,"building_area_sqm":127.84,"total_price":5000000,"unit_price_per_ping":129292.55713500001,"deal_date":"2025-12-23","is_special_deal":true,"note":"親友、員工、共有人或其他特殊關係間之交易；","lat":24.6830743,"lng":120.8837971,"geocode_src":"osm:exact"},{"serial_no":"RPVNMLNLKIKGFBK88DA","county_code":"k","district":"苗栗市","address":"苗栗縣苗栗市縣府路１４１號","road":"苗栗市縣府路","building_type":"公寓(5樓含以下無電梯)","total_floors":5.0,"transfer_floor_num":null,"age_years":41.1,"rooms":3.0,"halls":2.0,"baths":2.0,"building_area_sqm":242.49,"total_price":11000000,"unit_price_per_ping":149960.32495500002,"deal_date":"2025-12-22","is_special_deal":true,"note":"親友、員工、共有人或其他特殊關係間之交易；","lat":24.5652059,"lng":120.8182868,"geocode_src":"osm:exact"},{"serial_no":"RPSNMLNLKIKGFDK78DA","county_code":"k","district":"造橋鄉","address":"苗栗縣造橋鄉談文村５鄰育英三街５號一樓之五","road":null,"building_type":"公寓(5樓含以下無電梯)","total_floors":4.0,"transfer_floor_num":1.0,"age_years":22.4,"rooms":1.0,"halls":1.0,"baths":1.0,"building_area_sqm":20.2,"total_price":1000000,"unit_price_per_ping":163652.886425,"deal_date":"2025-12-22","is_special_deal":false,"note":"陽台外推；","lat":24.6473397,"lng":120.8439638,"geocode_src":"osm:exact"},{"serial_no":"RPRNMLKKKHLGFBK08DA","county_code":"k","district":"頭屋鄉","address":"苗栗縣頭屋鄉獅潭村１鄰中興街５２號","road":null,"building_type":"透天厝","total_floors":2.0,"transfer_floor_num":null,"age_years":44.3,"rooms":4.0,"halls":2.0,"baths":2.0,"building_area_sqm":157.6,"total_price":657900,"unit_price_per_ping":13798.346590000001,"deal_date":"2025-12-22","is_special_deal":true,"note":"依遺贈稅法免除價金親友、員工、共有人或其他特殊關係間之交易；頂樓加蓋；其他增建；","lat":24.5800079,"lng":120.8514023,"geocode_src":"osm:exact"},{"serial_no":"RPPNMLPLKIKGFFK88DA","county_code":"k","district":"頭份市","address":"苗栗縣頭份市山下里１２鄰翠亨路１７５號二樓","road":null,"building_type":"華廈(10層含以下有電梯)","total_floors":5.0,"transfer_floor_num":2.0,"age_years":18.1,"rooms":3.0,"halls":2.0,"baths":2.0,"building_area_sqm":120.85000000000001,"total_price":7500000,"unit_price_per_ping":205157.01710000003,"deal_date":"2025-12-22","is_special_deal":false,"note":null,"lat":24.7002058,"lng":120.9015186,"geocode_src":"osm:exact"},{"serial_no":"RPRNMLMJKHLGFBK18DA","county_code":"k","district":"苗栗市","address":"苗栗縣苗栗市新英里５鄰吉祥２８之１１號","road":null,"building_type":"透天厝","total_floors":3.0,"transfer_floor_num":null,"age_years":0.6,"rooms":4.0,"halls":2.0,"baths":3.0,"building_area_sqm":169.5,"total_price":14280000,"unit_price_per_ping":278505.77468000003,"deal_date":"2025-12-22","is_special_deal":false,"note":null},{"serial_no":"RPSOMLSLJHLGFBK09DA","county_code":"k","district":"苗栗市","address":"苗栗縣苗栗市嘉盛里１４鄰嘉盛街５６巷１０８弄６號","road":null,"building_type":"透天厝","total_floors":3.0,"transfer_floor_num":null,"age_years":28.3,"rooms":4.0,"halls":3.0,"baths":4.0,"building_area_sqm":261.91,"total_price":10800000,"unit_price_per_ping":136317.35026,"deal_date":"2025-12-22","is_special_deal":false,"note":"陽台外推；","lat":24.5744628,"lng":120.8344502,"geocode_src":"osm:exact"},{"serial_no":"RPPNMLMKJHLGFEK28DA","county_code":"k","district":"銅鑼鄉","address":"苗栗縣銅鑼鄉朝陽村平陽路４號","road":"銅鑼鄉朝陽村平陽路","building_type":"透天厝","total_floors":2.0,"transfer_floor_num":null,"age_years":71.1,"rooms":3.0,"halls":2.0,"baths":2.0,"building_area_sqm":161.74,"total_price":5400000,"unit_price_per_ping":110370.243795,"deal_date":"2025-12-22","is_special_deal":false,"note":"未登記建物；","lat":24.4909423,"lng":120.7884214,"geocode_src":"osm:exact"},{"serial_no":"RPTNMLLMKIKGFDK78DA","county_code":"k","district":"竹南鎮","address":"苗栗縣竹南鎮山佳里２７鄰龍山路三段３７號六樓","road":null,"building_type":"華廈(10層含以下有電梯)","total_floors":7.0,"transfer_floor_num":6.0,"age_years":32.4,"rooms":4.0,"halls":2.0,"baths":2.0,"building_area_sqm":135.38,"total_price":6000000,"unit_price_per_ping":146512.3912,"deal_date":"2025-12-22","is_special_deal":false,"note":null,"lat":24.701620599999995,"lng":120.8775524,"geocode_src":"osm:exact"},{"serial_no":"RPRNMLQKJHLGFDK78DA","county_code":"k","district":"竹南鎮","address":"苗栗縣竹南鎮公義里１１鄰公義路１６６３巷３１號","road":null,"building_type":"透天厝","total_floors":2.0,"transfer_floor_num":null,"age_years":44.0,"rooms":4.0,"halls":2.0,"baths":2.0,"building_area_sqm":92.42,"total_price":3040000,"unit_price_per_ping":108737.18600500001,"deal_date":"2025-12-22","is_special_deal":true,"note":"親友、員工、共有人或其他特殊關係間之交易；","lat":24.7238035,"lng":120.9034659,"geocode_src":"osm:exact"},{"serial_no":"RPPNMLPLJHLGFBK38DA","county_code":"k","district":"苗栗市","address":"苗栗縣苗栗市福麗里２８鄰名門街８０之２號二樓之二","road":null,"building_type":"華廈(10層含以下有電梯)","total_floors":7.0,"transfer_floor_num":2.0,"age_years":7.0,"rooms":3.0,"halls":2.0,"baths":2.0,"building_area_sqm":154.59,"total_price":10580000,"unit_price_per_ping":226244.619615,"deal_date":"2025-12-21","is_special_deal":false,"note":null,"lat":24.566301999999997,"lng":120.8147862,"geocode_src":"osm:exact"},{"serial_no":"RPOOMLKKKHLGFDK08DA","county_code":"k","district":"竹南鎮","address":"苗栗縣竹南鎮大埔里６鄰大埔六街３１０巷１號","road":null,"building_type":"透天厝","total_floors":4.0,"transfer_floor_num":null,"age_years":1.8,"rooms":3.0,"halls":2.0,"baths":5.0,"building_area_sqm":163.47,"total_price":17290000,"unit_price_per_ping":349649.57366500003,"deal_date":"2025-12-21","is_special_deal":false,"note":null,"lat":24.7064601,"lng":120.8999537,"geocode_src":"osm:road"},{"serial_no":"RPPNMLLMKIKGFFK58DA","county_code":"k","district":"南庄鄉","address":"苗栗縣南庄鄉東河村１鄰東興新１７５號","road":null,"building_type":"透天厝","total_floors":3.0,"transfer_floor_num":null,"age_years":20.2,"rooms":4.0,"halls":2.0,"baths":5.0,"building_area_sqm":201.75,"total_price":10000000,"unit_price_per_ping":163854.53931000002,"deal_date":"2025-12-21","is_special_deal":false,"note":null,"lat":24.6007447,"lng":121.0388715,"geocode_src":"osm:exact"},{"serial_no":"RPRNMLKKKHLGFCK18DA","county_code":"k","district":"通霄鎮","address":"苗栗縣通霄鎮通西里２９鄰中山路３４巷１３之４號","road":null,"building_type":"華廈(10層含以下有電梯)","total_floors":8.0,"transfer_floor_num":6.0,"age_years":31.5,"rooms":3.0,"halls":2.0,"baths":2.0,"building_area_sqm":123.84,"total_price":4500000,"unit_price_per_ping":120122.30954500001,"deal_date":"2025-12-21","is_special_deal":false,"note":null,"lat":24.4873546,"lng":120.678908,"geocode_src":"osm:exact"},{"serial_no":"RPRNMLNLKHLGFDK68DA","county_code":"k","district":"竹南鎮","address":"苗栗縣竹南鎮竹南里１３鄰延平路７６巷２弄５號","road":null,"building_type":"透天厝","total_floors":3.0,"transfer_floor_num":null,"age_years":14.0,"rooms":3.0,"halls":3.0,"baths":3.0,"building_area_sqm":284.74,"total_price":28100000,"unit_price_per_ping":326238.004295,"deal_date":"2025-12-21","is_special_deal":false,"note":"一樓後陽台採光罩。其他增建；","lat":24.6852479,"lng":120.8773164,"geocode_src":"osm:exact"},{"serial_no":"RPPNMLRLJHLGFFK09EA","county_code":"k","district":"頭份市","address":"苗栗縣頭份市山下里１０鄰信東路二段６８號","road":null,"building_type":"透天厝","total_floors":4.0,"transfer_floor_num":null,"age_years":17.7,"rooms":6.0,"halls":2.0,"baths":4.0,"building_area_sqm":193.39,"total_price":19600000,"unit_price_per_ping":335041.30975,"deal_date":"2025-12-21","is_special_deal":false,"note":null,"lat":24.6968641,"lng":120.9035376,"geocode_src":"osm:exact"},{"serial_no":"RPRNMLOKJHLGFCK48DA","county_code":"k","district":"苑裡鎮","address":"苗栗縣苑裡鎮山里７鄰１９５號","road":null,"building_type":"透天厝","total_floors":4.0,"transfer_floor_num":null,"age_years":50.5,"rooms":3.0,"halls":1.0,"baths":1.0,"building_area_sqm":212.15,"total_price":5400000,"unit_price_per_ping":84145.45139,"deal_date":"2025-12-20","is_special_deal":false,"note":null},{"serial_no":"RPPNMLLJLHLGFBK97DA","county_code":"k","district":"苗栗市","address":"苗栗縣苗栗市福麗里３７鄰和平路４６號","road":null,"building_type":"華廈(10層含以下有電梯)","total_floors":5.0,"transfer_floor_num":1.0,"age_years":5.6,"rooms":0.0,"halls":0.0,"baths":1.0,"building_area_sqm":79.83,"total_price":5680000,"unit_price_per_ping":235209.90853500002,"deal_date":"2025-12-20","is_special_deal":false,"note":"其他增建；","lat":24.5641294,"lng":120.81770939999998,"geocode_src":"osm:exact"},{"serial_no":"RPSNMLPJJHLGFFK88DA","county_code":"k","district":"頭份市","address":"苗栗縣頭份市頭份里４鄰顯會路７３巷５號","road":null,"building_type":"透天厝","total_floors":4.0,"transfer_floor_num":null,"age_years":29.4,"rooms":4.0,"halls":2.0,"baths":4.0,"building_area_sqm":167.16,"total_price":10000000,"unit_price_per_ping":197761.976055,"deal_date":"2025-12-20","is_special_deal":false,"note":"陽台外推；頂樓加蓋；其他增建；","lat":24.6906211,"lng":120.9148205,"geocode_src":"osm:exact"},{"serial_no":"RPQNMLPKJHLGFDK58DA","county_code":"k","district":"竹南鎮","address":"苗栗縣竹南鎮海口里２４鄰明勝路５００巷８弄２５號","road":null,"building_type":"透天厝","total_floors":3.0,"transfer_floor_num":null,"age_years":20.9,"rooms":3.0,"halls":3.0,"baths":4.0,"building_area_sqm":162.53,"total_price":11000000,"unit_price_per_ping":223735.5288,"deal_date":"2025-12-20","is_special_deal":false,"note":null,"lat":24.6745103,"lng":120.8600784,"geocode_src":"osm:exact"},{"serial_no":"RPVNMLNKJHLGFFK09DA","county_code":"k","district":"頭份市","address":"苗栗縣頭份市民族里１４鄰中華路９５３巷１１號十一樓","road":null,"building_type":"住宅大樓(11層含以上有電梯)","total_floors":13.0,"transfer_floor_num":11.0,"age_years":30.7,"rooms":3.0,"halls":2.0,"baths":2.0,"building_area_sqm":100.36000000000001,"total_price":5850000,"unit_price_per_ping":192694.20765000003,"deal_date":"2025-12-20","is_special_deal":false,"note":null,"lat":24.6848922,"lng":120.9051026,"geocode_src":"osm:exact"},{"serial_no":"RPRNMLLMKIKGFFK78DA","county_code":"k","district":"頭份市","address":"苗栗縣頭份市仁愛里４鄰銀河路３６－２號三樓","road":null,"building_type":"華廈(10層含以下有電梯)","total_floors":10.0,"transfer_floor_num":3.0,"age_years":27.0,"rooms":1.0,"halls":0.0,"baths":1.0,"building_area_sqm":30.709999999999997,"total_price":1300000,"unit_price_per_ping":139937.18483500002,"deal_date":"2025-12-19","is_special_deal":false,"note":null,"lat":24.6826956,"lng":120.9080367,"geocode_src":"osm:road"},{"serial_no":"RPUNMLKLJHLGFCK48DA","county_code":"k","district":"苑裡鎮","address":"苗栗縣苑裡鎮客庄里７鄰世界路一段立信巷４號","road":null,"building_type":"透天厝","total_floors":3.0,"transfer_floor_num":null,"age_years":44.6,"rooms":3.0,"halls":1.0,"baths":5.0,"building_area_sqm":132.6,"total_price":8500000,"unit_price_per_ping":211910.735855,"deal_date":"2025-12-19","is_special_deal":false,"note":null,"lat":24.43721,"lng":120.6585806,"geocode_src":"osm:exact"},{"serial_no":"RPQNMLPJJHLGFFK68DA","county_code":"k","district":"頭份市","address":"苗栗縣頭份市合興里２鄰復興街３９之１號","road":null,"building_type":"透天厝","total_floors":3.0,"transfer_floor_num":null,"age_years":34.7,"rooms":7.0,"halls":2.0,"baths":6.0,"building_area_sqm":288.6,"total_price":24000000,"unit_price_per_ping":274909.08060000004,"deal_date":"2025-12-19","is_special_deal":false,"note":"其他增建；包含公共設施保留地用地；","lat":24.6954867,"lng":120.8945672,"geocode_src":"osm:exact"},{"serial_no":"RPPNMLQJJHLGFCK38DA","county_code":"k","district":"苑裡鎮","address":"苗栗縣苑裡鎮客庄里２２鄰客庄７５之２３號六樓之十一","road":null,"building_type":"華廈(10層含以下有電梯)","total_floors":8.0,"transfer_floor_num":6.0,"age_years":32.1,"rooms":3.0,"halls":2.0,"baths":2.0,"building_area_sqm":110.41999999999999,"total_price":3950000,"unit_price_per_ping":118257.84680500001,"deal_date":"2025-12-19","is_special_deal":false,"note":null,"lat":24.435810380232557,"lng":120.65723326744185,"geocode_src":"osm:exact"},{"serial_no":"RPQNMLRLJHLGFFK09DA","county_code":"k","district":"頭份市","address":"苗栗縣頭份市後庄里２３鄰公北三路１９２號十四樓","road":null,"building_type":"住宅大樓(11層含以上有電梯)","total_floors":15.0,"transfer_floor_num":14.0,"age_years":2.6,"rooms":2.0,"halls":2.0,"baths":1.0,"building_area_sqm":121.27000000000001,"total_price":12580000,"unit_price_per_ping":342925.606975,"deal_date":"2025-12-17","is_special_deal":false,"note":null,"lat":24.6932817,"lng":120.8871193,"geocode_src":"osm:exact"},{"serial_no":"RPRNMLQJJHLGFAK38DA","county_code":"k","district":"大湖鄉","address":"苗栗縣大湖鄉８鄰舊糖廠１２之１２號","road":null,"building_type":"透天厝","total_floors":2.0,"transfer_floor_num":null,"age_years":43.8,"rooms":6.0,"halls":2.0,"baths":3.0,"building_area_sqm":154.72,"total_price":5000000,"unit_price_per_ping":106829.74806000001,"deal_date":"2025-12-17","is_special_deal":false,"note":"未登記建物；"},{"serial_no":"RPPNMLTJJHLGFDK78DA","county_code":"k","district":"竹南鎮","address":"苗栗縣竹南鎮中華里１５鄰萬大街４０號","road":null,"building_type":"華廈(10層含以下有電梯)","total_floors":7.0,"transfer_floor_num":1.0,"age_years":31.8,"rooms":3.0,"halls":2.0,"baths":1.0,"building_area_sqm":119.07,"total_price":6500000,"unit_price_per_ping":180462.80315000002,"deal_date":"2025-12-17","is_special_deal":false,"note":"一樓空地、廚房、花圃法定空地增建其他增建；","lat":24.685483,"lng":120.8684964,"geocode_src":"osm:exact"},{"serial_no":"RPQNMLMJJHLGFFK38DA","county_code":"k","district":"頭份市","address":"苗栗縣頭份市民生里６鄰富貴街１４巷１１號二樓","road":null,"building_type":"華廈(10層含以下有電梯)","total_floors":7.0,"transfer_floor_num":2.0,"age_years":32.3,"rooms":3.0,"halls":2.0,"baths":2.0,"building_area_sqm":124.59,"total_price":5200000,"unit_price_per_ping":137973.548545,"deal_date":"2025-12-17","is_special_deal":false,"note":null,"lat":24.6799943,"lng":120.9001697,"geocode_src":"osm:exact"},{"serial_no":"RPPNMLOLJHLGFBK28DA","county_code":"k","district":"公館鄉","address":"苗栗縣公館鄉館南村５鄰弘南街７２號四樓之一","road":null,"building_type":"華廈(10層含以下有電梯)","total_floors":7.0,"transfer_floor_num":4.0,"age_years":0.2,"rooms":3.0,"halls":2.0,"baths":2.0,"building_area_sqm":154.48000000000002,"total_price":8380000,"unit_price_per_ping":179328.918895,"deal_date":"2025-12-17","is_special_deal":false,"note":"土地:新台幣293.3萬元，房屋:新台幣544.7萬元","lat":24.5016181,"lng":120.8236066,"geocode_src":"osm:road"},{"serial_no":"RPROMLTKKIKGFFK86DA","county_code":"k","district":"頭份市","address":"苗栗縣頭份市濫坑里２鄰尖豐路７８３巷８號","road":null,"building_type":"透天厝","total_floors":2.0,"transfer_floor_num":null,"age_years":35.6,"rooms":3.0,"halls":2.0,"baths":2.0,"building_area_sqm":225.54,"total_price":2650000,"unit_price_per_ping":38842.973750000005,"deal_date":"2025-12-16","is_special_deal":false,"note":null,"lat":24.6407598,"lng":120.8839014,"geocode_src":"osm:exact"},{"serial_no":"RPSNMLMJJHLGFBK18DA","county_code":"k","district":"苗栗市","address":"苗栗縣苗栗市玉清里２３鄰玉清街坡塘巷１８之１號三樓","road":null,"building_type":"華廈(10層含以下有電梯)","total_floors":5.0,"transfer_floor_num":3.0,"age_years":10.9,"rooms":3.0,"halls":2.0,"baths":2.0,"building_area_sqm":149.15,"total_price":9500000,"unit_price_per_ping":210558.66979,"deal_date":"2025-12-16","is_special_deal":false,"note":null,"lat":24.5643358,"lng":120.8282532,"geocode_src":"osm:exact"},{"serial_no":"RPPNMLTJJHLGFFK09EA","county_code":"k","district":"頭份市","address":"苗栗縣頭份市中興里４鄰中興路４１２號","road":null,"building_type":"透天厝","total_floors":2.0,"transfer_floor_num":null,"age_years":45.3,"rooms":4.0,"halls":1.0,"baths":2.0,"building_area_sqm":99.18,"total_price":5000000,"unit_price_per_ping":166654.539205,"deal_date":"2025-12-16","is_special_deal":false,"note":"本案屬父子間二親等買賣","lat":24.6921416,"lng":120.9042864,"geocode_src":"osm:exact"},{"serial_no":"RPXNMLSJJHLGFFK07DA","county_code":"k","district":"頭份市","address":"苗栗縣頭份市民生里６鄰富貴街１４巷１號六樓","road":null,"building_type":"華廈(10層含以下有電梯)","total_floors":7.0,"transfer_floor_num":6.0,"age_years":32.3,"rooms":3.0,"halls":2.0,"baths":2.0,"building_area_sqm":128.95,"total_price":7500000,"unit_price_per_ping":192271.06717000002,"deal_date":"2025-12-16","is_special_deal":false,"note":null,"lat":24.6801993,"lng":120.8998779,"geocode_src":"osm:exact"},{"serial_no":"RPPNMLOKJHLGFBK28EA","county_code":"k","district":"苗栗市","address":"苗栗縣苗栗市北苗里５鄰中山北路１１３巷１３０號","road":null,"building_type":"透天厝","total_floors":3.0,"transfer_floor_num":null,"age_years":42.9,"rooms":5.0,"halls":6.0,"baths":3.0,"building_area_sqm":443.1,"total_price":5600000,"unit_price_per_ping":41778.51083,"deal_date":"2025-12-16","is_special_deal":true,"note":"親友、員工、共有人或其他特殊關係間之交易；","lat":24.5731563,"lng":120.8223648,"geocode_src":"osm:exact"},{"serial_no":"RPRNMLTJJHLGFBK78DA","county_code":"k","district":"頭屋鄉","address":"苗栗縣頭屋鄉北坑村１鄰田窩４號","road":null,"building_type":"透天厝","total_floors":1.0,"transfer_floor_num":null,"age_years":43.0,"rooms":2.0,"halls":4.0,"baths":2.0,"building_area_sqm":154.56,"total_price":7800000,"unit_price_per_ping":166829.74581000002,"deal_date":"2025-12-15","is_special_deal":false,"note":"外獅潭段784-23784-24地號土地及359建號房屋買賣價金為:760萬元整外獅潭段784-11地號土地權利範圍:5/180買賣價金為:20萬元整","lat":24.5831488,"lng":120.870318,"geocode_src":"osm:exact"},{"serial_no":"RPQNMLKLJHLGFEK38EA","county_code":"k","district":"銅鑼鄉","address":"苗栗縣銅鑼鄉銅鑼村７鄰中正路１６４號","road":null,"building_type":"公寓(5樓含以下無電梯)","total_floors":5.0,"transfer_floor_num":null,"age_years":30.7,"rooms":1.0,"halls":1.0,"baths":1.0,"building_area_sqm":26.34,"total_price":4800000,"unit_price_per_ping":602419.81212,"deal_date":"2025-12-15","is_special_deal":false,"note":null,"lat":24.4882421,"lng":120.7874141,"geocode_src":"osm:exact"},{"serial_no":"RPOOMLOLKHLGFFK78DA","county_code":"k","district":"頭份市","address":"苗栗縣頭份市後庄里３鄰信義路７２１號","road":null,"building_type":"透天厝","total_floors":5.0,"transfer_floor_num":null,"age_years":0.8,"rooms":9.0,"halls":2.0,"baths":10.0,"building_area_sqm":340.29,"total_price":34880000,"unit_price_per_ping":338846.268285,"deal_date":"2025-12-15","is_special_deal":false,"note":"土地價款新台幣13952000.建物價款新台幣20928000.","lat":24.6864212,"lng":120.9072615,"geocode_src":"osm:road"},{"serial_no":"RPRNMLMKJHLGFBK18DA","county_code":"k","district":"苗栗市","address":"苗栗縣苗栗市高苗里３９鄰松園４１１號","road":null,"building_type":"透天厝","total_floors":3.0,"transfer_floor_num":null,"age_years":5.5,"rooms":5.0,"halls":2.0,"baths":3.0,"building_area_sqm":165.73,"total_price":12700000,"unit_price_per_ping":253325.610335,"deal_date":"2025-12-15","is_special_deal":false,"note":"其他增建；","lat":24.54689,"lng":120.809645,"geocode_src":"osm:exact"},{"serial_no":"RPVNMLQKJHLGFDK56DA","county_code":"k","district":"竹南鎮","address":"苗栗縣竹南鎮中華里１６鄰博愛街３１３巷２號十一樓","road":null,"building_type":"住宅大樓(11層含以上有電梯)","total_floors":20.0,"transfer_floor_num":11.0,"age_years":29.0,"rooms":3.0,"halls":2.0,"baths":2.0,"building_area_sqm":196.56,"total_price":10700000,"unit_price_per_ping":179953.71226,"deal_date":"2025-12-14","is_special_deal":false,"note":null,"lat":24.6878441,"lng":120.8692639,"geocode_src":"osm:exact"},{"serial_no":"RPUNMLNLKIKGFDK98DA","county_code":"k","district":"竹南鎮","address":"苗栗縣竹南鎮大厝里２８鄰守法街５號六樓之一","road":null,"building_type":"住宅大樓(11層含以上有電梯)","total_floors":15.0,"transfer_floor_num":6.0,"age_years":0.6,"rooms":3.0,"halls":2.0,"baths":2.0,"building_area_sqm":155.63,"total_price":12000000,"unit_price_per_ping":254895.85821,"deal_date":"2025-12-14","is_special_deal":false,"note":null,"lat":24.6816124,"lng":120.8656654,"geocode_src":"osm:road"},{"serial_no":"RPUNMLQKKIKGFDK56DA","county_code":"k","district":"竹南鎮","address":"苗栗縣竹南鎮龍山里６鄰龍泉街７５號二樓之二","road":null,"building_type":"華廈(10層含以下有電梯)","total_floors":5.0,"transfer_floor_num":2.0,"age_years":0.5,"rooms":3.0,"halls":2.0,"baths":2.0,"building_area_sqm":106.18,"total_price":10980000,"unit_price_per_ping":341847.921065,"deal_date":"2025-12-14","is_special_deal":false,"note":null,"lat":24.7008131,"lng":120.87406649999998,"geocode_src":"osm:road"},{"serial_no":"RPPOMLQKKIKGFFK98DA","county_code":"k","district":"頭份市","address":"苗栗縣頭份市中興里８鄰大亨街１６７巷２之５號二樓","road":null,"building_type":"華廈(10層含以下有電梯)","total_floors":5.0,"transfer_floor_num":2.0,"age_years":6.7,"rooms":3.0,"halls":2.0,"baths":2.0,"building_area_sqm":158.87,"total_price":13280000,"unit_price_per_ping":276330.56815,"deal_date":"2025-12-14","is_special_deal":false,"note":null,"lat":24.6925272,"lng":120.9019854,"geocode_src":"osm:exact"},{"serial_no":"RPQNMLKMKIKGFBK18DA","county_code":"k","district":"苗栗市","address":"苗栗縣苗栗市維祥里２３鄰維祥街１巷１５弄２號十二樓之二","road":null,"building_type":"住宅大樓(11層含以上有電梯)","total_floors":15.0,"transfer_floor_num":12.0,"age_years":1.5,"rooms":2.0,"halls":2.0,"baths":1.0,"building_area_sqm":103.51,"total_price":7250000,"unit_price_per_ping":231543.79297,"deal_date":"2025-12-14","is_special_deal":false,"note":null,"lat":24.5572179,"lng":120.8223761,"geocode_src":"osm:exact"},{"serial_no":"RPSNMLPKJHLGFBK58DA","county_code":"k","district":"苗栗市","address":"苗栗縣苗栗市恭敬里７鄰恭敬路１０６號六樓之三","road":null,"building_type":"華廈(10層含以下有電梯)","total_floors":8.0,"transfer_floor_num":6.0,"age_years":29.5,"rooms":4.0,"halls":2.0,"baths":2.0,"building_area_sqm":151.75,"total_price":6980000,"unit_price_per_ping":152056.192645,"deal_date":"2025-12-14","is_special_deal":false,"note":null,"lat":24.548279600000004,"lng":120.8147583,"geocode_src":"osm:exact"},{"serial_no":"RPUNMLTLKIKGFCK86DA","county_code":"k","district":"苑裡鎮","address":"苗栗縣苑裡鎮客庄里３０鄰客庄７７巷７號","road":null,"building_type":"透天厝","total_floors":3.0,"transfer_floor_num":null,"age_years":46.0,"rooms":6.0,"halls":2.0,"baths":3.0,"building_area_sqm":195.5,"total_price":8250000,"unit_price_per_ping":139500.821215,"deal_date":"2025-12-14","is_special_deal":false,"note":null,"lat":24.4379789,"lng":120.6574708,"geocode_src":"osm:exact"},{"serial_no":"RPOOMLNKJHLGFFK48DA","county_code":"k","district":"頭份市","address":"苗栗縣頭份市中正路２３１巷２０號四樓之二","road":"頭份市中正路","building_type":"華廈(10層含以下有電梯)","total_floors":5.0,"transfer_floor_num":4.0,"age_years":0.3,"rooms":2.0,"halls":2.0,"baths":2.0,"building_area_sqm":97.06,"total_price":10780000,"unit_price_per_ping":367157.011025,"deal_date":"2025-12-13","is_special_deal":false,"note":null,"lat":24.6887776,"lng":120.9153342,"geocode_src":"osm:lane"},{"serial_no":"RPPNMLPKJHLGFFK68DA","county_code":"k","district":"頭份市","address":"苗栗縣頭份市合興里１鄰中央路５４５巷２２弄１２號三樓之八","road":null,"building_type":"華廈(10層含以下有電梯)","total_floors":5.0,"transfer_floor_num":3.0,"age_years":19.1,"rooms":1.0,"halls":1.0,"baths":1.0,"building_area_sqm":34.71,"total_price":3900000,"unit_price_per_ping":371438.0026,"deal_date":"2025-12-13","is_special_deal":false,"note":null,"lat":24.6935412,"lng":120.8937069,"geocode_src":"osm:exact"},{"serial_no":"RPSNMLNKJHLGFDK58DA","county_code":"k","district":"竹南鎮","address":"苗栗縣竹南鎮龍山里８鄰龍山路二段３１３號四樓","road":null,"building_type":"華廈(10層含以下有電梯)","total_floors":7.0,"transfer_floor_num":4.0,"age_years":30.3,"rooms":4.0,"halls":2.0,"baths":2.0,"building_area_sqm":139.68,"total_price":6800000,"unit_price_per_ping":160935.531155,"deal_date":"2025-12-13","is_special_deal":false,"note":null,"lat":24.7007527,"lng":120.8747014,"geocode_src":"osm:exact"},{"serial_no":"RPSOMLTKJHLGFBK09DA","county_code":"k","district":"苗栗市","address":"苗栗縣苗栗市嘉盛里２３鄰為公路４５６號六樓","road":null,"building_type":"華廈(10層含以下有電梯)","total_floors":6.0,"transfer_floor_num":6.0,"age_years":35.8,"rooms":3.0,"halls":2.0,"baths":1.0,"building_area_sqm":225.97,"total_price":6800000,"unit_price_per_ping":99477.68222,"deal_date":"2025-12-13","is_special_deal":false,"note":"陽台外推；","lat":24.5723898,"lng":120.83358080000001,"geocode_src":"osm:exact"},{"serial_no":"RPPNMLNLJHLGFFK58DA","county_code":"k","district":"頭份市","address":"苗栗縣頭份市民族里１５鄰中華路９５３巷１９號九樓","road":null,"building_type":"住宅大樓(11層含以上有電梯)","total_floors":13.0,"transfer_floor_num":9.0,"age_years":30.7,"rooms":3.0,"halls":2.0,"baths":2.0,"building_area_sqm":118.11000000000001,"total_price":7480000,"unit_price_per_ping":209358.669835,"deal_date":"2025-12-13","is_special_deal":false,"note":null,"lat":24.6850363,"lng":120.904896,"geocode_src":"osm:exact"},{"serial_no":"RPPNMLSKJHLGFBK58DA","county_code":"k","district":"苗栗市","address":"苗栗縣苗栗市南勢里１０鄰忠愛１８號","road":null,"building_type":"透天厝","total_floors":1.0,"transfer_floor_num":null,"age_years":44.5,"rooms":4.0,"halls":1.0,"baths":1.0,"building_area_sqm":54.72,"total_price":1650000,"unit_price_per_ping":99682.64089000001,"deal_date":"2025-12-13","is_special_deal":false,"note":null,"lat":24.5313314,"lng":120.7990154,"geocode_src":"osm:exact"},{"serial_no":"RPPNMLTKKIKGFDK98DA","county_code":"k","district":"竹南鎮","address":"苗栗縣竹南鎮公里９鄰大埔頂３０號","road":null,"building_type":"透天厝","total_floors":1.0,"transfer_floor_num":null,"age_years":89.9,"rooms":2.0,"halls":1.0,"baths":1.0,"building_area_sqm":46.7,"total_price":1200000,"unit_price_per_ping":84945.45136,"deal_date":"2025-12-12","is_special_deal":true,"note":"親友、員工、共有人或其他特殊關係間之交易；","lat":24.6533214,"lng":120.8725117,"geocode_src":"osm:exact"},{"serial_no":"RPQNMLLJMHLGFFK58DA","county_code":"k","district":"頭份市","address":"苗栗縣頭份市斗煥里３鄰中正二路６７巷１６號","road":null,"building_type":"透天厝","total_floors":3.0,"transfer_floor_num":null,"age_years":26.2,"rooms":4.0,"halls":1.0,"baths":3.0,"building_area_sqm":168.78,"total_price":9700000,"unit_price_per_ping":189986.769735,"deal_date":"2025-12-12","is_special_deal":false,"note":null,"lat":24.6823608,"lng":120.9421926,"geocode_src":"osm:exact"},{"serial_no":"RPQNMLQJJHLGFCK48DA","county_code":"k","district":"通霄鎮","address":"苗栗縣通霄鎮五南里８鄰中山路３３４巷５８號","road":null,"building_type":"透天厝","total_floors":2.0,"transfer_floor_num":null,"age_years":null,"rooms":2.0,"halls":2.0,"baths":2.0,"building_area_sqm":97.65,"total_price":2450000,"unit_price_per_ping":82942.14565,"deal_date":"2025-12-12","is_special_deal":true,"note":"瑕疵物件；","lat":24.4599126,"lng":120.6637207,"geocode_src":"osm:exact"},