[{"district":"暖暖區","road":"暖暖區國安路","deals":589,"median_unit_price_ping":471527.25504500006,"avg_unit_price_ping":473266.6872715111,"median_total_price":12720000.0,"last_deal_date":"2026-01-13 00:00:00","lat":25.1120929,"lng":121.7306394},{"district":"安樂區","road":"安樂區武崙街","deals":280,"median_unit_price_ping":407375.19133500004,"avg_unit_price_ping":408031.25978737447,"median_total_price":14305000.0,"last_deal_date":"2026-01-14 00:00:00","lat":25.1395362,"lng":121.7063648},{"district":"七堵區","road":"七堵區大德路","deals":217,"median_unit_price_ping":387646.26645500003,"avg_unit_price_ping":389280.98475451616,"median_total_price":9990000.0,"last_deal_date":"2024-07-11 00:00:00","lat":25.0799189,"lng":121.6899717},{"district":"七堵區","road":"七堵區百六街","deals":60,"median_unit_price_ping":360310.73029000004,"avg_unit_price_ping":376568.63601641654,"median_total_price":12620000.0,"last_deal_date":"2025-08-01 00:00:00","lat":25.0854022,"lng":121.697863},{"district":"中正區","road":"中正區義二路","deals":30,"median_unit_price_ping":512938.82374,"avg_unit_price_ping":516920.53157966683,"median_total_price":20045000.0,"last_deal_date":"2025-12-15 00:00:00","lat":25.1368601,"lng":121.7495785},{"district":"信義區","road":"信義區花源一街","deals":15,"median_unit_price_ping":381395.02702000004,"avg_unit_price_ping":386746.2113923334,"median_total_price":12730000.0,"last_deal_date":"2025-07-31 00:00:00","lat":25.1337158,"lng":121.7637031},{"district":"信義區","road":"信義區月眉路","deals":11,"median_unit_price_ping":359705.771635,"avg_unit_price_ping":360234.69723499997,"median_total_price":15150000.0,"last_deal_date":"2025-11-24 00:00:00","lat":25.1129559,"lng":121.7609615},{"district":"中正區","road":"中正區調和街","deals":7,"median_unit_price_ping":299953.70776,"avg_unit_price_ping":300055.24258500006,"median_total_price":15700000.0,"last_deal_date":"2025-12-15 00:00:00","lat":25.1310672,"lng":121.7989375},{"district":"中正區","road":"中正區中正路","deals":7,"median_unit_price_ping":362204.94509500003,"avg_unit_price_ping":370657.36508500006,"median_total_price":21600000.0,"last_deal_date":"2024-09-07 00:00:00","lat":25.1394857,"lng":121.7543262},{"district":"中山區","road":"中山區健民街","deals":7,"median_unit_price_ping":384849.57234500005,"avg_unit_price_ping":386065.62897,"median_total_price":12920000.0,"last_deal_date":"2025-12-15 00:00:00","lat":25.1420277,"lng":121.7370314},{"district":"安樂區","road":"安樂區武聖街","deals":5,"median_unit_price_ping":279523.95646,"avg_unit_price_ping":281334.865483,"median_total_price":19000000.0,"last_deal_date":"2024-08-15 00:00:00","lat":25.1611576,"lng":121.6999405},{"district":"七堵區","road":"七堵區長安街","deals":4,"median_unit_price_ping":395880.97689000005,"avg_unit_price_ping":395398.33228,"median_total_price":11075000.0,"last_deal_date":"2026-01-29 00:00:00","lat":25.0738845,"lng":121.696545},{"district":"仁愛區","road":"仁愛區精一路","deals":4,"median_unit_price_ping":520768.5755125,"avg_unit_price_ping":520909.07137500006,"median_total_price":18540000.0,"last_deal_date":"2025-11-24 00:00:00","lat":25.1264385,"lng":121.741367},{"district":"七堵區","road":"七堵區福一街","deals":3,"median_unit_price_ping":594938.820665,"avg_unit_price_ping":593406.0383533334,"median_total_price":19800000.0,"last_deal_date":"2026-03-20 00:00:00","lat":25.0840823,"lng":121.694828}]